nama_tempat,rating_tempat,user_ratings_total,latitude,longitude,alamat_tempat,place_id,distance
alfamart,4.4,43,-6.233994099999999,106.8496706,"jl. tebet barat, no. iv, no. 7, rt. 016 / 04, kel, rt.16/rw.2, tebet bar., kota jakarta selatan",ChIJ9Vwe-pbzaS4RRlQmSFdW96A,1546.2598718993588
alfamart pasar manggis,4.8,5,-6.2140038,106.8427878,"jl. payakumbuh no.56, rt.11/rw.9, ps. manggis, kota jakarta selatan",ChIJ41SXHGn1aS4R33isZf_v_DY,1901.0087894146056
alfamart,4.3,21,-6.2349423,106.8570767,"jl. tebet timur dalam raya kel no.9, rt.5/rw.6, tebet tim., kota jakarta selatan",ChIJHxShupTzaS4Rfd_GHD6Fkqw,1375.9348279932976
alfamart lapangan ros hrn,3.7,9,-6.225838,106.8587398,"jl. kh abdullah syafei no.45, rt.1/rw.3, kb. baru, kota jakarta selatan",ChIJw46yqITzaS4ROj6VVe4JA9g,381.0947245324254
alfamart,4.3,94,-6.238003099999999,106.8602481,"jl. asem baris raya no.146, rt.11/rw.012 kel, kb. baru, kota jakarta selatan",ChIJ515758zzaS4RzrzdPn8horE,1738.385970840805
alfamart minangkabau,4.5,146,-6.2125368,106.8445336,"jl. minangkabau barat no.2, rw.10, ps. manggis, kota jakarta selatan",ChIJ2wTpYf71aS4RoHjLXsoGgMw,1831.450038038204
alfamart,4.2,21,-6.2210936,106.8542056,"jl. bukit duri selatan kel no.1, rt.4/rw.4, bukit duri, kota jakarta selatan",ChIJXYFIBYbzaS4R8Sd5JpbmsT0,416.53867757614125
alfamart,4.4,115,-6.2296444,106.8533086,"jl. tebet raya no.10a, rt.9/rw.4 kel, tebet tim., kota jakarta selatan",ChIJrwK7gpDzaS4RiLpXd52lzmk,921.1117598354044
alfamart,4.3,68,-6.2295531,106.8467864,"jl dr soepomo sh no 73d menten, rt.2/rw.15, menteng dalam, kota jakarta selatan",ChIJFRyV05PzaS4RMYjyqWOO87o,1430.5675559855672
alfamart,0.0,0,-6.2140499,106.8468344,"jl. mampang prapatan xviii no.01, rt.8/rw.rw, manggarai, kota jakarta selatan",ChIJu8pW-M_1aS4RNa-MGFln8O8,1527.4351433397728
alfamart,3.0,2,-6.233449999999999,106.85983,"jl. asem baris raya kel no.8 rt 2/6, rt.2/rw.6, kb. baru, kota jakarta selatan",ChIJufbg8FXzaS4RNHykvXTY9ec,1231.9666065986466
alfamart abdullah syafei,4.3,56,-6.2233659,106.8491521,"jl. kh. abdullah syafei no.27, kel no.01, rt.4/rw.1, manggarai sel., kota jakarta selatan",ChIJAUMc7Y7zaS4RgN_gPmZvDbU,944.8892252733618
alfamart tebet utara dalam,0.0,0,-6.227136199999999,106.8550131,"10, jl. tebet utara dalam no.14, rw.1, tebet tim., kota jakarta selatan",ChIJ2y6N7cbzaS4Rq34j25qX_tE,585.0519578338044
alfamart bukit duri utara,5.0,1,-6.2168284,106.8551025,"10, jl. bukit duri utara raya no.27, rw.1, bukit duri, kota jakarta selatan",ChIJKdryITrzaS4Rr3YGBQKOJss,699.6119725612702
alfamart,4.0,2,-6.209969699999999,106.8503501,"stasiun manggarai, rt.15/rw.4, manggarai, kota jakarta selatan",ChIJsxTMGoP1aS4RKrbP3zhaAww,1618.7584786907123
alfamart,3.9,18,-6.2218534,106.8588398,"jl. bukit duri tanjakan no.kel, rt.13/rw.44, bukit duri, kota jakarta selatan",ChIJ_Q3dB4TzaS4RZxSq_Ptr8NY,153.19327570796585
alfamart asem baris 9,3.3,3,-6.231533199999999,106.8595579,"jl. asem baris raya no.2, rt.4/rw.4, kb. baru, kota jakarta selatan",ChIJu7E9QdjzaS4RRrwgvXYkovU,1017.1167522333984
alfamart,3.7,18,-6.210939,106.8421901,"jl. menteng wadas timur no. 12, kel no.01, rt.2/rw.1, ps. manggis, kota jakarta selatan",ChIJ65NqKXP0aS4R5fP1Zj0JGls,2145.17450106311
alfamart,4.2,247,-6.232115299999999,106.8526155,"jl. tebet timur raya kel no.10a, rw.5, tebet tim., kota jakarta selatan",ChIJvxCSrJDzaS4RKB-Id--kE3M,1197.9548747694778
alfamart express,0.0,0,-6.2107225,106.8508269,"qvq2+p84, rt.15/rw.4, manggarai, south jakarta city",ChIJQYHKz8b1aS4RneZiLSv-nAY,1519.919656961442
alfamart,3.8,6,-6.217207399999999,106.8442193,"jl.dr. saharjo no. 96, kel no.1, rt.1/rw.7, menteng atas, kota jakarta selatan",ChIJpTDO7ojzaS4Rr4Rj2cGIbD4,1601.8028410607958
alfamart,4.3,22,-6.2209506,106.8501247,"jl. albarkah kel no.4, rw.3, manggarai sel., kota jakarta selatan",ChIJF9_lmLfzaS4RB63H3egCn4M,852.8664035821819
alfamart barkah ii,0.0,0,-6.2197686,106.8511829,"jl. barkah i no.14, rw.6, manggarai sel., kota jakarta selatan",ChIJ85lVEnTzaS4RHy8f_3cmsuI,781.7059795955764
alfamart rasamala,5.0,2,-6.234524,106.839845,"jl. rasamala raya no.29, rt.1/rw.9, menteng dalam, kota jakarta selatan",ChIJEYL_Dc7zaS4RB34juQUJWKA,2375.4572227627573
alfamart,4.5,117,-6.2247584,106.8629242,"jl. kp. melayu kecil no.17 a, rt.12/rw.9, bukit duri, kota jakarta selatan",ChIJmxbt6ILzaS4RDljYoNQLKVc,629.8529970017577
alfamart bkd,4.5,6,-6.2198946,106.8557831,"jl. tekukur dalam no.21-31, rt.9/rw.2, bukit duri, kota jakarta selatan",ChIJcVc1XIbzaS4RcyP2izqoYHE,364.0152358509857
alfamart mwtm (k795),4.4,5,-6.210930299999999,106.8421876,"jl. menteng wadas timur no.18b, rt.9/rw.1, ps. manggis, kota jakarta selatan",ChIJH1n1T3P0aS4R6agOTLlpnCg,2145.9787864580785
alfamart asem baris dua,4.5,17,-6.240856200000001,106.860392,"jl. asem baris raya no.12, rt.6/rw.14, kb. baru, kota jakarta selatan",ChIJcX-mR6HzaS4RpaepHq-g7uc,2054.260530061992
alfamart,3.9,26,-6.223748899999999,106.8551894,"jl. sawo kecik raya no.4, rt.0 kel, rt.6/rw.6, bukit duri, kota jakarta selatan",ChIJ7U7upoXzaS4RujBBzm_mTGw,302.71595008036536
alfamart swadaya 1,4.3,131,-6.214059499999999,106.8468424,"jl. swadaya 1 no.25, rt.8/rw.8, manggarai, kota jakarta selatan",ChIJAWHbLHT0aS4RKMOn7LcwAFo,1526.07907084894
alfamart menteng atas selatan 3,3.5,8,-6.2177142,106.8386021,"qrjq+wc9, rt.9/rw.4, menteng atas, south jakarta city",ChIJ3YwKPTbzaS4RVeL7N3tKQps,2175.4794489306146
alfamart,4.3,6,-6.241123,106.860408,"no., jl. asem baris raya no.12, rt.6/rw.14, kb. baru, kota jakarta selatan",ChIJeSn3SKHzaS4R_WptlUHhqUU,2083.8671886156503
alfamart,5.0,4,-6.225860000000001,106.8587594,"rt.1/rw.5, kb. baru, kota jakarta selatan",ChIJqeWQWf7zaS4RJW-5-q6ZFk8,384.0972743754201
alfamart express,0.0,0,-6.2425745,106.8586384,"jl. tebet timur raya no.55, rw.14, tebet tim., kota jakarta selatan",ChIJA4mAfRjzaS4RW9IHZeqsAaw,2225.677491509153
alfamart,4.1,175,-6.249124,106.8586472,"jl. pengadegan timur raya no.17, rt.3/rw.2, pengadegan, kota jakarta selatan",ChIJSRHaLq_zaS4RM3bNCU2HZd8,1838.8409603521548
alfamart,4.3,271,-6.246529199999999,106.8553284,"5 jalan pengadegan utara kel no. 6 2, cikoko, kota jakarta selatan",ChIJSzw7gK_zaS4R5IGShG4jJTk,1644.684147573765
alfamart,0.0,0,-6.2422578,106.8586157,"jl. tebet timur dalam ii jl. letjen m.t. haryono no.kel, rt.11/rw.6, tebet tim., kota jakarta selatan",ChIJVZBHaVfzaS4RFTjXgXG6zA0,1085.1738794258763
alfamart,0.0,0,-6.247007399999999,106.8432948,"gedung l'avenue shop 1, jl. raya pasar minggu kel no.kav.16, rt.1/rw.4, kalibata, kota jakarta selatan",ChIJP1-5SVPzaS4RG7CXt6z9WAA,2488.948332751227
alfamart,4.0,122,-6.2494,106.84871,"jl. perdatam raya no.35, rt.7/rw.8, pengadegan, kota jakarta selatan",ChIJyX7I3bDzaS4Rb6or_7hHT18,2275.621125510484
alfamart apartemen signature,3.0,2,-6.242746899999999,106.8545314,"jl. letjen m.t. haryono no.10, rw.9, tebet tim., kota jakarta selatan",ChIJaY52jS7zaS4Rhs70E5KpMKc,1303.6027210140703
alfamart,0.0,0,-6.2514477,106.8618801,"jl. pengadegan timur i no.30, rt.7/rw.1, pengadegan, kota jakarta selatan",ChIJ1YYQJfXzaS4RtiFyuIT23go,2089.023353097424
alfamart,4.3,120,-6.2516637,106.8500804,"jl. pengadegan selatan no.no, rt.3/rw.5, pengadegan, kota jakarta selatan",ChIJy5ulebHzaS4RlZiilhvlQuQ,2408.483380134001
alfamart komplek selmis,0.0,0,-6.2258337,106.8589905,"jl. asem baris raya no.3, rt.3/rw.9, kebon baru, south jakarta city",ChIJ0dPodPrzaS4RE47Rr8Mz77Y,784.6174729258792
alfamart bukit duri selatan,0.0,0,-6.2212139,106.856739,"jl. cucakrawa no.882, rt.8/rw.4, bukit duri, kota jakarta selatan",ChIJ8a2fcwfzaS4Rte3SBP5Gj_0,1347.413328061029
alfamart stasiu,5.0,3,-6.2258686,106.8586468,"qvf5+mfc, flyover stasiun tebet, rt.3/rw.9, kb. baru, kota jakarta selatan",ChIJYRBiI-rzaS4RBW5LKzm2-yY,790.4365462016663
alfamart,0.0,0,-6.213906,106.831112,"jl. h. r. rasuna said no.kav. 3, rt.3/rw.5, setia budi, kota jakarta selatan",ChIJj0q3Toz1aS4RmEbgm7uw19A,2082.4697419683857
alfamart menteng atas,5.0,3,-6.2140737,106.8402247,"jl. menteng atas no.9, rw.12, kuningan, pasar manggis, south jakarta city",ChIJ9zeEzdD1aS4Rcj8jslVXWzQ,1176.071194217656
alfamart muria tanjakan,4.6,35,-6.2119276,106.8380365,"jl. muria tanjakan gg. c2 no.6, rt.1/rw.12, ps. manggis, kota jakarta selatan",ChIJ5Si0x671aS4RNBFEQK-tApQ,1513.0055398269235
alfamart,0.0,0,-6.22884,106.83263,"ariobimo sentral, jl. h. r. rasuna said no.kel, rt.1/rw.2, kuningan, kuningan tim., kota jakarta selatan",ChIJj_61hA3zaS4RYO2Bom0a2e0,2024.3946799472496
alfamart,5.0,3,-6.2392783,106.832538,"jl. gatot subroto no.kav 56, rt.1/rw.4, kuningan tim., kota jakarta selatan",ChIJXb2FxfXzaS4RMmmtYeQEE18,2771.6192722231067
alfamart,4.7,11,-6.218932499999999,106.8302356,"jl.hr. rasuna said kav. 3 - 5 kel, rt.6/rw.7, kuningan, setia budi, kota jakarta selatan",ChIJXVCj6unzaS4R3_PYMijRI8o,2059.294472813791
alfamart satrio,4.7,12,-6.2256225,106.8301711,"jl. prof. dr. satrio no.9, rt.7/rw.2, kuningan, kuningan tim., kota jakarta selatan",ChIJRSP9X8HzaS4ROIFGu7jBrKg,2143.4454062675504
alfamart sawah lunto,4.6,169,-6.214008799999999,106.842788,"11, jl. minangkabau barat no.58d, rt.11/rw.9, ps. manggis, kota jakarta selatan",ChIJaSlK6PT1aS4RrBHGJkrlQ1k,967.2188993630224
alfamart,0.0,0,-6.193723299999999,106.8650954,"jl kel no.28, rt.2/rw.5, north utan kayu, east jakarta city",ChIJCdG-VXL1aS4R_hMAhW6qrhM,2560.979940671363
alfamart,4.3,151,-6.216512,106.8278755,"jl. anggrek 3 kel no.25 b, rt.19/rw.2, kuningan, karet kuningan, kota jakarta selatan",ChIJd8d5kgf0aS4RZrS7fXlU-kg,2077.8522042494124
alfamart,4.0,1,-6.2130459,106.825213,"jl. karet belakang barat jl. karbela no.kel, rt.1/rw.2, kuningan, karet kuningan, kota jakarta selatan",ChIJg9H4zDH1aS4Rm3_YlVTAJaY,2562.3711556210246
alfamart,3.0,1,-6.2303643,106.8218469,"jl. guru mughni kel no.12, rt.1, kuningan, kuningan tim., kota jakarta selatan",ChIJR3_-W0XzaS4Ra2KJ49HgobM,2003.0952740942212
alfamart,4.2,66,-6.2457614,106.8258046,"jl. mampang prpt. raya kel no.58 a, rt.9/rw.3, tegal parang, kota jakarta selatan",ChIJWVXFdyLzaS4R8xNLa-VEm_w,2282.129795103044
alfamart,5.0,1,-6.2435925,106.8322469,"jl. tegal parang utara no.23a, rt.15/rw.007, kel, kota jakarta selatan",ChIJ7yB92wvzaS4RB20MfN2CxwI,1656.3111715736195
alfamart tegal parang 2,4.2,343,-6.2472825,106.8318862,"jl. tegal parang sel. no.3, rt.4/rw.2, tegal parang, kota jakarta selatan",ChIJyxel_CHzaS4RK3olku7tsH8,2036.292290885624
alfamart,4.3,263,-6.2138855,106.8266392,"jl. karet belakang i no.2, rt.3/rw.4, kuningan, karet, kota jakarta selatan",ChIJUyMhTgb0aS4RgL8lQLR7f34,2390.8461946371995
alfamart mampang prapatan 2,4.2,180,-6.2433977,106.8291506,"jl. mampang prapatan ii no.19, rt.10/rw.2, mampang prpt., kota jakarta selatan",ChIJv7kzTtvzaS4RPboho4y1LBs,1839.3584316529937
alfamart tegal parang selatan,0.0,0,-6.2481087,106.8334975,"jl. tegal parang selatan i no.2, rw.4, tegal parang, kota jakarta selatan",ChIJQzyLgYTzaS4RebsP5hyLO0c,2050.59229409672
alfamart,3.8,39,-6.243284,106.8259296,"jl. mampang prpt. raya kel no.18, rt. 06/03, rt.6/rw.3, mampang prpt., kota jakarta selatan",ChIJ5743TtvzaS4RaNTeZ8xL7Gw,2079.857764014066
alfamart karbela 2,3.8,5,-6.2154088,106.8281067,"jl. karbela, gg. anggrek xii kel no.10, rt.18/rw.2, kuningan, karet kuningan, kota jakarta selatan",ChIJAy-tiaj1aS4RDnaS0bHpQiw,2157.6156651146225
alfamart,4.3,66,-6.216337999999999,106.8203685,"jl. bek murad no.7, rt.8/rw.001 kel, kuningan, karet kuningan, kota jakarta selatan",ChIJqxVWcJX1aS4RUAMlnS81uJM,2699.1537046760536
alfamart tegal parang 3,4.0,148,-6.2436208,106.8322451,"qr4j+hv3, jl. tegal parang utara, rt.4/rw.7, mampang prpt., kota jakarta selatan",ChIJfecMjMTzaS4R4fJ9fakjI5Q,1659.1118521918374
alfamart,4.2,161,-6.2499501,106.8363977,"jl. pancoran barat vii kel no.22, rt.9/rw.6, kalibata, kota jakarta selatan",ChIJ6RtK2MjzaS4RUM3_G2pv1Kc,2162.9964613392767
sumber alfaria trijaya. pt (alfamart),3.0,1,-6.213625899999999,106.8206906,"jl. penjernihan i no.10, rt.4/rw.2, kuningan, karet, kota jakarta selatan",ChIJo-s9oAH0aS4RVJ8YUgAM_DY,2862.676374462691
alfamart,3.8,13,-6.2510088,106.8216417,"jl. pondok jaya vi no.31 rt.00 kel, rt.6/rw.6, pela mampang, kota jakarta selatan",ChIJmdxMydLzaS4R3PTMkWwbsm8,3023.0591647086303
alfamart guru mugni 2,3.8,25,-6.230415799999999,106.8213373,"jl. peltu rahmat sidup no.7 kuningan rt.1, rt.1, rt.1, kuningan, kuningan tim., kota jakarta selatan",ChIJ7z1SCOPzaS4RUqc62WYc7_E,2059.2737220733893
alfamart,4.5,19,-6.253404799999999,106.8401304,"jl. duren tiga selatan no.88, rt.1/rw.001 kel, pancoran, kota jakarta selatan",ChIJAXBtHt7zaS4RqSjmY_L6_Tg,2195.7928783348
alfamart mampang prapatan xiv,3.0,1,-6.2512721,106.8313689,"prxj+fgx, rt.9/rw.4, tegal parang, south jakarta city",ChIJaXYbbDDzaS4RLIPv_3bV5Yg,2595.734137260922
alfamart,0.0,0,-6.2550819,106.8562552,"woodland park residence tower trembesi, jl. raya kalibata kel no.22, rt.6/rw.7, rawajati, kota jakarta selatan",ChIJGWu7SVDzaS4RQFrnntyC1lo,2312.7008144371644
alfamart pancoran barat vii,4.6,27,-6.252869899999999,106.8376863,"jl. pancoran barat vii no.7a, rt.15/rw.1, pancoran, kota jakarta selatan",ChIJR3f96NbzaS4RlJ7hhGiIRj4,2276.323349890287
alfamart pengadengan barat,4.4,85,-6.245896,106.8555588,"jl. pengadegan barat raya no.21, rt.2/rw.6, pengadegan, kota jakarta selatan",ChIJD6Xy_f7zaS4RD9NxgaCPQ9I,1448.565185707927
alfamart,4.0,2,-6.253431399999999,106.8216615,"jl. bangka xi c kel no.26, rt.11/rw.10, pela mampang, kota jakarta selatan",ChIJ87K7nWvzaS4Rle3PP96wwFg,0.0
alfamart,4.2,283,-6.2491889,106.8186279,"jl. bangka ii kel no.1a, rt.8/rw.3, pela mampang, kota jakarta selatan",ChIJ-dormaPzaS4RlalyMly0C5M,0.0
alfamart,0.0,0,-6.252799599999999,106.8268128,"jl. mampang prpt. 16 kel no.5, rt.1/rw.6, tegal parang, kota jakarta selatan",ChIJl_om9KjzaS4RGU8Vxu07GBo,0.0
alfamart,4.4,24,-6.2572531,106.8177386,"jl. kemang utara, no. 12 d-e, rt. 006/005, kel, rt.6/rw.1, bangka, kota jakarta selatan",ChIJtQRU4H_xaS4R4f3Hqd6dnFE,0.0
alfamart,4.2,120,-6.245465,106.8186523,"jl. bangka ii kel no.29l, rt.17/rw.2, pela mampang, kota jakarta selatan",ChIJE2FoiNjzaS4RkuhZJgb9Stg,0.0
alfamart mampang prapatan 2 (kb48),4.0,4,-6.2527525,106.8268743,"jl. warung buncit raya no.5, rt.4/rw.6, tegal parang, kota jakarta selatan",ChIJgePHgdHzaS4RcdWxMOdPfeA,0.0
alfamart bakrie tower,4.7,6,-6.2193385,106.8344896,"bakrie tower, jl. epicentrum utama raya no.2, rt.2/rw.5, karet kuningan, south jakarta city",ChIJW44xTg70aS4RnoQoC3ewjZY,0.0
alfamart,4.7,54,-6.248098499999999,106.8289238,"jl. mampang prapatan viii no.23, rw.2, tegal parang, kota jakarta selatan",ChIJw9fJV1DzaS4R-MkiDQkHMOY,0.0
