nama_tempat,rating_tempat,user_ratings_total,latitude,longitude,alamat_tempat,place_id,distance
indomaret grand wijaya. t98c,4.2,55,-6.2532473,106.7993526,"grand wijaya blok b10, jl. wijaya ii, rt.6/rw.1, pulo, kota jakarta selatan",ChIJT8Q48HPxaS4RHGBGXmOUqp0,227.1191727278781
indomaret kemang mampang tjkc,3.4,16,-6.2555529,106.8123381,"jl. kemang raya no.15, rt.13/rw.1, bangka, kota jakarta selatan",ChIJN7p70X7xaS4R6VpOujMI_Wo,1511.9447789987728
"indomaret, blok m square",4,1,-6.2443244,106.7993778,"jl. melawai 6 no.3, rw.1, melawai, kota jakarta selatan",ChIJp6k1jNPxaS4RsvpHlCJjam4,1208.771691076971
indomaret fatmawati 33d,5,1,-6.2664857,106.7975475,"rt 03 no, jl. rs. fatmawati raya no.33c, rt.2/rw.2, gandaria sel., kota jakarta selatan",ChIJsZgWTnXxaS4R_vrbAMPG_9c,1264.074946383701
indomaret,4.5,2,-6.2550721,106.7974134,"jl. darmawangsa raya no.125, rt.2, rt.2/rw.1, pulo, kota jakarta selatan",ChIJwX02iFLxaS4RMQgSCQVBeVQ,138.76644412691056
indomaret panglima polim - blok a,4,29,-6.2576762,106.7967995,"jl. rs. fatmawati raya no.1, gandaria utara, kota jakarta selatan",ChIJCZIzrZ_xaS4RiJX_wvOeaH4,346.47644879339947
indomaret melawai iv no 52,5,2,-6.2454911,106.80124,"3, jl. melawai iv no.52, rw.1, melawai, kota jakarta selatan",ChIJaWy44RjxaS4RORWqDRtDtk0,1113.4668765339627
indomaret,4.6,43,-6.2627085,106.7887445,"jl. radio dalam raya no.12a, rt.7/rw.10, gandaria utara, kota jakarta selatan",ChIJvygfS6HxaS4RL3sTDNNU6fY,1380.0804612477264
indomaret cikajang. f4o3,3.8,33,-6.2394178,106.8107532,"1, jl. cikajang no.1, rt.1/rw.5, petogogan, kota jakarta selatan",ChIJC8mjQGfxaS4RkOquMhj4bMM,2203.2170830789714
indomaret hasanudin 57,4,4,-6.2425243,106.8022062,"jl. sultan hasanudin no.53, rt.2/rw.1, melawai, kota jakarta selatan",ChIJ-ZfljI_xaS4RYqEvAOKUxi0,1459.8234654594846
indomaret,4,1,-6.2460531,106.8074507,"jl. wijaya iv no.73, rt.10/rw.1, petogogan, kota jakarta selatan",ChIJLaYz6kXxaS4R23ofLaT83us,1404.0170765412588
indomaret,4.1,57,-6.2483714,106.7903916,"jl. gandaria 1 no.67, rt.2/rw.8, kramat pela, kota jakarta selatan",ChIJXUBFcBLxaS4RdvT3g4SaRRs,1186.6256357032764
indomaret radio dalam. t06c,4.2,18,-6.2523025,106.7913861,"jl. radio dalam raya blok haji hamali no.22, rt.1/rw.9, gandaria utara, kota jakarta selatan",ChIJD3ss9gzxaS4RA85t5OGeHsk,865.500985536322
indomaret asem 2.,3.8,23,-6.272082,106.8009549,"jl. asem dua no.26, rt.14/rw.5, cipete sel., kota jakarta selatan",ChIJs6y5G5HxaS4RurVX3sajfVU,1897.2703673417877
indomaret point,0,0,-6.2440509,106.8161762,"jl. bangka raya no.25, rw.2, pela mampang, kota jakarta selatan",ChIJNW2A01zxaS4RylvPeD8BOB4,2296.909377500484
indomaret petogogan (tb49),4.2,24,-6.254561799999999,106.7958583,"jl. petogogan ii no.18, rt.9/rw.5, pulo, kota jakarta selatan",ChIJperbNA3xaS4R4zKGAs61CVs,317.54499598928425
indomaret gandaria1,4.7,7,-6.2484603,106.7904931,"jl. jatayu no.24, rt.2/rw.3, kramat pela, kota jakarta selatan",ChIJy45QPxLxaS4RZEV6XxuVfK0,1171.6801493023133
indomaret,0,0,-6.247488499999999,106.8149378,"jl. bangka iig no.11, rw.11, pela mampang, kota jakarta selatan",ChIJ-bHiAPTxaS4RQJ3di8P7F2g,1991.3136993249911
indomaret gandaria city,4.4,91,-6.245896699999999,106.78401,"jl. kh. moh. syafi'i hadzami no.45, rt.9/rw.6, kby. lama utara, kota jakarta selatan",ChIJM5u87BDxaS4Rgyv0HFQy6ZY,1920.325021472009
indomaret sultan iskandar muda,4.2,95,-6.2511828,106.7813003,"jl. sultan iskandar muda no.9, rt.8/rw.1, kby. lama sel., kota jakarta selatan",ChIJ74HObQXxaS4RUip6zNyV5gE,1969.949669698159
indomaret dan fotocopi,5,1,-6.2393471,106.8107088,"qr66+777, rt.1/rw.5, petogogan, south jakarta city",ChIJeSJcQGfxaS4RjSDS5V3D1ZY,2206.5084787904184
indomaret petogogan,4.2,21,-6.2503084,106.7941812,"jl. petogogan no.18, gandaria utara, kebayoran baru, pulo, rt.11/rw.7, rt.11/rw.7, pulo, kota jakarta selatan",ChIJ94ljMXPxaS4RH5R1BnmpJP8,733.5404599591158
indomaret,0,0,-6.26411,106.7988205,"pqpx+9g4, unnamed road, rt.1/rw.5, north cipete, south jakarta city",ChIJF69gRyfxaS4R72RSYGIDZyU,994.0106201315115
indomaret,4.4,243,-6.2518104,106.8145478,"jl. bangka raya no.105, rt.1/rw.12, pela mampang, kota jakarta selatan",ChIJ0dTG_nzxaS4RT0V7owX_qpg,1794.9545619133096
indomaret fatmawati raya,4.2,18,-6.2695941,106.7975764,"jl. rs. fatmawati raya no.27, rt.1/rw.5, cipete sel., kota jakarta selatan",ChIJDwAAAJHxaS4RELZlVPfYtVg,1608.172614857885
indomaret spbu kemang,4.5,98,-6.2668841,106.8157034,"spbu kemang, jl. kemang raya no.7, rw.2, bangka, kota jakarta selatan",ChIJXaV9uofxaS4R737kEcz9UiE,2289.7393717560176
indomaret point,3.7,11,-6.2371779,106.7826854,"stasiun kebayoran, jl. mesjid al huda no.1a, rt.3/rw.1, kby. lama utara, kota jakarta selatan",ChIJ1yLGXyDxaS4R85Dgviw7Wro,2668.928031011488
indomaret melawai 6 no. 17,0,0,-6.2443244,106.7993621,"jl. melawai 6 no.17, rt.3/rw.1, melawai, kota jakarta selatan",ChIJZXQ3b1nxaS4RBDCbFsM3GfE,1208.6597858054952
indomaret tanah kusir 2 dalam tt2d,4.4,269,-6.257153,106.784136,"gg. swadaya iii no.18, rt.10/rw.9, kby. lama sel., kota jakarta selatan",ChIJZbLLdm_xaS4R4cgyDKLeE8k,1620.9469569936102
indomaret bangka raya,4.6,18,-6.245269400000001,106.8158177,"jl. bangka raya no. 30, rt. 02 / 02, pela mampang, bangka, rt.11/rw.11, pela mampang, kota jakarta selatan",ChIJETmoJH3xaS4R8_bMnW8Vt74,2192.5349411290904
indomaret duta mas fatmawati,4.5,62,-6.263351900000001,106.7986876,"jl. rs. fatmawati raya no.15, rw.5, cipete utara, kota jakarta selatan",ChIJAQAAAJ3xaS4R3VfdB1vHqnw,909.5681280693127
indomaret palem raya,1,1,-6.271644999999999,106.803089,"jl. palem no.5, rt.14/rw.5, cipete sel., kota jakarta selatan",ChIJDwAAAJHxaS4RjyudUxZZxus,1895.8689324441254
indomaret kh ahcmad dahlan. {twxj},4.1,27,-6.2458778,106.7920332,"qq3r+jrr, jalan kh. achmad dahlan, rt.3/rw.1, kramat pela, kota jakarta selatan",ChIJuxnwDxPxaS4R4BeT2kbalvE,1267.0334502167273
indomaret kebayoran lama 1,4.2,373,-6.2381749,106.7808075,"jl. raya kby. lama no.4, rt.2/rw.1, kby. lama utara, kota jakarta selatan",ChIJodfvliLxaS4RpMCXWAnHq3Q,2732.7967956285756
indomaret kemang selatan 8 t6zo,4.5,225,-6.2674666,106.8139114,"jl. kemang selatan viii no.67f, rt.7/rw.2, bangka, kota jakarta selatan",ChIJDVvROIbxaS4RE-sW0bxd2kc,2170.016790484726
indomaret fatmawati 2,3.8,11,-6.268205399999999,106.7970959,"jalan rs. fatmawati no. 5, cilandak, rt.1/rw.3, gandaria sel., kota jakarta selatan",ChIJFb9gM5jxaS4Rq1wKzoM3qas,1459.5881530199615
indomaret haji nawi ( tq03 ),0,0,-6.2637034,106.7954092,"4, jl. h. nawi raya no.28a, rt.4/rw.7, gandaria sel., kota jakarta selatan",ChIJ4dWEmRnxaS4RQFHJI6sgsqk,1014.6069457384588
indomaret madrasah,4.3,89,-6.266464999999999,106.7914699,"no, jl. madrasah no.17, rt.7/rw.1, gandaria sel., kota jakarta selatan",ChIJ14sVU6LxaS4Rrt0AdBPZjQM,1486.369971878622
mitra umkm indomaret,0,0,-6.2695104,106.7975699,"pqjx+52v, jl. rs. fatmawati raya, rt.6/rw.5, cipete sel., kota jakarta selatan",ChIJYWqPfpfxaS4RB7eEa52T3-0,1598.946034882666
indomaret praja dalam k,4.1,17,-6.2505751,106.7834542,"jl. praja dalam k no.18, rt.9/rw.5, kby. lama sel., kota jakarta selatan",ChIJOwAAAAfxaS4RKTnNaZ1qgc4,1757.2665666207372
indomaret point kemang,4.4,196,-6.2602656,106.815172,"jl. kemang raya no.8, rt.8/rw.2, bangka, kota jakarta selatan",ChIJS0XcTYDxaS4R7ku6ssO11Gs,1910.4691397527731
indomaret bungur raya 2,4.8,77,-6.2476761,106.7817145,"jl. duku raya no.79-81, rt.14/rw.6, kby. lama utara, kota jakarta selatan",ChIJhV_DfRrxaS4Ry97kNCuA-dY,2050.6206224387834
indomaret panglima polim 125b t3pi,4,5,-6.2550595,106.7974126,"jl. panglima polim no.125a, rt.2/rw.1, pulo, kota jakarta selatan",ChIJb-Coe5PxaS4Rq13QTJ2nq04,138.97369085381123
indomaret apartemen kemang jaya,4,9,-6.2646261,106.813776,"jl. taman kemang jaya no.9, rw.2, bangka, kota jakarta selatan",ChIJGQe3OH7xaS4RIoThryrl3zc,1973.5590061603436
indomaret radio dalam 2,4.4,116,-6.2557519,106.790021,"jl. bri radio dalam no.83, rt.1/rw.8, gandaria utara, kota jakarta selatan",ChIJS-XZvAvxaS4R0DsvIJwCgMs,957.5988027226156
indomaret (abdul majid),4.4,207,-6.266423,106.8061697,"jl. cipete utara no.4, rt.17/rw.2, cipete sel., kota jakarta selatan",ChIJtzSt1YTxaS4RFu6cHY0WKkQ,1501.0869600402743
indomaret bungur raya2 {fuff},4,18,-6.2450426,106.780055,"jalan bunguran, rt.12/rw.2, kby. lama sel., kota jakarta selatan",ChIJ_46xkBrxaS4ReC4bR5CD23A,2345.2005155593897
indomaret exit mrt h nawi,5,1,-6.266061,106.7975764,"jl. rs. fatmawati raya no.2, rt.4/rw.5, cipete sel., kota jakarta selatan",ChIJyzZxP67xaS4RMbpMyvQ2wbU,1216.7650795152954
haji indomaret enting. {ts90},3.3,20,-6.2579731,106.8006317,"gg. h. enting no.1, rt.10/rw.1, cipete utara, kota jakarta selatan",ChIJDwH5C3bxaS4RcxF4-cn7X5g,379.8400007315228
indomaret ciputat raya 2,4.4,22,-6.2463603,106.7796743,"jl. raya ciputat, rt.8/rw.4, kby. lama utara, kota jakarta selatan",ChIJfYz0UxrxaS4RDiV8YKP8J24,2316.516218981957
indomaret melawai,4.4,110,-6.246081800000001,106.7998046,"jl. melawai raya no.17 melawai, kebayoran lama, rt.2/rw.1, melawai, south jakarta city",ChIJq2YU5W7xaS4RKF6o-6Mc-uA,1018.6068980946233
fresh indomaret kemang,4.4,382,-6.272597699999999,106.8149503,"jl. kemang raya no.128, rt.3/rw.2, bangka, kota jakarta selatan",ChIJsVZkdYnxaS4RtDwdFb5B2t0,2644.749318508519
indomaret damai fatmawati. fq84,4.1,36,-6.2600751,106.7970731,"jl. damai raya no.6, rt.1/rw.5, north cipete, south jakarta city",ChIJXw0Sy5_xaS4RW8YkG7Tx-_8,572.8845464072426
indomaret fave melawai (fm6s),0,0,-6.244421399999999,106.8015382,"jl. melawai iv no.3-11, rt.3/rw.1, melawai, kota jakarta selatan",ChIJZ_9u5ZDxaS4RtzyeEc5s00A,1236.8871060278798
indomaret birah senayan,4.1,168,-6.2353007,106.8152731,"no.13, jl. birah i no.1, rt.5/rw.6, rw. bar., kota jakarta selatan",ChIJkYWOBl_xaS4RmTTy6oeqFXc,2872.7092389328964
indomaret fresh,4.6,46,-6.243758199999999,106.8163851,"jl. bangka raya no.23, rw.5, pela mampang, kota jakarta selatan",ChIJOVEJ60XxaS4RhRxK42wBrb8,2333.93907421325
indomaret metro pondok indah,4.3,480,-6.2743949,106.7827922,"blok tc, jl. metro pondok indah no.11, rt.2/rw.15, pd. pinang, kota jakarta selatan",ChIJm56pCbrxaS4RgzDUcFCWSR0,2765.292745042213
indomaret panglima polim 106,4.7,29,-6.2476908,106.7976133,"jl. panglima polim no.107, rw.5, b-c, kota jakarta selatan",ChIJI3U5C2XxaS4RdRRpbU-heos,839.9527652126346
indomaret damai f561,4.5,140,-6.2620838,106.8056991,"jl. h. jian no.81, rt.1/rw.7, cipete utara, kota jakarta selatan",ChIJPUjazZzxaS4RUSIDkidVSQg,1093.2590854210168
indomaret,5,2,-6.255084,106.8144756,"jl. bangka raya no.5d, rt.13/rw.1, bangka, kota jakarta selatan",ChIJna8wx9fxaS4RYJPoLhdWN9A,1747.6439796906297
