nama_tempat,rating_tempat,user_ratings_total,latitude,longitude,alamat_tempat,place_id,distance
indomaret grand wijaya. t98c,4.2,55,-6.2532473,106.7993526,"grand wijaya blok b10, jl. wijaya ii, rt.6/rw.1, pulo, kota jakarta selatan",ChIJT8Q48HPxaS4RHGBGXmOUqp0,1200.1147624446007
indomaret kemang mampang tjkc,3.4,16,-6.2555529,106.8123381,"jl. kemang raya no.15, rt.13/rw.1, bangka, kota jakarta selatan",ChIJN7p70X7xaS4R6VpOujMI_Wo,655.8101838581174
"indomaret, blok m square",4,1,-6.2443244,106.7993778,"jl. melawai 6 no.3, rw.1, melawai, kota jakarta selatan",ChIJp6k1jNPxaS4RsvpHlCJjam4,1958.3340497345573
indomaret fatmawati 33d,5,1,-6.2664857,106.7975475,"rt 03 no, jl. rs. fatmawati raya no.33c, rt.2/rw.2, gandaria sel., kota jakarta selatan",ChIJsZgWTnXxaS4R_vrbAMPG_9c,1389.830695354305
indomaret,4.5,2,-6.2550721,106.7974134,"jl. darmawangsa raya no.125, rt.2, rt.2/rw.1, pulo, kota jakarta selatan",ChIJwX02iFLxaS4RMQgSCQVBeVQ,1285.1299887732002
indomaret panglima polim - blok a,4,29,-6.2576762,106.7967995,"jl. rs. fatmawati raya no.1, gandaria utara, kota jakarta selatan",ChIJCZIzrZ_xaS4RiJX_wvOeaH4,1266.6475977708112
indomaret melawai iv no 52,5,2,-6.2454911,106.80124,"3, jl. melawai iv no.52, rw.1, melawai, kota jakarta selatan",ChIJaWy44RjxaS4RORWqDRtDtk0,1748.0253809511405
indomaret kemang timur raya {t01a},4,13,-6.2681964,106.8239824,"jalan kemang timur, rt.7/rw.3, bangka, mampang prapatan, rt.7/rw.3, bangka, kota jakarta selatan",ChIJ89CaVi_yaS4Rmq471uckjw0,1997.133566984202
indomaret hasanudin 57,4,4,-6.2425243,106.8022062,"jl. sultan hasanudin no.53, rt.2/rw.1, melawai, kota jakarta selatan",ChIJ-ZfljI_xaS4RYqEvAOKUxi0,2013.458720463512
indomaret,4,1,-6.2460531,106.8074507,"jl. wijaya iv no.73, rt.10/rw.1, petogogan, kota jakarta selatan",ChIJLaYz6kXxaS4R23ofLaT83us,1515.0128776952297
indomaret,4.1,57,-6.2483714,106.7903916,"jl. gandaria 1 no.67, rt.2/rw.8, kramat pela, kota jakarta selatan",ChIJXUBFcBLxaS4RdvT3g4SaRRs,2323.926978522752
indomaret,2.3,3,-6.248328,106.8240323,"jl. mampang prapatan vii no.1, rw.3, tegal parang, kota jakarta selatan",ChIJJXUTrNDzaS4RJSFdr933enM,2167.144055528838
indomaret radio dalam. t06c,4.2,18,-6.2523025,106.7913861,"jl. radio dalam raya blok haji hamali no.22, rt.1/rw.9, gandaria utara, kota jakarta selatan",ChIJD3ss9gzxaS4RA85t5OGeHsk,2018.9448453088892
indomaret asem 2.,3.8,23,-6.272082,106.8009549,"jl. asem dua no.26, rt.14/rw.5, cipete sel., kota jakarta selatan",ChIJs6y5G5HxaS4RurVX3sajfVU,1589.8579609527126
indomaret point,0,0,-6.2440509,106.8161762,"jl. bangka raya no.25, rw.2, pela mampang, kota jakarta selatan",ChIJNW2A01zxaS4RylvPeD8BOB4,1952.949301439216
indomaret petogogan (tb49),4.2,24,-6.254561799999999,106.7958583,"jl. petogogan ii no.18, rt.9/rw.5, pulo, kota jakarta selatan",ChIJperbNA3xaS4R4zKGAs61CVs,1465.5057735855344
indomaret gandaria1,4.7,7,-6.2484603,106.7904931,"jl. jatayu no.24, rt.2/rw.3, kramat pela, kota jakarta selatan",ChIJy45QPxLxaS4RZEV6XxuVfK0,2309.1463575688504
indomaret,0,0,-6.247488499999999,106.8149378,"jl. bangka iig no.11, rw.11, pela mampang, kota jakarta selatan",ChIJ-bHiAPTxaS4RQJ3di8P7F2g,1551.3800711640763
indomaret petogogan,4.2,21,-6.2503084,106.7941812,"jl. petogogan no.18, gandaria utara, kebayoran baru, pulo, rt.11/rw.7, rt.11/rw.7, pulo, kota jakarta selatan",ChIJ94ljMXPxaS4RH5R1BnmpJP8,1855.6261881371843
indomaret,0,0,-6.26411,106.7988205,"pqpx+9g4, unnamed road, rt.1/rw.5, north cipete, south jakarta city",ChIJF69gRyfxaS4R72RSYGIDZyU,1136.9715395102376
indomaret,4.4,243,-6.2518104,106.8145478,"jl. bangka raya no.105, rt.1/rw.12, pela mampang, kota jakarta selatan",ChIJ0dTG_nzxaS4RT0V7owX_qpg,1128.3050377976192
indomaret fatmawati raya,4.2,18,-6.2695941,106.7975764,"jl. rs. fatmawati raya no.27, rt.1/rw.5, cipete sel., kota jakarta selatan",ChIJDwAAAJHxaS4RELZlVPfYtVg,1602.5184120031422
indomaret spbu kemang,4.5,98,-6.2668841,106.8157034,"spbu kemang, jl. kemang raya no.7, rw.2, bangka, kota jakarta selatan",ChIJXaV9uofxaS4R737kEcz9UiE,1163.6410846742015
indomaret melawai 6 no. 17,0,0,-6.2443244,106.7993621,"jl. melawai 6 no.17, rt.3/rw.1, melawai, kota jakarta selatan",ChIJZXQ3b1nxaS4RBDCbFsM3GfE,1959.1873330638289
indomaret bangka raya,4.6,18,-6.245269400000001,106.8158177,"jl. bangka raya no. 30, rt. 02 / 02, pela mampang, bangka, rt.11/rw.11, pela mampang, kota jakarta selatan",ChIJETmoJH3xaS4R8_bMnW8Vt74,1814.554570945086
indomaret duta mas fatmawati,4.5,62,-6.263351900000001,106.7986876,"jl. rs. fatmawati raya no.15, rw.5, cipete utara, kota jakarta selatan",ChIJAQAAAJ3xaS4R3VfdB1vHqnw,1116.5784808081983
indomaret golden fatmawati,0,0,-6.2777755,106.7968703,"jl. rs. fatmawati no. 15 ab gandaria selatan cilandak jakarta selatan dki jakarta rt.8, rw.6, gandaria sel., kota jakarta selatan",ChIJSShBVZDxaS4Rte30BlBPAO4,2364.7731535209477
indomaret palem raya,1,1,-6.271644999999999,106.803089,"jl. palem no.5, rt.14/rw.5, cipete sel., kota jakarta selatan",ChIJDwAAAJHxaS4RjyudUxZZxus,1442.1306144342675
indomaret kh ahcmad dahlan. {twxj},4.1,27,-6.2458778,106.7920332,"qq3r+jrr, jalan kh. achmad dahlan, rt.3/rw.1, kramat pela, kota jakarta selatan",ChIJuxnwDxPxaS4R4BeT2kbalvE,2344.5889061982525
indomaret kemang selatan 8 t6zo,4.5,225,-6.2674666,106.8139114,"jl. kemang selatan viii no.67f, rt.7/rw.2, bangka, kota jakarta selatan",ChIJDVvROIbxaS4RE-sW0bxd2kc,1080.6672436233428
indomaret pondok jaya mampang,4.4,111,-6.2494907,106.8214751,"jl. pondok jaya vi no.6, rt.6/rw.6, pela mampang, kota jakarta selatan",ChIJf2NThW7zaS4RXQqG3ssDz7w,1862.9589675266077
indomaret abu serin,4.5,10,-6.275743299999999,106.7971777,"jl. abuserin no.5, rt.10/rw.6, gandaria sel., kota jakarta selatan",ChIJXQQSNpTxaS4RsGiRh1Rrct0,2156.3755088400553
kemang timur indomaret,4.2,207,-6.2639511,106.8236563,"jl. kemang timur no.38, rt.8/rw.3, bangka, kota jakarta selatan",ChIJQZigUinyaS4R4ofKanmV2lI,1786.1181897134866
indomaret bangka 2b,4.4,293,-6.242254099999999,106.8196646,"jl. bangka ii no.12, rt.5/rw.9, pela mampang, kota jakarta selatan",ChIJR_R8Od_zaS4RTFXXRKEDqVo,2320.809635839888
indomaret fatmawati 2,3.8,11,-6.268205399999999,106.7970959,"jalan rs. fatmawati no. 5, cilandak, rt.1/rw.3, gandaria sel., kota jakarta selatan",ChIJFb9gM5jxaS4Rq1wKzoM3qas,1541.7732299998981
indomaret haji nawi ( tq03 ),0,0,-6.2637034,106.7954092,"4, jl. h. nawi raya no.28a, rt.4/rw.7, gandaria sel., kota jakarta selatan",ChIJ4dWEmRnxaS4RQFHJI6sgsqk,1471.1554358260921
indomaret madrasah,4.3,89,-6.266464999999999,106.7914699,"no, jl. madrasah no.17, rt.7/rw.1, gandaria sel., kota jakarta selatan",ChIJ14sVU6LxaS4Rrt0AdBPZjQM,1985.9515281675103
indomaret,4.6,43,-6.2627085,106.7887445,"jl. radio dalam raya no.12a, rt.7/rw.10, gandaria utara, kota jakarta selatan",ChIJvygfS6HxaS4RL3sTDNNU6fY,2164.20445698212
mitra umkm indomaret,0,0,-6.2695104,106.7975699,"pqjx+52v, jl. rs. fatmawati raya, rt.6/rw.5, cipete sel., kota jakarta selatan",ChIJYWqPfpfxaS4RB7eEa52T3-0,1596.642373431425
indomaret point kemang,4.4,196,-6.2602656,106.815172,"jl. kemang raya no.8, rt.8/rw.2, bangka, kota jakarta selatan",ChIJS0XcTYDxaS4R7ku6ssO11Gs,786.3847887428626
indomaret,4.7,3,-6.278223100000001,106.797096,"jl. rs. fatmawati raya no.7, rt.8/rw.6, gandaria sel., kota jakarta selatan",ChIJzVqDlcTxaS4Rwlnqrz5hXbo,2394.5539504519124
indomaret panglima polim 125b t3pi,4,5,-6.2550595,106.7974126,"jl. panglima polim no.125a, rt.2/rw.1, pulo, kota jakarta selatan",ChIJb-Coe5PxaS4Rq13QTJ2nq04,1285.7683427004424
indomaret kemang utara. tc87,4.4,18,-6.2541381,106.8269373,"jl. kemang utara ix no.1, rt.2/rw.5, duren tiga, kota jakarta selatan",ChIJhxAVNdLzaS4RE36ihgryocM,2172.6617140099747
indomaret apartemen kemang jaya,4,9,-6.2646261,106.813776,"jl. taman kemang jaya no.9, rw.2, bangka, kota jakarta selatan",ChIJGQe3OH7xaS4RIoThryrl3zc,836.9204709461779
indomaret radio dalam 2,4.4,116,-6.2557519,106.790021,"jl. bri radio dalam no.83, rt.1/rw.8, gandaria utara, kota jakarta selatan",ChIJS-XZvAvxaS4R0DsvIJwCgMs,2043.2994883712104
indomaret (abdul majid),4.4,207,-6.266423,106.8061697,"jl. cipete utara no.4, rt.17/rw.2, cipete sel., kota jakarta selatan",ChIJtzSt1YTxaS4RFu6cHY0WKkQ,780.8276258821004
indomaret bdn raya,4.2,66,-6.279392199999999,106.7984418,"jl. bdn raya no.10, rt.10/rw.11, cilandak bar., kota jakarta selatan",ChIJKZqyypTxaS4RkjwUtyXrkBY,2438.889780406572
indomaret exit mrt h nawi,5,1,-6.266061,106.7975764,"jl. rs. fatmawati raya no.2, rt.4/rw.5, cipete sel., kota jakarta selatan",ChIJyzZxP67xaS4RMbpMyvQ2wbU,1361.9035404670174
haji indomaret enting. {ts90},3.3,20,-6.2579731,106.8006317,"gg. h. enting no.1, rt.10/rw.1, cipete utara, kota jakarta selatan",ChIJDwH5C3bxaS4RcxF4-cn7X5g,844.8156092107179
indomaret melawai,4.4,110,-6.246081800000001,106.7998046,"jl. melawai raya no.17 melawai, kebayoran lama, rt.2/rw.1, melawai, south jakarta city",ChIJq2YU5W7xaS4RKF6o-6Mc-uA,1765.8103964161608
fresh indomaret kemang,4.4,382,-6.272597699999999,106.8149503,"jl. kemang raya no.128, rt.3/rw.2, bangka, kota jakarta selatan",ChIJsVZkdYnxaS4RtDwdFb5B2t0,1626.22582135228
indomaret damai fatmawati. fq84,4.1,36,-6.2600751,106.7970731,"jl. damai raya no.6, rt.1/rw.5, north cipete, south jakarta city",ChIJXw0Sy5_xaS4RW8YkG7Tx-_8,1217.8411170651893
indomaret fave melawai (fm6s),0,0,-6.244421399999999,106.8015382,"jl. melawai iv no.3-11, rt.3/rw.1, melawai, kota jakarta selatan",ChIJZ_9u5ZDxaS4RtzyeEc5s00A,1842.784127775965
indomaret fresh,4.6,46,-6.243758199999999,106.8163851,"jl. bangka raya no.23, rw.5, pela mampang, kota jakarta selatan",ChIJOVEJ60XxaS4RhRxK42wBrb8,1992.4656261445375
indomaret panglima polim 106,4.7,29,-6.2476908,106.7976133,"jl. panglima polim no.107, rw.5, b-c, kota jakarta selatan",ChIJI3U5C2XxaS4RdRRpbU-heos,1763.9875544128063
indomaret damai f561,4.5,140,-6.2620838,106.8056991,"jl. h. jian no.81, rt.1/rw.7, cipete utara, kota jakarta selatan",ChIJPUjazZzxaS4RUSIDkidVSQg,376.673075859237
indomaret ciputat raya 2a -b,0,0,-6.239546799999999,106.8263501,"jl. kapten tendean no.34, rt.9/rw.2, kuningan bar., kota jakarta selatan",ChIJR3Z58xPzaS4Rv46cCQ_1uvk,3013.3648157088455
indomaret mampang 7,4.1,207,-6.248328099999999,106.824029,"jl. mampang prapatan vii no.30, rt.1/rw.3, tegal parang, kota jakarta selatan",ChIJAxkWrNDzaS4RyfXBmyZF8qA,2166.8408781287494
indomaret,5,2,-6.255084,106.8144756,"jl. bangka raya no.5d, rt.13/rw.1, bangka, kota jakarta selatan",ChIJna8wx9fxaS4RYJPoLhdWN9A,870.9277868302743
indomaret point kemang (argo promosi),4.7,71,-6.2617066,106.8155229,"jl. kemang raya no.36, rt.12/rw.5, bangka, kota jakarta selatan",ChIJ_YNG5YDxaS4RQpg-Vbilhmw,853.1213696491216
