nama_tempat,rating_tempat,user_ratings_total,latitude,longitude,alamat_tempat,place_id,distance,store
alfamart fatmawati 4,3.7,24,-6.2799761,106.79663,"jl. rs. fatmawati raya no.4, rt.3/rw.10, cilandak bar., kota jakarta selatan",ChIJY8eo0erxaS4R661fqNiVJsw,1371.4764334138258,Alfamart
alfamart,4.2,58,-6.289572,106.8126228,"jl. jeruk purut kel no.9 1/3, rt.1/rw.3, cilandak tim., kota jakarta selatan",ChIJf1MDyO3xaS4ReY13GALEP7U,1732.431883606032,Alfamart
alfamart,4.1,101,-6.303783,106.7814079,"jl. karang tengah raya no.kel, rt.6/rw.4, lb. bulus, kota jakarta selatan",ChIJQfRfkSjuaS4RAiYQMIXjONI,2161.862246589072,Alfamart
alfamart,3.8,16,-6.2776194,106.801396,"jl. cipete raya no.6, rt.6/rw.3 kel, cipete sel., kota jakarta selatan",ChIJvyXGa5PxaS4RGwSTqw4eyNI,1697.0462071413172,Alfamart
alfamart,4.3,4,-6.3001102,106.8147245,"jl. raya cilandak kko kel no.9, rt.1/rw.8, ragunan, kota jakarta selatan",ChIJozpfomPvaS4RLUTcDjCMduQ,2123.7943417340493,Alfamart
alfamart pos fatmawati(1m1f),0.0,0,-6.2943276,106.7947017,"jl. rs. fatmawati raya no.10, rt.2/rw.4, cilandak bar., kota jakarta selatan",ChIJ07uYzrfxaS4RVVcyUC4vxQI,355.7989438711728,Alfamart
alfamart cilandak kko 2,3.7,6,-6.302779399999999,106.8144748,"jl. raya cilandak kko no.1 c, rt.1/rw.8, ragunan, kota jakarta selatan",ChIJ8VidGwHuaS4RJsdTuMOoQrA,2237.8675847768604,Alfamart
sumber alfaria trijaya. pt (alfamart),1.0,2,-6.3065871,106.7813887,"jl. karang tengah raya no.29, rt.6/rw.4, lb. bulus, kota jakarta selatan",ChIJeZ_0Qy_uaS4RxNoVOQP_Nyc,2361.0769489476907,Alfamart
alfamart pondok labu,4.4,83,-6.305074599999999,106.794028,"jl. pd. labu 1 no.40, rt.2/rw.7, pd. labu, kota jakarta selatan",ChIJ38bENAvvaS4R1LdbC5p-uDE,1463.1015671021692,Alfamart
alfamart,4.3,11,-6.3101879,106.7901479,"jl. h. ipin kel no.45 - a, rt.11/rw.1, pd. labu, kota jakarta selatan",ChIJk3cbNCPuaS4RrWMFJhBGcY0,2136.161944658769,Alfamart
alfamart,4.6,5,-6.2962773,106.7897248,"jl. lebak bulus 1 rt 3/4 kel, rt.3/rw.4, cilandak bar., kota jakarta selatan",ChIJCx-hv97xaS4R-d86cMw_-Vs,936.274201322126,Alfamart
bright by alfamart,0.0,0,-6.3037727,106.7821517,"jl. karang tengah raya no.71, rt.7/rw.4, lb. bulus, kota jakarta selatan",ChIJx7rEgOnvaS4REZVEtk4z2X4,2095.3979127366147,Alfamart
alfamart,3.8,23,-6.282293699999999,106.7923652,"jl. terogong raya no.kel, rt.9/rw.10, cilandak bar., kota jakarta selatan",ChIJh6MqthnxaS4RX-VZKA02g-s,1233.591630518369,Alfamart
alfamart,0.0,0,-6.2929597,106.803038,"sovereign plaza, gedung, jl. tb simatupang kel no.kav.36, rt.2/rw.2, west cilandak, south jakarta city",ChIJqZkyc27xaS4R5CzWGNuI-sc,650.5316998826939,Alfamart
alfamart,0.0,0,-6.2904353,106.7954148,"jl. rs. fatmawati raya kel no.33, rt. 01/09, rt.1/rw.9, cilandak bar., kota jakarta selatan",ChIJTYWeG7_xaS4RP-aI5kJQ4Rw,285.2599251691404,Alfamart
alfamart,4.3,125,-6.2927034,106.8100407,"jl. tb simatupang kel no.31, rt.2/rw.1, cilandak tim., kota jakarta selatan",ChIJny3gdfzxaS4RUrQCDUZDSHE,1421.0426679654065,Alfamart
alfamart,4.2,239,-6.3083256,106.7978603,"jl. pinang raya kel no.6, rt.2/rw.2, pd. labu, kota jakarta selatan",ChIJgwgjsBnuaS4ROK7tEhrHbHM,1783.784950533187,Alfamart
alfamart cilandak kko 3,4.4,63,-6.309416199999999,106.8138852,"jl. cilandak kko no.1 a rt.014/08, cilandak ragunan rt.1, rt.14/rw.7, ragunan, south jakarta city",ChIJa8XPd0DvaS4RSIXi_ygrEaA,2651.069636417224,Alfamart
alfamart,0.0,0,-6.2795082,106.8072247,"prc4+5ww, rt.6/rw.11, west cilandak, south jakarta city",ChIJg1z4LdjxaS4RtLCmQRpbnE0,1803.467187256337,Alfamart
alfamart,3.8,22,-6.2844107,106.7809859,"pondok pinang, south jakarta city",ChIJERDDt8jxaS4RaCqImp2dRvo,1994.159995078084,Alfamart
alfamart,3.6,14,-6.2730548,106.8150264,"jl.kemang selatan x11, kel, rt.11/rw.4, cilandak tim., kota jakarta selatan",ChIJXcA3nYnxaS4RsNTOqAWbAAw,2909.4224801885225,Alfamart
alfamart,4.4,58,-6.311102099999999,106.7857304,"jl. karang tengah i kel no.2a, rt.3/rw.8, lb. bulus, kota jakarta selatan",ChIJHUbBKDvuaS4RTSYAiwoXKDw,2444.6567203401096,Alfamart
alfamart muhasyim,4.5,38,-6.287512299999999,106.7906552,"jl. kh muhasim raya no.9, rw.6, cilandak bar., kota jakarta selatan",ChIJ7TD6i8HxaS4R7XtoeIg2qwc,897.0981014279812,Alfamart
alfamart,0.0,0,-6.3105462,106.7937534,"jl. pd. labu raya no.7, rw.1, pd. labu, kota jakarta selatan",ChIJmcOA6EXvaS4RQqMPIIRVwRA,2064.407842660816,Alfamart
alfamart,0.0,0,-6.266535999999999,106.8103135,"jl. pelita no.99a, rt.8/rw.7, cipete utara, kota jakarta selatan",ChIJI33nWifxaS4RzKQwmLH81wY,979.9562346908624,Alfamart
alfamart,4.2,17,-6.2542811,106.8012815,"jl. darmawangsa vi no.45, rt, rt.5/rw.1, pulo, kota jakarta selatan",ChIJubtXt3bxaS4RG8SDqsnSF-U,1941.0691940598103,Alfamart
alfamart,4.6,5,-6.2600554,106.796534,"jl. fatmawati raya no.kel, rt.4/rw.6, cilandak bar., kota jakarta selatan",ChIJXTKX4rjxaS4RKHvkQIrJHpY,1478.405291409385,Alfamart
alfamart,4.6,16,-6.267619600000001,106.7970639,"jl. rs. fatmawati raya kel no.17 rt 002/002, rt.2/rw.2, gandaria sel., kota jakarta selatan",ChIJG1OrTJjxaS4Rh-es9t_IY2w,802.4056173467777,Alfamart
alfamart raya radio dalam,0.0,0,-6.2623865,106.7887372,"jl. radio dalam raya no.14d, rt.7/rw.10, gandaria utara, kota jakarta selatan",ChIJJ5iWv67xaS4RNxDBDbF5rJs,1891.1059837217283,Alfamart
alfamart mangga raya,4.6,45,-6.2706697,106.7969812,"rt.1/rw.4, gandaria sel., kota jakarta selatan",ChIJjRUYeR_xaS4RGqLMHkq13co,683.7668121037992,Alfamart
alfamart,4.3,153,-6.2553617,106.790579,"jl. radio dalam raya i no.kel, rt.3/rw.8, gandaria utara, kota jakarta selatan",ChIJJ1zO0dPxaS4RjfHBVEeJ5eE,2278.22834301927,Alfamart
alfamart,4.4,24,-6.2572531,106.8177386,"jl. kemang utara, no. 12 d-e, rt. 006/005, kel, rt.6/rw.1, bangka, kota jakarta selatan",ChIJtQRU4H_xaS4R4f3Hqd6dnFE,2276.570186583748,Alfamart
alfamart,4.1,68,-6.259331,106.789079,"jl. radio dalam raya kel no.86, rt.5/rw.14, gandaria utara, kota jakarta selatan",ChIJ4x6Kt6DxaS4RTzwpsJlYZ8Q,2067.08483416384,Alfamart
alfamart yado 3,4.0,4,-6.255731399999999,106.790674,"rt.2/rw.8, gandaria utara, kota jakarta selatan",ChIJqza5lwvxaS4RLUPjdPF0cVI,2239.245513715492,Alfamart
alfamart,4.5,24,-6.259575099999999,106.8022096,"jl. damai v rt. 01 kel, rt.2/rw.8, cipete utara, kota jakarta selatan",ChIJ-zEskJ3xaS4R_EqzP6LK7NA,1345.608134952262,Alfamart
alfamart petogogan raya,4.6,96,-6.254885799999999,106.796434,"jl. petogogan ii no.15a-b, jl. petogogan ii, rt.8/rw.6, pulo, south jakarta city",ChIJs-iJX73xaS4RJlH2mmqlobE,2003.4520960911648,Alfamart
alfamart,4.3,76,-6.267047499999999,106.792991,"jl. madrasah kel no.48, rt.8/rw.1, gandaria sel., kota jakarta selatan",ChIJ-xBaWJ_xaS4RSieZKuw5ftg,1227.6498634737472,Alfamart
alfamart,3.3,3,-6.2657246,106.7998702,"jl. abdul majid raya kel no.6a, rt.11/rw.2, cipete utara, kota jakarta selatan",ChIJw8JIYpnxaS4Rk_cRQR3bxvY,748.2956896524918,Alfamart
sumber alfaria trijaya. pt (alfamart),5.0,4,-6.2670737,106.8019836,"jl. abdul majid raya no.33, rt.11/rw.7, cipete utara, kota jakarta selatan",ChIJu_W4zZvxaS4R-LlOuR9RWhE,522.7674388291226,Alfamart
alfamart,4.6,72,-6.277224899999999,106.8204814,"jl. ampera raya no. 120a, rt. 002/010 kel, rt.2/rw.10, ragunan, kota jakarta selatan",ChIJP1_Dhf3zaS4Rusdc7wMlXd8,2019.998938107808,Alfamart
alfamart,4.0,2,-6.253431399999999,106.8216615,"jl. bangka xi c kel no.26, rt.11/rw.10, pela mampang, kota jakarta selatan",ChIJ87K7nWvzaS4Rle3PP96wwFg,2883.693424664721,Alfamart
alfamart,4.3,246,-6.2523984,106.8145319,"jl. bangka raya kel no.101, rt.2/rw.1, pela mampang, kota jakarta selatan",ChIJdQvH69nxaS4RbrLohgHukIQ,2485.90397663458,Alfamart
alfamart,4.0,20,-6.258272300000001,106.7839248,"jl. tanah kusir ii no.65, rt.3/rw.011 kel, kby. lama sel., kota jakarta selatan",ChIJEzQd4evxaS4RbvtHCITy4Jw,2588.062258002626,Alfamart
alfamart,4.2,123,-6.2547162,106.7836782,"jl.darma putra raya rt 1/7 kel, rt.1/rw.7, kby. lama sel., kota jakarta selatan",ChIJuayCtgjxaS4RBl05CpaSF3Q,2854.2283893897493,Alfamart
alfamart,4.6,75,-6.2521128,106.783147,"jl. praja dalam k kel, rt.12/rw.2, kby. lama sel., kota jakarta selatan",ChIJFy0cH3DxaS4RqAsb1UlHVzU,3094.4595174249325,Alfamart
di depan alfamart,5.0,1,-6.2665447,106.7971267,"jl. rs. fatmawati raya no.33, rw.2, gandaria sel., kota jakarta selatan",ChIJaX-B5jjxaS4RJ2YNF7-2yC0,869.4467177725185,Alfamart
alfamart kostrad darma putra,4.5,103,-6.2546937,106.7837214,"jl. darma putra raya no.44, rt.1/rw.7, kby. lama sel., kota jakarta selatan",ChIJC8pc2WXxaS4RarJ-FhWCz1c,2852.293530107412,Alfamart
alfamart kemang selatan raya,4.8,24,-6.273941199999999,106.8189054,"jl. kemang sel. no.4, rw.4, raya, kota jakarta selatan",ChIJoyofGuvzaS4RM0Dyh9j3fPo,1766.704916512931,Alfamart
mitra ukm alfamart,0.0,0,-6.2516093,106.7831185,"jl. praja dalam f no.11, rt.11/rw.2, south kebayoran lama, south jakarta city",ChIJGU1_dw_xaS4RKV_Wngx69Ic,3136.2249848670194,Alfamart
alfamart,4.4,26,-6.257043599999999,106.7772368,"jl. raya ciputat no.3 b rt.003 kel, rt.3/rw.10, kby. lama sel., kota jakarta selatan",ChIJGWL41wbxaS4R-IwO3XiRIaU,2539.01455607908,Alfamart
alfamart,4.2,48,-6.277399399999999,106.7765074,"jl. bukit hijau i no.kel, rt.1/rw.13, pd. pinang, kota jakarta selatan",ChIJhyWzK7TxaS4RGL9d7agofZc,2253.337350714632,Alfamart
alfamart,4.5,264,-6.2506507,106.793953,"jl. petogogan i, rt. 003/011 kel, rt.1/rw.1, petogogan, kota jakarta selatan",ChIJT0UQ-xzxaS4Rbkmahws1Wiw,2227.697296605524,Alfamart
alfamart pondok indah 1,4.3,7,-6.2874722,106.7768054,"jl. bukit hijau i no.12, rt.012/rw.13, pd. pinang, kota jakarta selatan",ChIJQUQy07XxaS4RjrvEhegdQm8,2807.9890397134527,Alfamart
alfamart,5.0,4,-6.2534671,106.7755935,"jl. bintaro raya no.21a, rt.11/rw.10, kby. lama sel., kota jakarta selatan",ChIJcydB66nxaS4RsYN_8dfR-hc,2929.0640848539965,Alfamart
alfamart,4.6,56,-6.250438,106.7817332,"jl. sultan iskandar muda no.72, rt.10/rw.2, kby. lama sel., kota jakarta selatan",ChIJP3zxrTPxaS4R58_AUM2UGGA,2723.72847151265,Alfamart
alfamart,0.0,0,-6.292159799999999,106.7715761,"pq5c+4jm, rt.4/rw.2, lebak bulus, south jakarta city",ChIJe_KhtJXxaS4Ro2d18maz9HI,1499.6428755374689,Alfamart
alfamart batan,0.0,0,-6.3002921,106.776064,"jl. lb. bulus no.48, rt.3/rw.4, lb. bulus, kota jakarta selatan",ChIJbd-MJCruaS4RSb7vFayLGfQ,491.94612310667816,Alfamart
alfamart,3.9,109,-6.312744899999999,106.7967237,"jl. margasatwa no.1, rt.1/rw.2 kel, pd. labu, kota jakarta selatan",ChIJ9-f0rBfuaS4RflvVgq5gTTo,2184.8712609573768,Alfamart
alfamart,5.0,1,-6.2829676,106.7717234,"jl. ciputat raya, jl. pupan kel no.1, rw.8, pd. pinang, kota jakarta selatan",ChIJUSEHg7TxaS4RsI5kfN_QGzs,2398.975511510861,Alfamart
alfamart,4.3,3,-6.288993199999999,106.7738201,"pq6f+cg4, ruko pasar jumat, jl. nasional 12, rt.10/rw.7, pd. pinang, kota jakarta selatan",ChIJQ8QJ52vxaS4R9ByNQALudjw,1690.565132745014,Alfamart
alfamart,4.3,59,-6.313207200000001,106.8032178,"jl. margasatwa raya no 14a-c, kel, rt.1/rw.3, pd. labu, kota jakarta selatan",ChIJCz-ABPPvaS4RvH3YwYy3D3U,908.9256787260508,Alfamart
alfamart,4.0,1,-6.3274385,106.8165763,"jl. gandaria ii kel no.rt. 006/02, rt.6/rw.2, jagakarsa, kota jakarta selatan",ChIJNaff4frvaS4Rv-sXFlDoV8I,3071.4834076266047,Alfamart
alfamart,4.4,99,-6.3270311,106.8144222,"jl.jagakarsa kp.kandang no.50, rt.6/rw.4, kel, kota jakarta selatan",ChIJVZkf7ijvaS4RohYfDKQq_TQ,2876.314025157216,Alfamart
alfamart margasatwa raya,4.6,54,-6.3130741,106.8004155,"jl. margasatwa no.90, rt.8/rw.2, pd. labu, kota jakarta selatan",ChIJ46jSRZvvaS4ReMMdsz0r-Ls,700.9436764795806,Alfamart
alfamart cv. anis star,4.0,12,-6.3271938,106.816634,"jl. raya jagakarsa no.3, rt.6/rw.2, jagakarsa, kota jakarta selatan",ChIJGQvZVnHuaS4R5-987_ViIy0,3056.526829541795,Alfamart
alfamart,4.8,13,-6.247626299999999,106.7785018,"jl. ciputat raya, rt. 8/8 kel, rt.8/rw.8, kby. lama sel., kota jakarta selatan",ChIJMyzoc8PxaS4Rx4Pb25aRaVI,0.0,Alfamart
alfamart,4.4,217,-6.2495325,106.7836804,"jl. praja dalam k kel, rt.4/rw.12, kby. lama sel., kota jakarta selatan",ChIJd2c5ZS3xaS4R0Hfe_IqDLp0,0.0,Alfamart
alfamart,4.2,283,-6.2491889,106.8186279,"jl. bangka ii kel no.1a, rt.8/rw.3, pela mampang, kota jakarta selatan",ChIJ-dormaPzaS4RlalyMly0C5M,0.0,Alfamart
alfamart ciputat,5.0,2,-6.2799786,106.7724433,"jl. ciputat raya no.21, rt.1/rw.7, pd. pinang, kota jakarta selatan",ChIJVXFUeUHxaS4RWn11bqNkU6A,0.0,Alfamart
alfamart,4.3,239,-6.3267655,106.8215854,"jl. raya jagakarsa, rt.2/rw.7, kel, kota jakarta selatan",ChIJz9mMD9ntaS4RZubt_6ybvOw,0.0,Alfamart
alfamart,4.8,20,-6.3286377,106.8244583,"jl. raya jagakarsa no.2a, rt.9/rw.7, kel, kota jakarta selatan",ChIJWbkHhJ3taS4RYeZ0L7Xgo4Y,1999.6895057418187,Alfamart
alfamart,4.2,97,-6.3359894,106.8270017,"jl. moch. kahfi ii kel no.23, rt.11/rw.8, srengseng sawah, kota jakarta selatan",ChIJe1YAOdLtaS4Rt7Ol21BHFN4,2002.8309054783008,Alfamart
alfamart,0.0,0,-6.352576699999999,106.8188851,"jl. srengseng sawah kel no.18, rw.7, srengseng sawah, kota jakarta selatan",ChIJLdQeZIztaS4R-teqdeGZ2Aw,1958.5286884664736,Alfamart
alfamart,4.2,35,-6.346389599999999,106.8257072,"jl.simpang tiga, jl. pratama kel no.22, rt.6/rw.6, srengseng sawah, kota jakarta selatan",ChIJcXskSobtaS4Rgle9vWyGMns,2071.542393361264,Alfamart
alfamart,1.0,1,-6.345517699999999,106.810441,"jl. wr. sila kel no.48, rt.11/rw.5, ciganjur, kota jakarta selatan",ChIJLccxhA3vaS4R1CueIAoDZlE,854.971877203588,Alfamart
alfamart,4.4,104,-6.3492714,106.8016789,"jl. m. khafi kel no.1, rt.015/rw.1, cipedak, kota jakarta selatan",ChIJ2ZJsw-bvaS4RPE2HSgHEYvc,1494.328408122114,Alfamart
alfamart,4.3,85,-6.341221600000001,106.8046813,"jl. m. kahfi i no. 60, rt. 006 kel, rt.8/rw.6, ciganjur, kota jakarta selatan",ChIJ50-5vp3vaS4R4PP0-gOdOLY,598.0595940118145,Alfamart
alfamart srengseng sawah (eg47),4.8,12,-6.3525632,106.8188433,"utama rt.5/rw.7, srengseng sawah, jagakarsa, rt.5/rw.7, srengseng sawah, kota jakarta selatan",ChIJzdSRmyfsaS4Rtl298qGtaec,1954.7060450483964,Alfamart
alfamart,4.2,102,-6.3353411,106.8132835,"jl. sadar raya no.kel, rt.2/rw.2, jagakarsa, kota jakarta selatan",ChIJyXE7tX7uaS4R_N1dj_5A7Lk,557.194837348266,Alfamart
alfamart,4.5,99,-6.348487899999999,106.8200177,"jl. srengseng raya kel no.87, rt.2/rw.7, srengseng sawah, kota jakarta selatan",ChIJPxyLWijsaS4Rl6Ahgql2Zkc,1689.5772647365343,Alfamart
alfamart,3.9,13,-6.3519106,106.8104356,"jl. timbul rt 1/3 kel, jl. timbul no.38, rt.1/rw.3, cipedak, kota jakarta selatan",ChIJa5D3PpvuaS4RmD22MJHORS4,1558.851664473137,Alfamart
alfamart,4.3,119,-6.3447007,106.8044728,"jl. wr. sila kel no.261, rt.3/rw.4, ciganjur, kota jakarta selatan",ChIJn4GqwYjuaS4RkEZAhdWNiIU,899.9639536986773,Alfamart
alfamart,4.0,12,-6.3431267,106.8172234,"jl.moch kahfi 2 rt 5/4 kel, jl. moch. kahfi ii no.2, rt.5/rw.4, ciganjur, kota jakarta selatan",ChIJwRkvJkbvaS4RV98hH2jg2jM,1075.9207261395798,Alfamart
alfamart,4.7,86,-6.3212652,106.8254171,"jl ry jati padang 6 rt 4/4 kel, rt.11/rw.5, kebagusan, kota jakarta selatan",ChIJ60AxeGztaS4Ru2TlJfZ6_co,2597.1095654757883,Alfamart
alfamart,4.4,39,-6.3360353,106.8081282,"jl. h. montong kel, rt.6/rw.2, ciganjur, kota jakarta selatan",ChIJcSF1kHzuaS4RmUi6Derkz0U,234.7446755206281,Alfamart
alfamart m. kafi 1,4.3,27,-6.354785,106.8104626,"jl. moch. kahfi ii no.35, rt.4/rw.3, cipedak, kota jakarta selatan",ChIJf-XTUHHuaS4R3O2aD58Jejc,1877.3273219319497,Alfamart
alfamart jl.aselih,4.2,52,-6.3518666,106.8010337,"jrx2+6cr, rt.7/rw.1, cipedak, south jakarta city",ChIJS129nNjvaS4RhFpkPRMENm4,1778.2404874334366,Alfamart
alfamart,2.0,1,-6.3409759,106.8275507,"jl. raya desa putra no. 22, rt no.kel, rt.7/rw.5, srengseng sawah, kota jakarta selatan",ChIJozZ4F7HtaS4R1kONZ5ibbtU,2078.535686905338,Alfamart
alfamart,0.0,0,-6.357054,106.8095512,"jl. srengseng sawah kel no.4, rt.9/rw.9, cipedak, kota jakarta selatan",ChIJQ72y0hzvaS4RX5dcmBsgyWU,2123.4580476115034,Alfamart
alfamart,4.3,363,-6.3390194,106.8285737,"jl. desa putra raya no.3 kel, rw.5, srengseng sawah, kota jakarta selatan",ChIJAw3ltijtaS4RmcB7KA3NCio,2167.6352384991,Alfamart
alfamart,3.7,11,-6.3448658,106.8286053,"jl. srengseng sawah kel no.rt 5/12, rt.5/rw.12, srengseng sawah, kota jakarta selatan",ChIJNeAy4i3saS4R2vlrs_RK_Qk,2299.718209540563,Alfamart
alfamart,4.1,158,-6.3271403,106.8293354,"jl. klp. 3 no.49, rt.6/rw.3, kel, kota jakarta selatan",ChIJKUVCIj_taS4RPE3ln04fn_s,2550.57535298514,Alfamart
alfamart,4.2,129,-6.358035099999999,106.8116309,"jl. srengseng sawah kel no.48 rt 2/9, rt.3/rw.9, srengseng sawah, kota jakarta selatan",ChIJO-fSOk7vaS4RCj8aV46LE6Q,2250.665784234213,Alfamart
alfamart,1.0,1,-6.3450368,106.8152846,"jl. wr. sila no.36, rt.2/rw.5, ciganjur, kota jakarta selatan",ChIJXWJrkhPvaS4Rrveg9EepZfI,1049.9579459658626,Alfamart
alfamart,4.5,97,-6.3179633,106.8191259,"jl. pepaya raya no.58, rt.12/rw.5, kel, kota jakarta selatan",ChIJW9l0OeDtaS4Rpqp-vEQlRxM,2490.3886208952026,Alfamart
alfamart royal residence,4.6,73,-6.3343032,106.8069313,"mr84+7qf, rt.7/rw.2, ciganjur, south jakarta city",ChIJMU7G8APvaS4RPldwPHdkBVs,466.3963383640638,Alfamart
alfamart srengseng sawah 4 (eh83),4.3,15,-6.357146999999999,106.8095228,"jl. srengseng sawah no.1, rt.4/rw.9, srengseng sawah, kota jakarta selatan",ChIJ88BZcpnuaS4RE8o0nNn30ow,1042.513280953978,Alfamart
alfamart,4.1,107,-6.3629942,106.8021022,"jl.moch kahfi i, gg. pedati selatan kel no.60, rt.6/rw.2, cipedak, kota jakarta selatan",ChIJ7ykmvmrvaS4RlZev4Fju-J8,788.1573356787824,Alfamart
alfamart,4.3,162,-6.3633345,106.8067338,"jl. moch. kahfi ii kel no.24, rt.7/rw.3, cipedak, kota jakarta selatan",ChIJreD62aLuaS4RmuRbWickzPw,1078.876848404274,Alfamart
alfamart,4.3,16,-6.3389038,106.8344498,"komp. sta universitas pancasila jl. raya lt agung kel, rt.1/rw.3, srengseng sawah, kota jakarta selatan",ChIJO9SLoXrtaS4R_qO4Q2eaGC0,1983.440108350552,Alfamart
alfamart,4.4,172,-6.310429000000001,106.8373362,"jl. raya lenteng agung no.9 rt, rt.4/rw.1, lenteng agung, kota jakarta selatan",ChIJI4ismJftaS4RG7BjJdb_aTE,2622.9453109916103,Alfamart
alfamart lenteng agung 5,3.0,4,-6.3163063,106.8361512,"jl. raya lenteng agung no.22, rt.5/rw.1, lenteng agung, kota jakarta selatan",ChIJDQ0fsc7taS4R3NlvyB-kvR0,2094.662209304275,Alfamart
alfamart,4.5,73,-6.333435799999999,106.835083,"jl. lenteng agung barat no. 9, kel no.04, rt.2/rw.10, srengseng sawah, kota jakarta selatan",ChIJ13AKk4ftaS4RCuU8MrNt6NA,1719.2892611088478,Alfamart
alfamart,4.4,68,-6.316942099999999,106.8251017,"jl. kebagusan raya kel, rt.2/rw.4, kebagusan, kota jakarta selatan",ChIJ5ecsNQftaS4R2Gym8QnVXUk,1250.3522256242209,Alfamart
alfamart,3.7,11,-6.3234492,106.8354947,"jl. raya lenteng agung kel no.14, lenteng agung, kota jakarta selatan",ChIJlTB_4sPtaS4Rxc7ws3Uy_40,1681.922248772634,Alfamart
alfamart,3.7,15,-6.312712599999999,106.8257501,"jl. raya jatipadang kel no.16, rt.7/rw.5, kebagusan, kota jakarta selatan",ChIJ-86bRuTtaS4Roa7AGvYD-sg,1716.172651400322,Alfamart
alfamart,4.1,115,-6.312118,106.838574,"jl.tanjung barat sltn rt 1/2, kel, rt.1/rw.2, tj. bar., kota jakarta selatan",ChIJO7r69eztaS4R6-qTHsW9FZo,2593.843767134577,Alfamart
alfamart,4.4,72,-6.3243592,106.8300011,"jl. joe klp. tiga, rt.2/rw.3, kel, kota jakarta selatan",ChIJYbi2VcPtaS4REBIUqS4H6nw,1070.7556453987436,Alfamart
alfamart,4.8,16,-6.3306239,106.8349623,"stasiun kel, lenteng agung, south jakarta city",ChIJIwmT0tTtaS4R6hg8QgNw3WY,1608.6293980723444,Alfamart
alfamart ltg agung jagakarsa,5.0,2,-6.3283086,106.8342246,"mrcm+mm5, rt.9/rw.4, lenteng agung, south jakarta city",ChIJ05wHln3taS4RfX09zv-hV4M,1488.9603296654668,Alfamart
alfamart,5.0,1,-6.3077549,106.8388917,"stasiun tanjung barat kel, rt.4/rw.1, srengseng sawah, kota jakarta selatan",ChIJAdADu4rtaS4RvCWKME2nOFc,2957.15345601278,Alfamart
alfamart,0.0,0,-6.3071224,106.8350381,"apart kebagusan city unit 1-ka kel, rt.1/rw.3, kebagusan, kota jakarta selatan",ChIJgfNO4B7taS4R-UWce8QYzk8,2744.638207614054,Alfamart
alfa rancho indah (dalam),4.4,269,-6.309573200000001,106.850957,"jl. rancho indah no.47d, rt.8/rw.2, tj. bar., kota jakarta selatan",ChIJFaiFN5DtaS4RMY3a1g0u8Bo,2569.8815543641304,Alfamart
alfamart - kebagusan city,4.2,17,-6.307295,106.8351857,"apartemen kebagusan city tower a, rt.1/rw.3, kebagusan, pasar minggu, rt.1/rw.3, kebagusan, kota jakarta selatan",ChIJr2pCifHtaS4RLO2T4wxkmtk,2028.126862921532,Alfamart
alfamart,3.4,12,-6.315443900000001,106.8430878,"jl. tj. barat selatan gg. 100 kel, lenteng agung, kota jakarta selatan",ChIJ406rRZPtaS4RMYVeSLK2seg,1495.1821297836595,Alfamart
sumber alfaria trijaya. pt (alfamart),2.7,6,-6.350979499999999,106.8326992,"jl. lenteng agung timur, no. 1 rt. 06 rw. 01, jagakarsa, rt.12/rw.8, lenteng agung, kota jakarta selatan",ChIJddTlTzPsaS4R4BYzvn0YNik,762.3689578590471,Alfamart
alfamart,4.3,182,-6.2967705,106.8442387,"jl. raya poltangan, rt. 001, r no.kel, rt.1/rw.4, tj. bar., kota jakarta selatan",ChIJyyRGCHXyaS4RLCAb2pLyLeA,1214.936025617944,Alfamart
alfamart tanjung barat,4.0,76,-6.3044692,106.8398007,"alfamart, jalan tanjung barat raya no.172, rt.2/rw.1, tanjung barat, jagakarsa, rt.10/rw.4, tj. bar., kota jakarta selatan",ChIJY1uOaPPtaS4RITGKVmQwRXc,1169.8413169484286,Alfamart
alfamart,4.2,400,-6.2984046,106.8407504,"jl. tj. bar. lama no.kel, rt.4/rw.4, tj. bar., kota jakarta selatan",ChIJW2lkqAryaS4Rl3e1w3Am11w,1343.3517736974989,Alfamart
alfamart nangka poltangan,4.1,10,-6.3027653,106.8484869,"jl. nangka raya no.1, rt.6/rw.5, tj. bar., kota jakarta selatan",ChIJFayoSIntaS4R9dPZgj-4vJY,400.7672551269938,Alfamart
alfamart,4.5,47,-6.301901099999999,106.8590919,"jl. waru no.kel, rt.:06/01/rw.1, gedong, kabupaten garut",ChIJQdPWtIbtaS4RhBYZ6sehLRQ,1069.5277411355676,Alfamart
alfamart,4.3,12,-6.2955397,106.841134,"jl. raya tj. barat kel no.24, rt.4/rw.4, tj. bar., kota jakarta selatan",ChIJq1i2LQvyaS4RHh12kmtjRqQ,1532.6611981253106,Alfamart
alfamart,0.0,0,-6.3027698,106.8484726,"jl. nangka i no.4, rt.6/rw.5, tj. bar., kota jakarta selatan",ChIJz6jzUEvtaS4RNyn3cEc9GMc,401.1212137047138,Alfamart
alfamart kaplongan,0.0,0,-6.2895993,106.8399531,"blok pasar minggu rt 06/02, kaplongan",ChIJWXRO9N7zaS4REwUM9xF11QI,2141.8372509230667,Alfamart
alfamart suci raya 3,4.5,76,-6.3163705,106.8673947,"mvm8+fx2, rt.4/rw.4, susukan, east jakarta city",ChIJPYChSj7taS4Rq-R7hSUu8o0,2220.7687832281986,Alfamart
sumber alfaria trijaya. pt (alfamart),5.0,2,-6.296903299999999,106.8410754,"jl. tanjung barat, rt. 012 rw. 004, pasar minggu, rt.3/rw.4, tj. bar., kota jakarta selatan",ChIJ8zwCzAryaS4RkFLYkvqVhtw,1426.9038044039794,Alfamart
alfamart,4.0,25,-6.304666999999999,106.8503666,"1, jl. rancho indah kel no.7, rt.1/rw.2, tj. bar., kota jakarta selatan",ChIJVdAdII_taS4Rb872ygOcjfw,136.65785940110862,Alfamart
west tanjung nangka alfamart,4.2,10,-6.3047898,106.8422906,"jl. nangka raya no.10, rt.11/rw.4, tj. bar., kota jakarta selatan",ChIJXUNCuIztaS4RQ6Z_2mFx3Mk,892.360549101461,Alfamart
alfamart,4.2,17,-6.2959898,106.8365489,"jl. gurame i, rt.2/rw.9, kel, kota jakarta selatan",ChIJkRXFMgryaS4ROng0xXn-8EU,1875.771491498504,Alfamart
alfamart tb.simatupang 3,4.3,275,-6.3039748,106.8430684,"jalan tb. simatupang, rt.11/rw.4, tj. bar., kota jakarta selatan",ChIJ76qqqo3taS4RydX_XeSQfH8,825.9480966896748,Alfamart
swalayan tribuana vi (alfamart),4.1,26,-6.3155489,106.8580757,"mvm5+q6g, rt.1/rw.5, cijantung, east jakarta city",ChIJGWqmJpntaS4Rh-y6x6_6bFg,1376.0532833064249,Alfamart
alfamart,4.0,5,-6.258382999999999,106.8253662,"jl. duren bangka no.31, d no.kel, rt.6/rw.4, bangka, kota jakarta selatan",ChIJSxYbySzyaS4R2syLNG02aQQ,1915.616267077512,Alfamart
alfamart,4.2,66,-6.2457614,106.8258046,"jl. mampang prpt. raya kel no.58 a, rt.9/rw.3, tegal parang, kota jakarta selatan",ChIJWVXFdyLzaS4R8xNLa-VEm_w,2495.294909584561,Alfamart
alfamart,3.0,8,-6.2483201,106.7900754,"jl. gandaria i no.04, rt. 010 kel, rt.1/rw.8, kramat pela, kota jakarta selatan",ChIJ9cTCcxLxaS4RIQU5nzRwbcU,2356.461205570034,Alfamart
alfamart,4.0,6,-6.247622199999999,106.7950681,"jl. barito ii no.kel, rt.8/rw.5, kramat pela, kota jakarta selatan",ChIJ6fv_N23xaS4R8O7J0wDiRO4,1965.2796089549825,Alfamart
alfamart,4.7,7,-6.2662632,106.8239456,"jl. kemang timur no.50, rt.9/rw.003 kel, bangka, kota jakarta selatan",ChIJVSxA1S7yaS4RZ9xhBDqwsbI,1900.6732063069555,Alfamart
alfamart,3.5,12,-6.2440528,106.8161758,"jl. bangka raya kel no.31 a, rt.5/rw.5, pela mampang, kota jakarta selatan",ChIJQQRLPWLxaS4Rw_WIE4_HVMw,1952.741245157132,Alfamart
alfamart,4.6,27,-6.245343399999999,106.8012186,"jl. melawai ( blok m mall kel, rt.3/rw.1, melawai, kota jakarta selatan",ChIJgYNzkW7xaS4RAyBciUPKZRg,1763.8622397734562,Alfamart
alfamart,4.5,13,-6.246897499999999,106.7898721,"jl. gandaria 1 kel no.41, rt.2/rw.3, kramat pela, kota jakarta selatan",ChIJM-mfsy_xaS4RLeBYt92_-zA,2463.118380855881,Alfamart
alfamart bangka 2,4.3,175,-6.2433743,106.8156896,"jl. bangka raya no.26, rt.5/rw.5, pela mampang, kota jakarta selatan",ChIJJcKfPGLxaS4RGLvlj1PN8YY,1996.8869945212969,Alfamart
alfamart,3.8,13,-6.2510088,106.8216417,"jl. pondok jaya vi no.31 rt.00 kel, rt.6/rw.6, pela mampang, kota jakarta selatan",ChIJmdxMydLzaS4R3PTMkWwbsm8,1781.0309004157127,Alfamart
alfamart,4.2,120,-6.245465,106.8186523,"jl. bangka ii kel no.29l, rt.17/rw.2, pela mampang, kota jakarta selatan",ChIJE2FoiNjzaS4RkuhZJgb9Stg,1964.0127624299448,Alfamart
alfamart,3.8,39,-6.243284,106.8259296,"jl. mampang prpt. raya kel no.18, rt. 06/03, rt.6/rw.3, mampang prpt., kota jakarta selatan",ChIJ5743TtvzaS4RaNTeZ8xL7Gw,2684.8457850829304,Alfamart
alfamart kyai maja,4.5,454,-6.2415428,106.793223,"10, jl. kyai maja no.37, rt.10/rw.7, kramat pela, kota jakarta selatan",ChIJ3XNl2RTxaS4R5Bv0sufWonw,2599.604229509924,Alfamart
alfamart faletehan,4.3,32,-6.2417419,106.8016892,"jl. falatehan i no.30, rt.2/rw.1, melawai, kota jakarta selatan",ChIJM7mhkrDxaS4RCbsQa_-sjAw,2114.403046172083,Alfamart
alfamart,0.0,0,-6.252799599999999,106.8268128,"jl. mampang prpt. 16 kel no.5, rt.1/rw.6, tegal parang, kota jakarta selatan",ChIJl_om9KjzaS4RGU8Vxu07GBo,2206.4310834284274,Alfamart
alfamart,4.0,5,-6.2777493,106.8270138,"jl. pejaten barat raya kel no.36, rt.6/rw.3, ragunan, kota jakarta selatan",ChIJ8_uaqH3zaS4Rh21wCL2tD_g,2902.1509461114497,Alfamart
alfamart kapten tendean 2,3.8,11,-6.240049200000001,106.818981,"jl. kapt. tendean no. 18 b, rt, kel, rt.1/rw.1, pela mampang, kota jakarta selatan",ChIJk9Chmd_zaS4R8JKnx_DYAd4,2491.537194876398,Alfamart
alfamart mampang prapatan 2 (kb48),4.0,4,-6.2527525,106.8268743,"jl. warung buncit raya no.5, rt.4/rw.6, tegal parang, kota jakarta selatan",ChIJgePHgdHzaS4RcdWxMOdPfeA,2214.622405689629,Alfamart
alfamart,0.0,0,-6.240064299999999,106.8042097,"pt pln (persero) kantor pusat, jl. trunojoyo no.kel, rt.6/rw.2, melawai, south jakarta city",ChIJp0jKnE_xaS4ReNrwgJLzaRU,2220.985460870352,Alfamart
alfamart koppeg pt pln,3.9,12,-6.2407841,106.8035925,"jl. trunojoyo no.135, rt.6/rw.2, melawai, kota jakarta selatan",ChIJgZrvVmjxaS4R-CmjwHJTv-o,2157.173704410975,Alfamart
alfa midi,4.5,174,-6.2468046,106.7948782,"qq3v+7xc, jl. barito ii, rt.8/rw.5, kramat pela, kota jakarta selatan",ChIJAS87L23xaS4RE2RaGQ6kKq4,2043.251834662572,Alfamart
alfamart,4.3,4,-6.2426448,106.787694,"jl. gandaria 1 no.339, rt.5/rw.2, kramat pela, kota jakarta selatan",ChIJ2-7GYbvxaS4RR9L87NnK-a0,1725.4123895123848,Alfamart
alfamart,4.1,12,-6.266555299999999,106.774843,"jl. ciputat raya kel no.101, rw.4, pd. pinang, kota jakarta selatan",ChIJS00uRKzxaS4RfR-cjilSvTE,1907.968565261417,Alfamart
alfamart,4.2,20,-6.275189699999999,106.7734774,"7, jl. ciputat raya no.kel, rw.6, pd. pinang, kota jakarta selatan",ChIJV87Df7PxaS4R7l-FQ1i9YTc,2628.197432594005,Alfamart
alfamart,0.0,0,-6.2644372,106.7750567,"jl. ciputat raya no.25a, rt.6/rw.1, pd. pinang, kota jakarta selatan",ChIJNZ_TjKvxaS4RSpGgi-UQMHE,1780.7350246151711,Alfamart
alfamart ciputat raya 5,4.6,262,-6.2644227,106.7750253,"jl. ciputat raya no.23, rw.1, pd. pinang, kota jakarta selatan",ChIJwYPXjKvxaS4RnddDvAVPi-E,1783.270692783905,Alfamart
alfamart,4.1,9,-6.2452254,106.7725276,"jl. peninggaran raya no.kel, rt.8/rw.11, kby. lama utara, kota jakarta selatan",ChIJkUx2wx3xaS4RC4O553KPlfM,2382.269160124183,Alfamart
alfamart ciputat raya 2,4.3,88,-6.275048399999999,106.7735843,"pqff+xcp, rt.7/rw.6, pondok pinang, south jakarta city",ChIJ0-P2f7PxaS4Rcf73HyrOepA,2608.6644267117763,Alfamart
alfamart,4.4,52,-6.2392731,106.8100952,"jl. wolter monginsidi kel no.46, rt.1/rw.6, petogogan, kota jakarta selatan",ChIJ-TaTa2fxaS4R6RNGaVrMT6k,3060.8391904731748,Alfamart
alfamart,4.1,52,-6.2382658,106.7723374,"jl. raya ciledug, rt. 5/4 kel, rt.6/rw.11, cipulir, kota jakarta selatan",ChIJa3p8yiXxaS4RfugjuGiw9us,2925.150781247364,Alfamart
alfamart,4.3,118,-6.228025,106.7785565,"jl. raya kby. lama no.37, rt.5/rw.007 kel, grogol sel., kota jakarta selatan",ChIJl8UlGdXxaS4Rzp4Cn0GDDRY,2467.5834374984684,Alfamart
alfamart,4.4,17,-6.2284805,106.7855186,"jl. rawa simprug iii, rt.03, r no.kel, rt.3/rw.9, grogol sel., kota jakarta selatan",ChIJIYHBgDDxaS4RvycdmnfZeP4,2018.298321070898,Alfamart
alfamart,3.0,2,-6.236459,106.8006485,"jl. iskandarsyah raya kel no.35, rt.2/rw.1, melawai, kota jakarta selatan",ChIJsaRf3yPxaS4R4cFCV3ZPdak,1300.4173708074882,Alfamart
alfamart,4.6,22,-6.236351,106.7872294,"jl. ophir kramat 2 pakubuwono, kel, rt.7/rw.1, gunung, kota jakarta selatan",ChIJvR3FTzzxaS4R3I33kymyg0w,1153.1354529188952,Alfamart
alfamart express stasiun kebayoran lama,3.6,5,-6.2374573,106.7825889,"jl. st. no.7a, rt.2/rw.1, south, kota jakarta selatan",ChIJ8-2f5VzxaS4RuUIzcDEbZJ8,1412.5572590394047,Alfamart
alfamart,4.5,71,-6.2256975,106.7750044,"jl assirot rt 12/1 kel, rt.12/rw.1, sukabumi sel., kota jakarta selatan",ChIJiRXWFynxaS4RMfZt6bXsEeI,2920.381689822065,Alfamart
alfamart,5.0,1,-6.2385571,106.8170846,"jl. wolter monginsidi no.125, rt.1/rw.2, rw. bar., kota jakarta selatan",ChIJ7dChQKnxaS4Rc90K7EVLZBA,1847.7131875080768,Alfamart
alfamart,0.0,0,-6.2300567,106.8187181,"jl. gatot subroto kel no.kav.52, rt.6/rw.1, kuningan bar., kota jakarta selatan",ChIJDxW97RrzaS4RmZsx_ifU4x8,2506.14886214287,Alfamart
alfamart,3.0,1,-6.2303643,106.8218469,"jl. guru mughni kel no.12, rt.1, kuningan, kuningan tim., kota jakarta selatan",ChIJR3_-W0XzaS4Ra2KJ49HgobM,2756.216958149565,Alfamart
alfamart,4.8,5,-6.226305,106.8191669,"apartemen taman semanggi, jl. akri kel no.136, rt.8/rw.2, karet semanggi, kota jakarta selatan",ChIJZSNypFjzaS4RiqX0yBCekAw,2831.5158870565656,Alfamart
alfamart guru mugni 2,3.8,25,-6.230415799999999,106.8213373,"jl. peltu rahmat sidup no.7 kuningan rt.1, rt.1, rt.1, kuningan, kuningan tim., kota jakarta selatan",ChIJ7z1SCOPzaS4RUqc62WYc7_E,2707.3109072714897,Alfamart
alfamart buncit 12,4.5,13,-6.2527202,106.826871,"jl. mampang prapatan xiii no.12, rt.1/rw.6, tegal parang, kota jakarta selatan",ChIJpQkMoNHzaS4R2HbnZOycUjU,2169.8576833384545,Alfamart
alfamart mampang prapatan 2,4.2,180,-6.2433977,106.8291506,"jl. mampang prapatan ii no.19, rt.10/rw.2, mampang prpt., kota jakarta selatan",ChIJv7kzTtvzaS4RPboho4y1LBs,2071.3935577600187,Alfamart
alfamart satrio,4.7,12,-6.2256225,106.8301711,"jl. prof. dr. satrio no.9, rt.7/rw.2, kuningan, kuningan tim., kota jakarta selatan",ChIJRSP9X8HzaS4ROIFGu7jBrKg,2839.881701273883,Alfamart
alfamart,4.7,11,-6.218932499999999,106.8302356,"jl.hr. rasuna said kav. 3 - 5 kel, rt.6/rw.7, kuningan, setia budi, kota jakarta selatan",ChIJXVCj6unzaS4R3_PYMijRI8o,2721.25267027416,Alfamart
alfamart mampang prapatan xiv,3.0,1,-6.2512721,106.8313689,"prxj+fgx, rt.9/rw.4, tegal parang, south jakarta city",ChIJaXYbbDDzaS4RLIPv_3bV5Yg,2555.1701056409315,Alfamart
alfamart tegal parang 2,4.2,343,-6.2472825,106.8318862,"jl. tegal parang sel. no.3, rt.4/rw.2, tegal parang, kota jakarta selatan",ChIJyxel_CHzaS4RK3olku7tsH8,2351.2109005396965,Alfamart
alfamart,5.0,3,-6.2392783,106.832538,"jl. gatot subroto no.kav 56, rt.1/rw.4, kuningan tim., kota jakarta selatan",ChIJXb2FxfXzaS4RMmmtYeQEE18,2131.900137955262,Alfamart
alfamart,5.0,1,-6.2435925,106.8322469,"jl. tegal parang utara no.23a, rt.15/rw.007, kel, kota jakarta selatan",ChIJ7yB92wvzaS4RB20MfN2CxwI,2214.605395439579,Alfamart
alfamart,2.6,5,-6.216807999999999,106.8179903,"jl. jenderal sudirman kel no.kav. 45-46, rt.3/rw.4, setia budi, kota jakarta selatan",ChIJM7-EqKr2aS4Rv5IqHeB_HY0,2279.865930018492,Alfamart
alfamart tegal parang selatan,0.0,0,-6.2481087,106.8334975,"jl. tegal parang selatan i no.2, rw.4, tegal parang, kota jakarta selatan",ChIJQzyLgYTzaS4RebsP5hyLO0c,2551.447097846768,Alfamart
alfamart,0.0,0,-6.22884,106.83263,"ariobimo sentral, jl. h. r. rasuna said no.kel, rt.1/rw.2, kuningan, kuningan tim., kota jakarta selatan",ChIJj_61hA3zaS4RYO2Bom0a2e0,2301.2325229431426,Alfamart
alfamart tegal parang 3,4.0,148,-6.2436208,106.8322451,"qr4j+hv3, jl. tegal parang utara, rt.4/rw.7, mampang prpt., kota jakarta selatan",ChIJfecMjMTzaS4R4fJ9fakjI5Q,2215.493598103382,Alfamart
alfamart,4.3,66,-6.216337999999999,106.8203685,"jl. bek murad no.7, rt.8/rw.001 kel, kuningan, karet kuningan, kota jakarta selatan",ChIJqxVWcJX1aS4RUAMlnS81uJM,2891.362371310433,Alfamart
alfamart,4.3,151,-6.216512,106.8278755,"jl. anggrek 3 kel no.25 b, rt.19/rw.2, kuningan, karet kuningan, kota jakarta selatan",ChIJd8d5kgf0aS4RZrS7fXlU-kg,2232.022518945133,Alfamart
alfamart,4.0,1,-6.2130459,106.825213,"jl. karet belakang barat jl. karbela no.kel, rt.1/rw.2, kuningan, karet kuningan, kota jakarta selatan",ChIJg9H4zDH1aS4Rm3_YlVTAJaY,2226.0524349851626,Alfamart
alfamart setiabudibarat,5.0,1,-6.2104934,106.8230285,"jl. setiabudi raya no.2, rw.2, kuningan, kota jakarta selatan",ChIJRScsryb1aS4RlODMjqPRKNU,2273.121637995046,Alfamart
alfamart,4.3,263,-6.2138855,106.8266392,"jl. karet belakang i no.2, rt.3/rw.4, kuningan, karet, kota jakarta selatan",ChIJUyMhTgb0aS4RgL8lQLR7f34,2284.7264542393177,Alfamart
sumber alfaria trijaya. pt (alfamart),3.0,1,-6.213625899999999,106.8206906,"jl. penjernihan i no.10, rt.4/rw.2, kuningan, karet, kota jakarta selatan",ChIJo-s9oAH0aS4RVJ8YUgAM_DY,1839.4961159958168,Alfamart
alfamart karbela 3,4.3,25,-6.2092301,106.8266949,"jl. setia budi tengah no.5, rt.1/rw.1, kuningan, kota jakarta selatan",ChIJNYn7SAf0aS4RXmIS9qwhxQU,2642.4371243496234,Alfamart
alfamart karbela 2,3.8,5,-6.2154088,106.8281067,"jl. karbela, gg. anggrek xii kel no.10, rt.18/rw.2, kuningan, karet kuningan, kota jakarta selatan",ChIJAy-tiaj1aS4RDnaS0bHpQiw,2318.035869897869,Alfamart
alfamart,4.6,7,-6.2375671,106.7690621,"jl. ciledug raya kel no.99, rw.5, cipulir, kota jakarta selatan",ChIJW9fq8I3xaS4RxMcrn3PVoYk,0.0,Alfamart
alfamart,4.3,12,-6.220866099999999,106.7786611,"jl. raya kby. lama kel no.60, rt.7/rw.2, grogol utara, kota jakarta selatan",ChIJTXm4acHxaS4RKHXcYl6lbG4,0.0,Alfamart
alfamart panjang cidodol 10,4.6,87,-6.226878399999999,106.7720727,"9, jl. panjang cidodol no.1, rw.9, sukabumi sel., kota jakarta selatan",ChIJye3X2v_xaS4R_nF5CHsgfqM,0.0,Alfamart
alfamart,0.0,0,-6.213906,106.831112,"jl. h. r. rasuna said no.kav. 3, rt.3/rw.5, setia budi, kota jakarta selatan",ChIJj0q3Toz1aS4RmEbgm7uw19A,0.0,Alfamart
alfamart bakrie tower,4.7,6,-6.2193385,106.8344896,"bakrie tower, jl. epicentrum utama raya no.2, rt.2/rw.5, karet kuningan, south jakarta city",ChIJW44xTg70aS4RnoQoC3ewjZY,0.0,Alfamart
alfamart,4.7,54,-6.248098499999999,106.8289238,"jl. mampang prapatan viii no.23, rw.2, tegal parang, kota jakarta selatan",ChIJw9fJV1DzaS4R-MkiDQkHMOY,0.0,Alfamart
alfamart,4.4,82,-6.233785,106.7573647,"jl. kostrad pusri kel no.42 rt 04/04, rt.4/rw.4, pela mampang, kota jakarta selatan",ChIJV5SblcTwaS4RFahjIV6xK_g,1825.5184125512271,Alfamart
alfamart,3.8,20,-6.241620699999999,106.7563085,"jl. m. saidi no. 37, rt. 004 / 001 kel, rt.7/rw.5, petukangan sel., kota jakarta selatan",ChIJHWXiNejwaS4ROduEiEdqDvs,1983.9530494962748,Alfamart
alfamart,4.8,8,-6.2466634,106.7620832,"jl.ulujami raya no 86 rt 1/4 kel, rw.7, ulujami, kota jakarta selatan",ChIJiZF3MRHxaS4RMkLi-3sXAfI,1678.4474680537344,Alfamart
alfamart,0.0,0,-6.2373959,106.7584582,"jl. ciledug raya kel no.2, rt.13/rw.002, petukangan utara, kota jakarta selatan",ChIJ-agkUa3xaS4RDzBJWhZ9pAQ,1674.3998740176771,Alfamart
sumber alfaria trijaya. pt (alfamart),0.0,0,-6.2351522,106.7576759,"mampang prpt. jl. kostrad pusri no.42, rt.5/rw.4, petukangan utara, kota jakarta selatan",ChIJTfcbXMPwaS4RUTsckpjrLio,1769.3970947346709,Alfamart
alfamart,4.3,83,-6.2262738,106.7574297,"jl. palem v no.29a, rt.3/rw.008 kel, petukangan utara, kota jakarta selatan",ChIJbZxuR87waS4RypdX0qDk-Ss,2137.3196252379857,Alfamart
alfamart,4.1,61,-6.2333072,106.7605881,"jl. swadarma raya kel no.24, rt.18/rw.8, ulujami, kota jakarta selatan",ChIJiThZFNvwaS4RTbh3WkNuQRc,1489.8631726459464,Alfamart
alfamart,4.4,228,-6.2498001,106.7567651,"jl. merpati raya no.1, rt.3/rw.6, pesanggrahan, kota jakarta selatan",ChIJfTNH2u_waS4RfAA7VP4nhgA,2354.5506595083443,Alfamart
alfamart,4.1,78,-6.2276746,106.7604631,"jl. swadarma raya kel no.9, rt.9/rw.8, ulujami, kota jakarta selatan",ChIJUXhI3AzxaS4RwEQ8G0z8fnE,1772.3423152310102,Alfamart
alfamart ulujami perdatam 2,4.4,278,-6.241565200000001,106.763046,"jl. ulujami raya no.37, rt.11/rw.5, ulujami, kota jakarta selatan",ChIJxVlcmuXxaS4RuKkkG0FzqEg,1279.874001648667,Alfamart
alfamart,4.1,13,-6.2562549,106.7620386,"jl. bintaro permai no.03b, rt.5/rw.2, pesanggrahan, kota jakarta selatan",ChIJd_TogY_xaS4Rr4fIDW9btxc,2510.361924495984,Alfamart
alfamart,3.3,23,-6.2136295,106.7798298,"jl. raya kby. lama kel no.6, rt.3/rw.1, grogol utara, kota jakarta selatan",ChIJd2BjRnf3aS4RNuD_v9JPHBk,1825.0870201149,Alfamart
alfamart,4.0,33,-6.2187475,106.7937508,"jl. patal senayan, no. 01, blok f, kav. 197, rt.3/rw.007 kel, grogol utara, kota jakarta selatan",ChIJl4LWWzXxaS4R68Ts7gLQtmg,1981.928698752689,Alfamart
alfamart anggrek cakra,4.3,4,-6.2026125,106.7774417,"jalan anggrek cakra, no. 19 sukabumi utara, jl. panjang no.rt.5, rt.5/rw.7, kebon jeruk, west jakarta city",ChIJH1TFaor3aS4RzLaytbCIxOw,1728.1860770754836,Alfamart
alfamart,4.1,56,-6.207507300000001,106.7834121,"jl.kebayoran lama no.21 rt 4/3 kel, jl. raya kby. lama no.2a, rt.4/rw.3, grogol utara, kota jakarta selatan",ChIJlWLFJcX2aS4R6fFLh-CWsAs,968.796686744963,Alfamart
alfamart jalan angrek cendrawasih raya,0.0,0,-6.199457,106.7977008,"jalan anggrek cendrawasih raya no. k50, rt.1/rw.3, kemanggisan, west jakarta city",ChIJAWxzL-f3aS4Rf3DliLnYd0o,2287.546213340093,Alfamart
alfamart,4.5,287,-6.258382699999999,106.7680629,"jl. rc. veteran raya no.17h, rt.4/rw.4, bintaro, kota jakarta selatan",ChIJ19nrzXjxaS4R0lQ2di-0Tl4,1271.770406595295,Alfamart
alfamart,4.5,194,-6.274661099999999,106.7633277,"jl. rc veteran i rt 004, rt.4/rw.7, bintaro, kota jakarta selatan",ChIJT3CjyLrxaS4R7JM0n40maFA,2648.74917836419,Alfamart
alfamart,4.4,96,-6.2609176,106.7672296,"jl. rc. veteran raya no.8, rt.10/rw.10, bintaro, kota jakarta selatan",ChIJAcbTg1XwaS4RG9XNozvVjE4,1421.2423163115636,Alfamart
alfamart,4.3,107,-6.265090300000001,106.7661347,"jl. rc. veteran raya no.3, rt.9/rw.1, bintaro, kota jakarta selatan",ChIJfQbLC1TwaS4R2VS9ArUGtyk,1724.6036580382074,Alfamart
alfamart,3.9,10,-6.2633835,106.7634433,"jl. depsos raya no.20, rt.7/rw.9, bintaro, kota jakarta selatan",ChIJ6_849HLxaS4RGmSP-2LIumQ,1907.636563645344,Alfamart
alfamart kesehatan raya dekat sari indah,0.0,0,-6.2706111,106.7594005,"circle k kesehatan, jl. kesehatan raya jl. rw. papan, rt.3/rw.6, bintaro, south jakarta city",ChIJi1XDcvTxaS4RTcqRw8n3ytE,2682.775281604965,Alfamart
alfamart kesehatan bintaro,4.5,359,-6.270978599999999,106.7638361,"jl. kesehatan raya, rt.1/rw.11, bintaro, kota jakarta selatan",ChIJJ1GSGk7waS4RaM29vu-XutM,2320.4781360363954,Alfamart
pt. sumber alfaria trijaya (alfamart),0.0,0,-6.2756386,106.762513,"jl. rc. veteran raya no.16, rt.3/rw.1, bintaro, kota jakarta selatan",ChIJ6w2CLUnwaS4RyI1aYbJcdTg,2789.73937906642,Alfamart
alfamart,4.1,21,-6.274270899999999,106.7549809,"jl. bintaro permai raya no.14 rt 4/3, rt.11/rw.11, bintaro, kota jakarta selatan",ChIJxRzCGnjxaS4RHQMj-rsrhgg,0.0,Alfamart
alfamart,0.0,0,-6.269869099999999,106.7545909,"jl. mura raya no.7, rt.14/rw.8, bintaro, south jakarta city",ChIJy7Tf1pvxaS4RaY5OqcLjQBI,0.0,Alfamart
alfamart,4.3,102,-6.272520099999999,106.8383983,"jl. siaga raya no.17, rt.4/rw.4 kel, pejaten bar., kota jakarta selatan",ChIJxRVKKDnyaS4RxtZdiPBr3f4,2340.140136223024,Alfamart
alfamart,4.2,77,-6.261753499999999,106.8336621,"jl. kalibata tengah kel no.60, rt.10/rw.7, kalibata, kota jakarta selatan",ChIJAd72qmHzaS4RFQV01cn-_Vg,1426.6858426888564,Alfamart
alfamart,4.1,48,-6.2658257,106.8352335,"jl.warung jati no.2, kel no.9, rt.4/rw.9, kalibata, kota jakarta selatan",ChIJa4P60zDyaS4R4wTgs1-cS5k,1690.2976222460013,Alfamart
alfamart,4.5,81,-6.2692393,106.8377635,"jl. siaga raya no.kel, rt.12/rw.0, pejaten bar., kota jakarta selatan",ChIJZ4vwWCzzaS4R9YOSWsktFtA,2096.042724625516,Alfamart
alfamart,4.2,161,-6.2499501,106.8363977,"jl. pancoran barat vii kel no.22, rt.9/rw.6, kalibata, kota jakarta selatan",ChIJ6RtK2MjzaS4RUM3_G2pv1Kc,2107.844565957333,Alfamart
alfamart pejaten 2,4.2,13,-6.2795707,106.8349757,"jl. pejaten raya (graha pejaten) no. 5 j-k, rt.7/rw.7, kel, kota jakarta selatan",ChIJnX2VLibzaS4RTmYUIBuSA9A,2607.288302513514,Alfamart
alfamart,4.5,19,-6.253404799999999,106.8401304,"jl. duren tiga selatan no.88, rt.1/rw.001 kel, pancoran, kota jakarta selatan",ChIJAXBtHt7zaS4RqSjmY_L6_Tg,2292.242064135742,Alfamart
alfamart siaga raya,4.3,95,-6.2691579,106.8378314,"prjq+84j, rt.12/rw.4, west pejaten, south jakarta city",ChIJaYELyDnyaS4RCGjPIh_HyzU,2098.758725235611,Alfamart
alfamart,2.8,4,-6.279772899999999,106.8375655,"jl. raya jatipadang no.kel, rt.8/rw.10, jati padang, kota jakarta selatan",ChIJIXz_vBXyaS4RCwm7-7rVjP4,2805.6847703895573,Alfamart
alfamart,4.3,119,-6.2661947,106.8408908,"jl. h. samali kel no.3, rt.1/rw.4, pejaten bar., kota jakarta selatan",ChIJkah0xDfyaS4RVVK-oIB1NjA,2300.4810050184456,Alfamart
alfamart rasamala,5.0,2,-6.234524,106.839845,"jl. rasamala raya no.29, rt.1/rw.9, menteng dalam, kota jakarta selatan",ChIJEYL_Dc7zaS4RB34juQUJWKA,1956.0405829877973,Alfamart
alfamart menteng atas selatan 3,3.5,8,-6.2177142,106.8386021,"qrjq+wc9, rt.9/rw.4, menteng atas, south jakarta city",ChIJ3YwKPTbzaS4RVeL7N3tKQps,2762.397203907404,Alfamart
alfamart,4.3,185,-6.2614857,106.8419188,"jl. kalibata tengah kel no.rt. 001 / 07, rt.2/rw.7, kalibata, kota jakarta selatan",ChIJxx6tdpbzaS4RZ-Qlex8c2vI,2469.6799059424275,Alfamart
alfamart,0.0,0,-6.247007399999999,106.8432948,"gedung l'avenue shop 1, jl. raya pasar minggu kel no.kav.16, rt.1/rw.4, kalibata, kota jakarta selatan",ChIJP1-5SVPzaS4RG7CXt6z9WAA,1706.118735508706,Alfamart
alfamart,4.3,68,-6.2295531,106.8467864,"jl dr soepomo sh no 73d menten, rt.2/rw.15, menteng dalam, kota jakarta selatan",ChIJFRyV05PzaS4RMYjyqWOO87o,2610.1730385312985,Alfamart
alfamart,4.1,22,-6.2624146,106.8482494,"jl. empang tiga no.99 rt.14, rw no.kel, rt.14/rw.1, pejaten tim., kota jakarta selatan",ChIJldgfBQDzaS4RQD2w0HmvqT0,3021.52895737293,Alfamart
alfamart pancoran barat vii,4.6,27,-6.252869899999999,106.8376863,"jl. pancoran barat vii no.7a, rt.15/rw.1, pancoran, kota jakarta selatan",ChIJR3f96NbzaS4RlJ7hhGiIRj4,1443.771776773503,Alfamart
alfamart,4.2,30,-6.2679459,106.8470626,"jl. batu i kel no.3, rt.4/rw.1, pejaten tim., kota jakarta selatan",ChIJ7etgAUbyaS4Rltk4NYMESVU,2959.3875194599664,Alfamart
alfamart pasar manggis,4.8,5,-6.2140038,106.8427878,"jl. payakumbuh no.56, rt.11/rw.9, ps. manggis, kota jakarta selatan",ChIJ41SXHGn1aS4R33isZf_v_DY,0.0,Alfamart
alfamart minangkabau,4.5,146,-6.2125368,106.8445336,"jl. minangkabau barat no.2, rw.10, ps. manggis, kota jakarta selatan",ChIJ2wTpYf71aS4RoHjLXsoGgMw,0.0,Alfamart
alfamart,3.8,6,-6.217207399999999,106.8442193,"jl.dr. saharjo no. 96, kel no.1, rt.1/rw.7, menteng atas, kota jakarta selatan",ChIJpTDO7ojzaS4Rr4Rj2cGIbD4,0.0,Alfamart
alfamart muria tanjakan,4.6,35,-6.2119276,106.8380365,"jl. muria tanjakan gg. c2 no.6, rt.1/rw.12, ps. manggis, kota jakarta selatan",ChIJ5Si0x671aS4RNBFEQK-tApQ,0.0,Alfamart
alfamart sawah lunto,4.6,169,-6.214008799999999,106.842788,"11, jl. minangkabau barat no.58d, rt.11/rw.9, ps. manggis, kota jakarta selatan",ChIJaSlK6PT1aS4RrBHGJkrlQ1k,0.0,Alfamart
alfamart,3.5,2,-6.2579807,106.8499505,"apartement kalibata city tower nusa indah 08-11 kel, rt.9/rw.4, rawajati, kota jakarta selatan",ChIJgztQ37LzaS4RqexTxSjOLo8,0.0,Alfamart
alfamart,3.9,108,-6.265602599999999,106.8508493,"jl. rawajati timur no.kel, rt.7/rw.6, rawajati, kota jakarta selatan",ChIJK3B8r0_yaS4RKn-EKaMgJpM,0.0,Alfamart
alfamart - tower ebony,5.0,1,-6.257284599999999,106.8526894,"pvv3+33p, rt.9/rw.4, rawajati, south jakarta city",ChIJJwlUwbrzaS4RF4cES_63IzE,0.0,Alfamart
alfamart,4.4,43,-6.233994099999999,106.8496706,"jl. tebet barat, no. iv, no. 7, rt. 016 / 04, kel, rt.16/rw.2, tebet bar., kota jakarta selatan",ChIJ9Vwe-pbzaS4RRlQmSFdW96A,0.0,Alfamart
alfamart abdullah syafei,4.3,56,-6.2233659,106.8491521,"jl. kh. abdullah syafei no.27, kel no.01, rt.4/rw.1, manggarai sel., kota jakarta selatan",ChIJAUMc7Y7zaS4RgN_gPmZvDbU,0.0,Alfamart
alfamart,4.4,115,-6.2296444,106.8533086,"jl. tebet raya no.10a, rt.9/rw.4 kel, tebet tim., kota jakarta selatan",ChIJrwK7gpDzaS4RiLpXd52lzmk,0.0,Alfamart
alfamart,4.2,247,-6.232115299999999,106.8526155,"jl. tebet timur raya kel no.10a, rw.5, tebet tim., kota jakarta selatan",ChIJvxCSrJDzaS4RKB-Id--kE3M,0.0,Alfamart
alfamart,4.3,150,-6.2721008,106.8485963,"jl. angsana no 14 rt 101/5 kel, rt.10/rw.4, pejaten tim., kota jakarta selatan",ChIJf_l1EkTyaS4R9Tga6M5sprI,0.0,Alfamart
alfamart,4.4,124,-6.2726555,106.8465858,"jl. raya pasar minggu, rt.12/rw.005 kel, pejaten tim., kota jakarta selatan",ChIJx7JuK6HzaS4RmwoaiswInGQ,0.0,Alfamart
alfamart,4.3,21,-6.2349423,106.8570767,"jl. tebet timur dalam raya kel no.9, rt.5/rw.6, tebet tim., kota jakarta selatan",ChIJHxShupTzaS4Rfd_GHD6Fkqw,1175.65057588869,Alfamart
alfamart,4.3,94,-6.238003099999999,106.8602481,"jl. asem baris raya no.146, rt.11/rw.012 kel, kb. baru, kota jakarta selatan",ChIJ515758zzaS4RzrzdPn8horE,1046.7618295032212,Alfamart
alfamart express,0.0,0,-6.2425745,106.8586384,"jl. tebet timur raya no.55, rw.14, tebet tim., kota jakarta selatan",ChIJA4mAfRjzaS4RW9IHZeqsAaw,584.5991549192511,Alfamart
alfamart,3.0,2,-6.233449999999999,106.85983,"jl. asem baris raya kel no.8 rt 2/6, rt.2/rw.6, kb. baru, kota jakarta selatan",ChIJufbg8FXzaS4RNHykvXTY9ec,1443.664233951876,Alfamart
alfamart,4.1,175,-6.249124,106.8586472,"jl. pengadegan timur raya no.17, rt.3/rw.2, pengadegan, kota jakarta selatan",ChIJSRHaLq_zaS4RM3bNCU2HZd8,686.4867469064709,Alfamart
alfamart tebet utara dalam,0.0,0,-6.227136199999999,106.8550131,"10, jl. tebet utara dalam no.14, rw.1, tebet tim., kota jakarta selatan",ChIJ2y6N7cbzaS4Rq34j25qX_tE,1995.8682589065384,Alfamart
alfamart,0.0,0,-6.2514477,106.8618801,"jl. pengadegan timur i no.30, rt.7/rw.1, pengadegan, kota jakarta selatan",ChIJ1YYQJfXzaS4RtiFyuIT23go,1126.2905171968173,Alfamart
alfamart asem baris dua,4.5,17,-6.240856200000001,106.860392,"jl. asem baris raya no.12, rt.6/rw.14, kb. baru, kota jakarta selatan",ChIJcX-mR6HzaS4RpaepHq-g7uc,849.1599752835926,Alfamart
alfamart,4.3,271,-6.246529199999999,106.8553284,"5 jalan pengadegan utara kel no. 6 2, cikoko, kota jakarta selatan",ChIJSzw7gK_zaS4R5IGShG4jJTk,221.80693286179385,Alfamart
alfamart,4.3,120,-6.2516637,106.8500804,"jl. pengadegan selatan no.no, rt.3/rw.5, pengadegan, kota jakarta selatan",ChIJy5ulebHzaS4RlZiilhvlQuQ,851.626298920657,Alfamart
alfamart asem baris 9,3.3,3,-6.231533199999999,106.8595579,"jl. asem baris raya no.2, rt.4/rw.4, kb. baru, kota jakarta selatan",ChIJu7E9QdjzaS4RRrwgvXYkovU,1625.3272119860324,Alfamart
alfamart,0.0,0,-6.2422578,106.8586157,"jl. tebet timur dalam ii jl. letjen m.t. haryono no.kel, rt.11/rw.6, tebet tim., kota jakarta selatan",ChIJVZBHaVfzaS4RFTjXgXG6zA0,599.8740217953381,Alfamart
alfamart,4.3,6,-6.241123,106.860408,"no., jl. asem baris raya no.12, rt.6/rw.14, kb. baru, kota jakarta selatan",ChIJeSn3SKHzaS4R_WptlUHhqUU,834.7196886181324,Alfamart
alfamart,0.0,0,-6.2550819,106.8562552,"woodland park residence tower trembesi, jl. raya kalibata kel no.22, rt.6/rw.7, rawajati, kota jakarta selatan",ChIJGWu7SVDzaS4RQFrnntyC1lo,1142.9708475431253,Alfamart
alfamart,4.0,122,-6.2494,106.84871,"jl. perdatam raya no.35, rt.7/rw.8, pengadegan, kota jakarta selatan",ChIJyX7I3bDzaS4Rb6or_7hHT18,756.3826845253925,Alfamart
alfamart apartemen signature,3.0,2,-6.242746899999999,106.8545314,"jl. letjen m.t. haryono no.10, rw.9, tebet tim., kota jakarta selatan",ChIJaY52jS7zaS4Rhs70E5KpMKc,263.9839795564044,Alfamart
alfamart lapangan ros hrn,3.7,9,-6.225838,106.8587398,"jl. kh abdullah syafei no.45, rt.1/rw.3, kb. baru, kota jakarta selatan",ChIJw46yqITzaS4ROj6VVe4JA9g,2200.8558023819123,Alfamart
alfamart pengadengan barat,4.4,85,-6.245896,106.8555588,"jl. pengadegan barat raya no.21, rt.2/rw.6, pengadegan, kota jakarta selatan",ChIJD6Xy_f7zaS4RD9NxgaCPQ9I,198.36656696570452,Alfamart
alfamart,5.0,4,-6.225860000000001,106.8587594,"rt.1/rw.5, kb. baru, kota jakarta selatan",ChIJqeWQWf7zaS4RJW-5-q6ZFk8,2199.000609606872,Alfamart
alfamart jl. kemuning (1mu1),4.6,193,-6.273202299999999,106.8474613,"jl. kemuning raya no.33, rt.6/rw.6, pejaten tim., kota jakarta selatan",ChIJeawFH9TzaS4RZra6zTDuY0I,2578.376945564616,Alfamart
alfamart,4.4,230,-6.2768681,106.8415746,"jl. pejaten raya no.20 a, rt.10/rw.2, kel, kota jakarta selatan",ChIJEyrhCkDyaS4RLgCbuqlGxn0,2510.8498391095145,Alfamart
alfamart,4.2,157,-6.2891661,106.8244073,"jl. taman margasatwa raya kel no.10, rt.6/rw.1, ragunan, kota jakarta selatan",ChIJVZzZrgTyaS4RYhrqRJPSDok,1500.0226263701472,Alfamart
alfamart,3.9,8,-6.2856815,106.8292432,"jl. jati murni kel, rt.2/rw.7, jati padang, kota jakarta selatan",ChIJX8wPvV_zaS4Ruq74v4FNBtI,1703.1709284211047,Alfamart
alfamart,2.8,15,-6.3022797,106.8264828,"jl. kebagusan raya kel, rt.8/rw.7, kebagusan, kota jakarta selatan",ChIJ6zo-yIjtaS4R1-aDHKJFY0E,1930.022644681788,Alfamart
alfamart ciledug pesanggrahan,4.7,3,-6.2363047,106.7479354,"jl. ciledug raya no.3f, rt.10/rw.2, petukangan utara, kota jakarta selatan",ChIJf5s9qDHxaS4RWnBj2p2aQVc,2368.045363559482,Alfamart
alfamart,4.2,121,-6.2350886,106.7512863,"jl. masjid darul falah kel no.4a, rt.3/rw.2, petukangan utara, kota jakarta selatan",ChIJu7akxyTxaS4RsElEKAH5zmI,2261.912318848405,Alfamart
alfamart,5.0,1,-6.2427534,106.7520614,"jl. kemajuan kel no.48, rt.6/rw.6, petukangan sel., kota jakarta selatan",ChIJO5o704LxaS4RopukQoSoSlU,1530.6493011207422,Alfamart
alfamart,4.4,189,-6.2364448,106.7524101,"jl. ciledug raya no. 10a, rt. 002/003 kel, rt.2/rw.3, petukangan utara, kota jakarta selatan",ChIJyQtTMjnxaS4RAmG4Z9miTuU,2068.920252145153,Alfamart
alfamart,4.4,125,-6.2458404,106.7519896,"jl. damai raya kel no.2, rt.9/rw.5, petukangan sel., kota jakarta selatan",ChIJCZ41mAzxaS4RmvfdRLwHuNU,1315.5522845197477,Alfamart
alfamart,4.3,45,-6.2430094,106.748566,"jl. inpres no.54, kel no.02, rt.14/rw.2, petukangan sel., kota jakarta selatan",ChIJ3ea0GOvwaS4RUn2P0PG59CU,1806.2881835167243,Alfamart
alfamart budi luhur,4.7,3,-6.2363032,106.7479061,"jl. ciledug raya no.22, rt.10/rw.2, petukangan utara, kota jakarta selatan",ChIJZ3iYT7PxaS4RlMn9hgZzoXA,2370.269444443557,Alfamart
alfamart,4.2,220,-6.230081999999999,106.7457079,"jl. h. muchtar raya rt 05/1 kel, rt.5/rw.1, petukangan utara, kota jakarta selatan",ChIJ04xV4tLxaS4RJ5m-u5L84Po,1782.8065898414438,Alfamart
alfamart,0.0,0,-6.2260319,106.7445316,"jl. h. muchtar raya kel, rt.8/rw.11, petukangan utara, kota jakarta selatan",ChIJU2gAqwDxaS4Ri6ZzCqxukos,2221.622878787903,Alfamart
outlet binaan alfamart,0.0,0,-6.2273784,106.7526256,"jl. masjid darul falah no.8, rw.3, petukangan utara, kota jakarta selatan",ChIJvajR18jwaS4RsJDl7rn-tu8,1720.819093397762,Alfamart
alfamart h. muchtar 2,4.5,235,-6.2260342,106.7445134,"jl. h. muchtar raya no.41, rt.8/rw.11, petukangan utara, kota jakarta selatan",ChIJT6yVZrbwaS4RgDyhIXMu-qo,2222.5506892030817,Alfamart
alfamart,3.7,18,-6.210939,106.8421901,"jl. menteng wadas timur no. 12, kel no.01, rt.2/rw.1, ps. manggis, kota jakarta selatan",ChIJ65NqKXP0aS4R5fP1Zj0JGls,1974.5937825128344,Alfamart
alfamart mwtm (k795),4.4,5,-6.210930299999999,106.8421876,"jl. menteng wadas timur no.18b, rt.9/rw.1, ps. manggis, kota jakarta selatan",ChIJH1n1T3P0aS4R6agOTLlpnCg,1974.834780291185,Alfamart
alfamart,0.0,0,-6.2140499,106.8468344,"jl. mampang prapatan xviii no.01, rt.8/rw.rw, manggarai, kota jakarta selatan",ChIJu8pW-M_1aS4RNa-MGFln8O8,2315.849014721336,Alfamart
alfamart swadaya 1,4.3,131,-6.214059499999999,106.8468424,"jl. swadaya 1 no.25, rt.8/rw.8, manggarai, kota jakarta selatan",ChIJAWHbLHT0aS4RKMOn7LcwAFo,2316.40706662128,Alfamart
alfamart,0.0,0,-6.1951594,106.8175115,"jl. thamrin boulevard (gedung thamrin city blok bt/ld1-70 dan bt/ld1-71 kel, kebon melati, central jakarta city",ChIJiZqzblz3aS4RorMSigHzy2E,2202.034357983024,Alfamart
alfamart,4.2,21,-6.2210936,106.8542056,"jl. bukit duri selatan kel no.1, rt.4/rw.4, bukit duri, kota jakarta selatan",ChIJXYFIBYbzaS4R8Sd5JpbmsT0,1610.3997337166793,Alfamart
alfamart bukit duri utara,5.0,1,-6.2168284,106.8551025,"10, jl. bukit duri utara raya no.27, rw.1, bukit duri, kota jakarta selatan",ChIJKdryITrzaS4Rr3YGBQKOJss,1679.1266828304358,Alfamart
alfamart,4.0,2,-6.209969699999999,106.8503501,"stasiun manggarai, rt.15/rw.4, manggarai, kota jakarta selatan",ChIJsxTMGoP1aS4RKrbP3zhaAww,1458.1026481560318,Alfamart
alfamart express,0.0,0,-6.2107225,106.8508269,"qvq2+p84, rt.15/rw.4, manggarai, south jakarta city",ChIJQYHKz8b1aS4RneZiLSv-nAY,1451.3609469899664,Alfamart
alfamart,4.3,22,-6.2209506,106.8501247,"jl. albarkah kel no.4, rw.3, manggarai sel., kota jakarta selatan",ChIJF9_lmLfzaS4RB63H3egCn4M,1168.7091528046776,Alfamart
alfamart,4.4,131,-6.2086877,106.8245274,"jl. setia budi barat no.5, rt. 004/003, rt.5/rw.3, kuningan, setia budi, kota jakarta selatan",ChIJuTCdkAT0aS4RNniucbDH9dc,1998.787454825448,Alfamart
alfamart bkd,4.5,6,-6.2198946,106.8557831,"jl. tekukur dalam no.21-31, rt.9/rw.2, bukit duri, kota jakarta selatan",ChIJcVc1XIbzaS4RcyP2izqoYHE,1760.815235420719,Alfamart
alfamart,3.9,26,-6.223748899999999,106.8551894,"jl. sawo kecik raya no.4, rt.0 kel, rt.6/rw.6, bukit duri, kota jakarta selatan",ChIJ7U7upoXzaS4RujBBzm_mTGw,1798.4987720050983,Alfamart
alfamart,3.9,18,-6.2218534,106.8588398,"jl. bukit duri tanjakan no.kel, rt.13/rw.44, bukit duri, kota jakarta selatan",ChIJ_Q3dB4TzaS4RZxSq_Ptr8NY,2129.1296096044844,Alfamart
alfamart menteng atas,5.0,3,-6.2140737,106.8402247,"jl. menteng atas no.9, rw.12, kuningan, pasar manggis, south jakarta city",ChIJ9zeEzdD1aS4Rcj8jslVXWzQ,580.1616121560597,Alfamart
alfamart komplek selmis,0.0,0,-6.2258337,106.8589905,"jl. asem baris raya no.3, rt.3/rw.9, kebon baru, south jakarta city",ChIJ0dPodPrzaS4RE47Rr8Mz77Y,2681.869956048473,Alfamart
alfamart bukit duri selatan,0.0,0,-6.2212139,106.856739,"jl. cucakrawa no.882, rt.8/rw.4, bukit duri, kota jakarta selatan",ChIJ8a2fcwfzaS4Rte3SBP5Gj_0,2154.346789465872,Alfamart
alfamart express,0.0,0,-6.1994476,106.8419548,"rr2r+6qg, rt.1/rw.1, pegangsaan, central jakarta city",ChIJ2_3Y5Rf1aS4RDceAiXfgXXE,1066.7423126403887,Alfamart
alfamart stasiu,5.0,3,-6.2258686,106.8586468,"qvf5+mfc, flyover stasiun tebet, rt.3/rw.9, kb. baru, kota jakarta selatan",ChIJYRBiI-rzaS4RBW5LKzm2-yY,2657.47369951059,Alfamart
alfamart barkah ii,0.0,0,-6.2197686,106.8511829,"jl. barkah i no.14, rw.6, manggarai sel., kota jakarta selatan",ChIJ85lVEnTzaS4RHy8f_3cmsuI,0.0,Alfamart
alfamart,4.5,117,-6.2247584,106.8629242,"jl. kp. melayu kecil no.17 a, rt.12/rw.9, bukit duri, kota jakarta selatan",ChIJmxbt6ILzaS4RDljYoNQLKVc,0.0,Alfamart
alfamart,0.0,0,-6.193723299999999,106.8650954,"jl kel no.28, rt.2/rw.5, north utan kayu, east jakarta city",ChIJCdG-VXL1aS4R_hMAhW6qrhM,2560.979940671363,Alfamart
