nama_tempat,rating_tempat,user_ratings_total,latitude,longitude,alamat_tempat,place_id,distance,store
indomaret,4.3,104,-6.302203,106.7919364,"jl. lb. bulus iii no.40, rt.9/rw.7, cilandak bar., kota jakarta selatan",ChIJaxj8TyDuaS4RmJ8rDkpB2GA,1245.122666932579,Indomaret
indomaret jeruk purut,4.5,132,-6.291164699999999,106.8129499,"jl. jeruk purut no.22, rt.3/rw.3, cilandak tim., kota jakarta selatan",ChIJvy_4mvnxaS4RjjbhIFaTp4Y,1746.41659072653,Indomaret
indomaret,0.0,0,-6.3070032,106.7936899,"10, rt.4/rw.10, pondok labu, south jakarta city",ChIJPz4W5BPvaS4RoUnKBAiaL3o,1680.3368839203613,Indomaret
indomaret bdn raya,4.2,66,-6.279392199999999,106.7984418,"jl. bdn raya no.10, rt.10/rw.11, cilandak bar., kota jakarta selatan",ChIJKZqyypTxaS4RkjwUtyXrkBY,1441.6603451765477,Indomaret
indomaret,4.7,3,-6.278223100000001,106.797096,"jl. rs. fatmawati raya no.7, rt.8/rw.6, gandaria sel., kota jakarta selatan",ChIJzVqDlcTxaS4Rwlnqrz5hXbo,1565.0385230062695,Indomaret
indomaret karang tengah raya,4.3,108,-6.3013439,106.7805495,"bona indah plaza, jl. karang tengah raya no.1, rt.5/rw.4, lb. bulus, kota jakarta selatan",ChIJ7aqqqinuaS4RKy68g0RuyMk,2096.2928282560297,Indomaret
indomaret,4.3,42,-6.2857772,106.7808844,"pq7j+p92, jl. metro pondok indah, rt.3/rw.14, pd. pinang, kota jakarta selatan",ChIJLWcbOM_xaS4RIMEFJuZjRvY,1942.5639032086228,Indomaret
indomaret,0.0,0,-6.2910563,106.7949517,"jl. pejaten raya no.19 a, rt.18/rw.2, jati padang, kota jakarta selatan",ChIJZW196Q7xaS4R95E7nWT6Da4,283.2833988494497,Indomaret
indomaret ciputat raya 4,4.1,18,-6.2829641,106.7806074,"jl. ciputat raya no.4, rt.9/rw.2, pd. pinang, kota jakarta selatan",ChIJd-fx6q3xaS4RLtxCS_G0RvY,2106.2493291107467,Indomaret
indomaret - plaza satu pondok indah,4.2,9,-6.2843295,106.7811145,"jl. taman duta i no.7, rt.4/rw.14, pd. pinang, kota jakarta selatan",ChIJn2i-wMjxaS4RporVNR8Svs0,1985.417336860008,Indomaret
indomaret spbu terogong,4.8,8,-6.2821542,106.7916131,"jl. terogong raya no.16, rt.10/rw.10, cilandak bar., kota jakarta selatan",ChIJj-UaO5zxaS4RHGBB4QPZ-0Y,1285.327319639422,Indomaret
indomaret ciputat raya 5,4.0,1,-6.2776029,106.7794317,"jl. ciputat raya no.01, rt.11/rw.15, pd. pinang, kota jakarta selatan",ChIJE1VVVbbxaS4R4pD7bmqkkgI,2553.880429668809,Indomaret
indomaret spbu simatupang,4.2,22,-6.2928207,106.794356,"pq4v+vph, jl. r.a. kartini, rt.1/rw.4, cilandak bar., kota jakarta selatan",ChIJPd3qm93xaS4Ry_DGnmEAInk,318.5852318786732,Indomaret
indomaret golden fatmawati,0.0,0,-6.2777755,106.7968703,"jl. rs. fatmawati no. 15 ab gandaria selatan cilandak jakarta selatan dki jakarta rt.8, rw.6, gandaria sel., kota jakarta selatan",ChIJSShBVZDxaS4Rte30BlBPAO4,1615.1615233266502,Indomaret
indomaret fatmawati 26,4.3,6,-6.3043705,106.7951843,"jl. rs. fatmawati raya no.26, rt.1/rw.7, pd. labu, kota jakarta selatan",ChIJ-WTA4iHuaS4RhhDcoecn57U,1360.637751090428,Indomaret
indomaret ciputat raya 4,0.0,0,-6.2776029,106.7794317,"jl. ciputat raya 24 rt 009 rw 002, pondok pinang, kebayoran lama, rt.11/rw.15, pondok pinang, south jakarta city",ChIJE1VVVbbxaS4R-dLB7PhRuak,2553.880429668809,Indomaret
indomaret,4.4,26,-6.2962454,106.7892345,"pq3q+gmh, jl. lb. bulus i, rt.3/rw.4, cilandak bar., kota jakarta selatan",ChIJsbv9uN7xaS4RK2vE-f9VboA,982.7730474409592,Indomaret
indomaret metro pondok indah,4.3,480,-6.2743949,106.7827922,"blok tc, jl. metro pondok indah no.11, rt.2/rw.15, pd. pinang, kota jakarta selatan",ChIJm56pCbrxaS4RgzDUcFCWSR0,2548.5676352602504,Indomaret
indomaret minimarket bona indah plaza,4.5,6,-6.3009042,106.7806588,"bona indah plaza no.a2/d3 jl. karang tengah raya, rt.7/rw.6, lb. bulus, kota jakarta selatan",ChIJJesreyjuaS4RF1nrMU1l0JE,2062.567290524127,Indomaret
indomaret taman cilandak,5.0,4,-6.2930967,106.7920496,"jl. taman cilandak raya no.9, rt.11/rw.4, cilandak bar., kota jakarta selatan",ChIJv01rArvxaS4RuUFeXimA3zk,575.0514912650491,Indomaret
indomaret bango raya,0.0,0,-6.3075877,106.8039904,"jl. bango ii no.31, rw.3, pd. labu, kota jakarta selatan",ChIJXTAa0H_vaS4R5_VN2xv2sJA,1858.9170226783988,Indomaret
indomaret abu serin,4.5,10,-6.275743299999999,106.7971777,"jl. abuserin no.5, rt.10/rw.6, gandaria sel., kota jakarta selatan",ChIJXQQSNpTxaS4RsGiRh1Rrct0,1840.7460992241265,Indomaret
indomaret bona indah 2,4.9,15,-6.2963167,106.7891712,"jl. lb. bulus i no.35b, rt.3/rw.4, cilandak bar., kota jakarta selatan",ChIJF35byhHxaS4RhU4r6frWhIo,992.5817806366956,Indomaret
indomaret fatmawati 20,0.0,0,-6.281351099999999,106.7963965,"pq9w+fh2, west cilandak, south jakarta city",ChIJrTZnpp_xaS4RW53IaKnPsIc,1220.3413845906127,Indomaret
indomaret plus,4.3,229,-6.296373399999999,106.7948721,"5, jl. rs. fatmawati raya no.35, rt.5/rw.4, cilandak bar., kota jakarta selatan",ChIJd96Hv-DxaS4RHJwKA-4iFZI,520.6143860734265,Indomaret
indomaret cilandak raya,4.3,20,-6.297004200000001,106.8154176,"pr38+55x, jl. raya cilandak kko, rt.1/rw.5, ragunan, kota jakarta selatan",ChIJ-6Meqf_xaS4R99u9vNNVFjg,2081.470973143258,Indomaret
indomaret pintu barat ragunan (t1y7),0.0,0,-6.3104305,106.8159192,"14, jl. margasatwa baru no.45, rw.8, jagakarsa, kota jakarta selatan",ChIJwcwxNEXvaS4RiKmoGQ6V0pU,2889.7092023305627,Indomaret
indomaret karang tengah 39,4.4,90,-6.305912300000001,106.7816935,"mqvj+jmp, rt.6/rw.4, lebak bulus, south jakarta city",ChIJraDzUtLvaS4RD7IR82uJtEo,2285.899919498122,Indomaret
indomaret h. batong,3.9,60,-6.286857899999999,106.7903161,"jl. h.batong raya rt007/rw006, cilandak barat, cilandak, rt.7/rw.6, west cilandak, south jakarta city",ChIJAQAAAOfxaS4R6wrqsJtf5pk,971.113498826084,Indomaret
indomaret hybrid lebak bulus/008,4.6,13,-6.3101176,106.780875,"jl. karang tengah raya no.1, rt.1/rw.3, lb. bulus, kota jakarta selatan",ChIJBwBd3S_uaS4RMBfxWKiy408,2679.152488132606,Indomaret
indomaret plus cilandak kko (tmip),4.5,645,-6.3098246,106.8139564,"jl. raya cilandak kko no.3, rt.14/rw.8, ragunan, kota jakarta selatan",ChIJJ3rNnQjuaS4RWjDJ-zFTzR0,2689.2782905181807,Indomaret
indomaret asem 2.,3.8,23,-6.272082,106.8009549,"jl. asem dua no.26, rt.14/rw.5, cipete sel., kota jakarta selatan",ChIJs6y5G5HxaS4RurVX3sajfVU,2286.056158792272,Indomaret
indomaret berlian ii cilandak,4.5,2,-6.2965402,106.8005802,"pr32+96p, rt.6/rw.2, west cilandak, south jakarta city",ChIJDaAAxvjxaS4RX-J08P1H7ug,602.4660233316176,Indomaret
indomaret perempatan ampera,4.1,69,-6.2917269,106.8165986,"jalan ampera raya 2, rt.2/rw.2, cilandak tim., kota jakarta selatan",ChIJCTLyivjxaS4Rre-W6oaY4qE,2146.0788311733995,Indomaret
indomaret,2.0,4,-6.289838899999999,106.7781069,"jl. r.a. kartini no.49, rt.9/rw.7, lb. bulus, kota jakarta selatan",ChIJEaTZ42DxaS4R044D9l8J_vQ,2126.8124084587685,Indomaret
indomaret pinang raya,4.1,147,-6.3081054,106.7981876,"jl. pinang raya no.9, rt.2/rw.9, pd. labu, kota jakarta selatan",ChIJteuioxnuaS4R3u6TiMK2DHc,1761.215374464197,Indomaret
indomaret bona indah,3.2,5,-6.2974692,106.7824281,"indomaret, jl. lb. bulus i no.23, rt.1/rw.1, lebak bulus, south jakarta city",ChIJ5cZCSA_xaS4RWfbV5rM0sBg,1729.9338132702333,Indomaret
indomaret pondok labu,4.1,52,-6.310976699999999,106.7934225,"jl. rs fatmawati no.8, rt.7/rw.1, pd. labu, kota jakarta selatan",ChIJuZWfRT3uaS4RPJR0-gix6to,2118.362764574054,Indomaret
post shop indomaret,3.0,5,-6.2947447,106.795399,"jl. rs. fatmawati raya no.10, rt.1/rw.4, cilandak bar., kota jakarta selatan",ChIJbd1pUOfxaS4Rt-kFPuyDtsk,336.4992097330141,Indomaret
indomaret h.ipin,4.3,123,-6.3118874,106.7902907,"jl. h. ipin no.11, rw.1, pd. labu, kota jakarta selatan",ChIJWagF6TzuaS4RChibXwRnJgA,2307.9099628064564,Indomaret
bii atm indomaret bona indah 1,4.3,142,-6.2876105,106.7772803,"jl. lebak bulus 1, cilandak, jakarta selatan, rt.1/rw.1, lebak bulus, south jakarta city",ChIJF9Syud7xaS4RCaXavhh53AA,2261.408387707284,Indomaret
indomaret caringin,4.5,183,-6.283199900000001,106.7926034,"jl. caringin utara no.32, rw.10, cilandak bar., kota jakarta selatan",ChIJMRDIwMHxaS4RGxUodpMMNq8,1131.5206516356625,Indomaret
indomaret fatmawati no.6,3.9,13,-6.2942065,106.7950223,"jl. rs. fatmawati raya no.6, rt.2/rw.5, cilandak bar., kota jakarta selatan",ChIJ6yLv7KvxaS4RlTGBTyv0phM,320.0939674313903,Indomaret
fresh indomaret kemang,4.4,382,-6.272597699999999,106.8149503,"jl. kemang raya no.128, rt.3/rw.2, bangka, kota jakarta selatan",ChIJsVZkdYnxaS4RtDwdFb5B2t0,2941.384497411391,Indomaret
indomaret kemang mampang tjkc,3.4,16,-6.2555529,106.8123381,"jl. kemang raya no.15, rt.13/rw.1, bangka, kota jakarta selatan",ChIJN7p70X7xaS4R6VpOujMI_Wo,2060.78161057464,Indomaret
indomaret fatmawati 33d,5.0,1,-6.2664857,106.7975475,"rt 03 no, jl. rs. fatmawati raya no.33c, rt.2/rw.2, gandaria sel., kota jakarta selatan",ChIJsZgWTnXxaS4R_vrbAMPG_9c,839.2139311201591,Indomaret
indomaret,4.5,2,-6.2550721,106.7974134,"jl. darmawangsa raya no.125, rt.2, rt.2/rw.1, pulo, kota jakarta selatan",ChIJwX02iFLxaS4RMQgSCQVBeVQ,1946.6624358749348,Indomaret
indomaret panglima polim - blok a,4.0,29,-6.2576762,106.7967995,"jl. rs. fatmawati raya no.1, gandaria utara, kota jakarta selatan",ChIJCZIzrZ_xaS4RiJX_wvOeaH4,1701.724543835032,Indomaret
indomaret,4.6,43,-6.2627085,106.7887445,"jl. radio dalam raya no.12a, rt.7/rw.10, gandaria utara, kota jakarta selatan",ChIJvygfS6HxaS4RL3sTDNNU6fY,1871.1714208251728,Indomaret
indomaret petogogan (tb49),4.2,24,-6.254561799999999,106.7958583,"jl. petogogan ii no.18, rt.9/rw.5, pulo, kota jakarta selatan",ChIJperbNA3xaS4R4zKGAs61CVs,2060.8397129746704,Indomaret
indomaret grand wijaya. t98c,4.2,55,-6.2532473,106.7993526,"grand wijaya blok b10, jl. wijaya ii, rt.6/rw.1, pulo, kota jakarta selatan",ChIJT8Q48HPxaS4RHGBGXmOUqp0,2086.9869519137696,Indomaret
indomaret,0.0,0,-6.26411,106.7988205,"pqpx+9g4, unnamed road, rt.1/rw.5, north cipete, south jakarta city",ChIJF69gRyfxaS4R72RSYGIDZyU,961.5501815727166,Indomaret
indomaret point ampera,4.3,264,-6.2819344,106.8197334,"5, jl. ampera raya no.135, rt.5/rw.10, ragunan, kota jakarta selatan",ChIJSdmaRR7yaS4Rz1S6S2xE9kw,2166.4323713857702,Indomaret
indomaret spbu kemang,4.5,98,-6.2668841,106.8157034,"spbu kemang, jl. kemang raya no.7, rw.2, bangka, kota jakarta selatan",ChIJXaV9uofxaS4R737kEcz9UiE,1491.3612604090902,Indomaret
indomaret fatmawati raya,4.2,18,-6.2695941,106.7975764,"jl. rs. fatmawati raya no.27, rt.1/rw.5, cipete sel., kota jakarta selatan",ChIJDwAAAJHxaS4RELZlVPfYtVg,650.5983159785627,Indomaret
indomaret duta mas fatmawati,4.5,62,-6.263351900000001,106.7986876,"jl. rs. fatmawati raya no.15, rw.5, cipete utara, kota jakarta selatan",ChIJAQAAAJ3xaS4R3VfdB1vHqnw,1042.6006085373206,Indomaret
indomaret palem raya,1.0,1,-6.271644999999999,106.803089,"jl. palem no.5, rt.14/rw.5, cipete sel., kota jakarta selatan",ChIJDwAAAJHxaS4RjyudUxZZxus,0.0313567458422664,Indomaret
indomaret kemang selatan 8 t6zo,4.5,225,-6.2674666,106.8139114,"jl. kemang selatan viii no.67f, rt.7/rw.2, bangka, kota jakarta selatan",ChIJDVvROIbxaS4RE-sW0bxd2kc,1283.234569497158,Indomaret
indomaret fatmawati 2,3.8,11,-6.268205399999999,106.7970959,"jalan rs. fatmawati no. 5, cilandak, rt.1/rw.3, gandaria sel., kota jakarta selatan",ChIJFb9gM5jxaS4Rq1wKzoM3qas,764.9113518889912,Indomaret
indomaret haji nawi ( tq03 ),0.0,0,-6.2637034,106.7954092,"4, jl. h. nawi raya no.28a, rt.4/rw.7, gandaria sel., kota jakarta selatan",ChIJ4dWEmRnxaS4RQFHJI6sgsqk,1224.889549335371,Indomaret
indomaret madrasah,4.3,89,-6.266464999999999,106.7914699,"no, jl. madrasah no.17, rt.7/rw.1, gandaria sel., kota jakarta selatan",ChIJ14sVU6LxaS4Rrt0AdBPZjQM,1407.523347951817,Indomaret
mitra umkm indomaret,0.0,0,-6.2695104,106.7975699,"pqjx+52v, jl. rs. fatmawati raya, rt.6/rw.5, cipete sel., kota jakarta selatan",ChIJYWqPfpfxaS4RB7eEa52T3-0,654.5879801248863,Indomaret
indomaret point kemang,4.4,196,-6.2602656,106.815172,"jl. kemang raya no.8, rt.8/rw.2, bangka, kota jakarta selatan",ChIJS0XcTYDxaS4R7ku6ssO11Gs,1839.7363515224504,Indomaret
indomaret panglima polim 125b t3pi,4.0,5,-6.2550595,106.7974126,"jl. panglima polim no.125a, rt.2/rw.1, pulo, kota jakarta selatan",ChIJb-Coe5PxaS4Rq13QTJ2nq04,1948.0172776794827,Indomaret
indomaret apartemen kemang jaya,4.0,9,-6.2646261,106.813776,"jl. taman kemang jaya no.9, rw.2, bangka, kota jakarta selatan",ChIJGQe3OH7xaS4RIoThryrl3zc,1415.7558277807707,Indomaret
indomaret radio dalam 2,4.4,116,-6.2557519,106.790021,"jl. bri radio dalam no.83, rt.1/rw.8, gandaria utara, kota jakarta selatan",ChIJS-XZvAvxaS4R0DsvIJwCgMs,2282.4241811251927,Indomaret
indomaret radio dalam. t06c,4.2,18,-6.2523025,106.7913861,"jl. radio dalam raya blok haji hamali no.22, rt.1/rw.9, gandaria utara, kota jakarta selatan",ChIJD3ss9gzxaS4RA85t5OGeHsk,2509.8028667062185,Indomaret
indomaret (abdul majid),4.4,207,-6.266423,106.8061697,"jl. cipete utara no.4, rt.17/rw.2, cipete sel., kota jakarta selatan",ChIJtzSt1YTxaS4RFu6cHY0WKkQ,673.1071166431998,Indomaret
indomaret exit mrt h nawi,5.0,1,-6.266061,106.7975764,"jl. rs. fatmawati raya no.2, rt.4/rw.5, cipete sel., kota jakarta selatan",ChIJyzZxP67xaS4RMbpMyvQ2wbU,869.9366488630455,Indomaret
indomaret tanah kusir 2 dalam tt2d,4.4,269,-6.257153,106.784136,"gg. swadaya iii no.18, rt.10/rw.9, kby. lama sel., kota jakarta selatan",ChIJZbLLdm_xaS4R4cgyDKLeE8k,2642.980924609367,Indomaret
haji indomaret enting. {ts90},3.3,20,-6.2579731,106.8006317,"gg. h. enting no.1, rt.10/rw.1, cipete utara, kota jakarta selatan",ChIJDwH5C3bxaS4RcxF4-cn7X5g,1544.3022026190536,Indomaret
indomaret,4.4,243,-6.2518104,106.8145478,"jl. bangka raya no.105, rt.1/rw.12, pela mampang, kota jakarta selatan",ChIJ0dTG_nzxaS4RT0V7owX_qpg,2543.284426339656,Indomaret
indomaret damai fatmawati. fq84,4.1,36,-6.2600751,106.7970731,"jl. damai raya no.6, rt.1/rw.5, north cipete, south jakarta city",ChIJXw0Sy5_xaS4RW8YkG7Tx-_8,1448.1863913322863,Indomaret
indomaret damai f561,4.5,140,-6.2620838,106.8056991,"jl. h. jian no.81, rt.1/rw.7, cipete utara, kota jakarta selatan",ChIJPUjazZzxaS4RUSIDkidVSQg,1101.5787077592418,Indomaret
indomaret,5.0,2,-6.255084,106.8144756,"jl. bangka raya no.5d, rt.13/rw.1, bangka, kota jakarta selatan",ChIJna8wx9fxaS4RYJPoLhdWN9A,2230.4719672173283,Indomaret
indomaret point kemang (argo promosi),4.7,71,-6.2617066,106.8155229,"jl. kemang raya no.36, rt.12/rw.5, bangka, kota jakarta selatan",ChIJ_YNG5YDxaS4RQpg-Vbilhmw,1763.4946624256984,Indomaret
indomaret ciputat raya ta3p,4.3,59,-6.2585712,106.7773998,"jl. ciputat raya no.35, rw.10, kby. lama sel., kota jakarta selatan",ChIJd734LwfxaS4R9GSRMspZ-XE,2426.882362710044,Indomaret
indomaret,4.0,3,-6.2511809,106.7781617,"jl. pahlawan no.2, rw.10, kby. lama utara, kota jakarta selatan",ChIJI231igTxaS4RKIR6Aki7DBw,2903.619174328777,Indomaret
indomaret,4.3,7,-6.2774015,106.7765376,"pertokoan taman hijau baru, jalan bukit hijau 1 no. 14, pondok pinang, kebayoran lama, rt.1/rw.13, pd. pinang, kota jakarta selatan",ChIJkx-NPnL4aS4RDbS5_c6xsp4,2250.271050192784,Indomaret
indomaret sultan iskandar muda,4.2,95,-6.2511828,106.7813003,"jl. sultan iskandar muda no.9, rt.8/rw.1, kby. lama sel., kota jakarta selatan",ChIJ74HObQXxaS4RUip6zNyV5gE,2684.073250300381,Indomaret
indomaret ciputat raya 5,4.0,27,-6.2711724,106.7755201,"indomaret, jl. ciputat raya no.5, rt.1/rw.6, pd. pinang, kota jakarta selatan",ChIJmeRBFrLxaS4RmHuZnxbwxI8,2233.05222793828,Indomaret
indomaret,4.7,7,-6.2534879,106.7758737,"jl. bintaro raya no.17, rt.013/rw.10, kby. lama sel., kota jakarta selatan",ChIJY1VVVQTxaS4RtmETuVP403E,2904.100452462294,Indomaret
indomaret praja dalam k,4.1,17,-6.2505751,106.7834542,"jl. praja dalam k no.18, rt.9/rw.5, kby. lama sel., kota jakarta selatan",ChIJOwAAAAfxaS4RKTnNaZ1qgc4,2607.4425397833297,Indomaret
indomaret reno pangkalan jati,4.4,61,-6.3131032,106.7963693,"jl. pangkalan jati no.8, rt.2/rw.5, pd. labu, kota jakarta selatan",ChIJ_YPzTRbuaS4RBMIVZIUvApQ,2170.932795329521,Indomaret
indomaret adhiyaksa lebak bulus,4.5,13,-6.2977921,106.7762749,"4, jl. adhyaksa vii no.5, rw.5, lb. bulus, kota jakarta selatan",ChIJo6D2K9TxaS4RRAFRFQZF85I,690.2980584184511,Indomaret
indomaret,4.0,1,-6.311003200000001,106.7935373,"mqqv+hcv, jl. h. ipin, rt.7/rw.1, pd. labu, kota jakarta selatan",ChIJI9WSpdXvaS4RyrpdfY2WyYA,1782.989343252848,Indomaret
indomaret pupan ciputat,5.0,11,-6.2831678,106.7717267,"jl. pupan no: 01 rt 07 / rw 08, pondok pinang, kebayoran lama, rt.11/rw.15, pd. pinang, kota jakarta selatan",ChIJE1VVVbbxaS4RJVUwg--0dq4,2378.071154069756,Indomaret
indomaret,4.7,6,-6.3203625,106.8106762,"jl. m. khafi no.62, rt.3/rw.4, jagakarsa, kota jakarta selatan",ChIJWdlCSXPuaS4RzpIWwflyKKU,2054.4759932321163,Indomaret
indomaret margasatwa raya,3.6,48,-6.313039300000001,106.8000683,"jl. margasatwa no.41, rt.8/rw.2, pd. labu, kota jakarta selatan",ChIJP8XfLBHuaS4RUZWOBnFgxCo,678.8076337233364,Indomaret
indomaret ciremai jagakarsa,3.9,22,-6.3245086,106.8113082,"jl. m.kahfi 1 rt 01/rw 04, jagakarsa, jagakarsa, rt.2/rw.7, jagakarsa, south jakarta city",ChIJcQAAANntaS4RAesd4Pw1hXk,2439.3108618380897,Indomaret
indomaret jl. m. kahfi 1,4.1,73,-6.3180584,106.8113141,"jalan jagakarsa blok hidayah no.10 rt.10/rw.6, rt.3/rw.6, jagakarsa, kota jakarta selatan",ChIJWQO5mgzuaS4RFP9F2gFfJyY,1943.4848574865512,Indomaret
indomaret raya jagakarsa,4.4,221,-6.3273649,106.8163662,"no., jl. raya jagakarsa no.2, rt.10/rw.2, jagakarsa, kota jakarta selatan",ChIJnz15NXbuaS4RjtdQGUQE7gY,3049.4414492023325,Indomaret
indomaret durian jagakarsa,4.4,243,-6.3187172,106.8157181,"jl. paso no.32, rt.4/rw.4, jagakarsa, kota jakarta selatan",ChIJp2612gruaS4R6xThXZZnoQw,2389.271195062986,Indomaret
indomaret,4.3,190,-6.310845,106.8031917,"jalan margasatwa, rt.1/rw.3, pondok labu, cilandak, rt.1/rw.3, pd. labu, kota jakarta selatan",ChIJz_7MYxDuaS4RL6XfEsDgb-M,752.6501856033636,Indomaret
indomaret,0.0,0,-6.247488499999999,106.8149378,"jl. bangka iig no.11, rw.11, pela mampang, kota jakarta selatan",ChIJ-bHiAPTxaS4RQJ3di8P7F2g,0.0,Indomaret
indomaret bangka raya,4.6,18,-6.245269400000001,106.8158177,"jl. bangka raya no. 30, rt. 02 / 02, pela mampang, bangka, rt.11/rw.11, pela mampang, kota jakarta selatan",ChIJETmoJH3xaS4R8_bMnW8Vt74,0.0,Indomaret
indomaret spbu ciputat. t04d,4.9,7,-6.2479081,106.7781297,"jl. ciputat raya no.12, rt.8/rw.8, kby. lama utara, kota jakarta selatan",ChIJh3nZSBvxaS4RZ-S7enqBkV0,0.0,Indomaret
indomaret delman utama. {f763},4.0,123,-6.247976299999999,106.7728671,"jl. delman utama, rt.2/rw.11, kby. lama utara, kota jakarta selatan",ChIJR9-Fph3xaS4R5_wCOsFGSn0,0.0,Indomaret
indomaret bungur raya 2,4.8,77,-6.2476761,106.7817145,"jl. duku raya no.79-81, rt.14/rw.6, kby. lama utara, kota jakarta selatan",ChIJhV_DfRrxaS4Ry97kNCuA-dY,0.0,Indomaret
indomaret ciputat raya 2a-b,4.9,26,-6.2512092,106.7780693,"pqxh+g69, jl. ciputat raya, rt.9/rw.8, kby. lama utara, kota jakarta selatan",ChIJM0m-HlLxaS4R1ijwvB3yJVg,0.0,Indomaret
indomaret pondok pinang,4.4,131,-6.277701,106.7728599,"jl. ciputat raya no.9, rt.1/rw.7, pd. pinang, kota jakarta selatan",ChIJFzBJ_bTxaS4R8JON9mw_ULs,0.0,Indomaret
papaya indomaret jagakarsa,4.5,269,-6.325327300000001,106.8198997,"jl. pepaya raya no.4, rt.2/rw.5, jagakarsa, kota jakarta selatan",ChIJTTG_z9jtaS4RnfCTBd_V_Sw,0.0,Indomaret
indomaret jagakarsa 1 no.1,4.5,196,-6.3322727,106.8204749,"mr9c+35v, townhouse jagakarsa, jl. jagakarsa 1, rt.3/rw.2, jagakarsa, kota jakarta selatan",ChIJnfhFPGLtaS4R8RAXOhmLRC4,0.0,Indomaret
indomaret m kahfi,3.6,8,-6.3406939,106.8044744,"jl. m. khafi no.5, rt.8/rw.6, ciganjur, kota jakarta selatan",ChIJFxAcIIjuaS4RYFvViU4kKeA,583.8835711671006,Indomaret
indomaret timbul (t18j),4.3,87,-6.3517988,106.810539,"jl. timbul no.37, rt.1/rw.3, cipedak, kota jakarta selatan",ChIJ9SsEQJvuaS4RNq5qlCDIJtw,1547.7096113630137,Indomaret
indomaret srengseng,4.3,195,-6.3455694,106.8262261,"jl. yon zikon 14 no.1-32, rt.6/rw.6, srengseng sawah, kota jakarta selatan",ChIJ-2nJhS7saS4RpCO7nEHGBsU,2084.214549052662,Indomaret
indomaret brigif raya,4.3,135,-6.3442002,106.8017057,"jl. brigif no.15, rt.1/rw.1, cipedak, kota jakarta selatan",ChIJh-0yE4nuaS4RT4cgaf1ZTk8,1062.2690111770714,Indomaret
indomaret masjid annur,2.0,3,-6.3464005,106.8143894,"jl. moh. kafi no.24, rt.2/rw.5, cipedak, kota jakarta selatan",ChIJF2LOzoPuaS4RGhpeBivt3Zk,1111.7450439646173,Indomaret
indomaret,4.0,1,-6.3566026,106.8093138,"jl. moch. kahfi ii no.6, rw.3, cipedak, kota jakarta selatan",ChIJ69Imd5nuaS4R4l3iPtF1Wmw,2072.6656268027486,Indomaret
indomaret,0.0,0,-6.335050799999999,106.8131039,"jl. sadar raya no.75 a, rw.2, ciganjur, kota jakarta selatan",ChIJK1AskZ3vaS4REypC6pL89EA,558.479316826979,Indomaret
indomaret fresh,4.0,4,-6.3461701,106.8028596,"jl. m. khafi no.2-34, rt.4/rw.1, cipedak, kota jakarta selatan",ChIJ3YjtL_zvaS4Rnl104wRCVD8,1136.2620180436124,Indomaret
indomaret,4.5,44,-6.3387782,106.8218532,"jl. moch. kahfi ii no.14e, rt.1/rw.4, ciganjur, kota jakarta selatan",ChIJ-Q7w6dTtaS4RDEfVifDRyGE,1424.6161722264026,Indomaret
indomaret timbul iv a,4.4,183,-6.351852500000001,106.807109,"jl. timbul iv no.8, rt.8/rw.6, cipedak, kota jakarta selatan",ChIJ7WecLyzvaS4Rn9KPGUD4Ljg,1558.073407260999,Indomaret
indomaret - warung silah no.27,4.3,80,-6.3448961,106.8089498,"2, jl. wr. sila no.21, rw.5, ciganjur, kota jakarta selatan",ChIJw0MeY4buaS4RXvv9hDhmtt4,770.6604909263096,Indomaret
indomaret m kahfi 4,4.5,212,-6.350038899999999,106.8016393,"jalan muhammad kahfi i, rt.6/rw.1, cipedak, jagakarsa, rt.6/rw.1, cipedak, kota jakarta selatan",ChIJ6cQUFo7uaS4R-_kInWNWM1E,1569.0657029167842,Indomaret
indomaret pertigaan sadar,3.2,5,-6.3440661,106.8121865,"jl. wr. sila no.15, rt.1/rw.5, ciganjur, kota jakarta selatan",ChIJZ5dPNIHuaS4RrO2wSc7g9dk,764.9039177667524,Indomaret
indomaret desa putra,4.6,117,-6.3411344,106.8274065,"jl. desa putra no.52, rt.7/rw.5, srengseng sawah, kota jakarta selatan",ChIJ3TQhlPPtaS4R4L49oeHOWVI,2065.741915030951,Indomaret
indomart,4.2,9,-6.3541376,106.8108413,"jl. moch. kahfi ii no.32a, rt.4/rw.3, cipedak, kota jakarta selatan",ChIJky3nmJvuaS4RnXLQI2QE2oc,1809.8779704109893,Indomaret
indomaret rsu aulia,4.9,12,-6.335074,106.8273801,"jl. jeruk raya no.11, rw.1, jagakarsa, kota jakarta selatan",ChIJodfZVs3taS4Rnyv5NOI9wSw,2057.834534492003,Indomaret
mitra umkm indomaret,0.0,0,-6.321487500000001,106.8251361,"jagakarsa, south jakarta city",ChIJ17YTyN3taS4RJt9KCDT3YEg,2557.728796758776,Indomaret
indomaret srengseng sawah,4.5,236,-6.3523913,106.8185399,"jrx9+3c3, jalan kukusan, rt.7/rw.7, srengseng sawah, kota jakarta selatan",ChIJbT3_jyfsaS4R717sP2FKYyI,1920.228776688968,Indomaret
mitra umkm indomaret,0.0,0,-6.3407538,106.8045153,"jl. m. khafi no.5, rt.8/rw.6, ciganjur, kota jakarta selatan",ChIJOQ-JH4juaS4Rk2w7its6a8g,583.5377585746776,Indomaret
indomaret kebagusan,0.0,0,-6.317959699999999,106.8250448,"jl. kebagusan raya no.56, rt.10/rw.4, kebagusan, kota jakarta selatan",ChIJU4w3LnrtaS4RuMgFlMLq-BI,2845.605521700299,Indomaret
srengseng sawah 2 indomaret,3.7,50,-6.3581175,106.8118531,"jrr6+qp5, jalan pemuda i, rt.3/rw.9, srengseng sawah, kota jakarta selatan",ChIJ3xl_LJnuaS4RzgLSN1FMvfI,2263.055423150639,Indomaret
indomaret kelapa hijau,4.5,325,-6.3268289,106.8278567,"no., jl. kelapa muda no.48, rt.11/rw.3, jagakarsa, kota jakarta selatan",ChIJDWcZHNvtaS4RroTyX5d4o2g,2425.2304211060928,Indomaret
indomaret hybrid jeruk jagakarsa,4.3,137,-6.331093399999999,106.8292052,"jl. jeruk raya no.3a, rt.5/rw.1, jagakarsa, kota jakarta selatan",ChIJZWTzI9DtaS4Ra2YhrND7ULo,2361.332321375171,Indomaret
indomaret h. syuaeb,2.5,2,-6.3588485,106.8064644,"jrr4+fh5, jl. purwa raya i, rt.6/rw.6, cipedak, kota jakarta selatan",ChIJJziCLpjuaS4RBqFo3rWHDkM,759.3456072857259,Indomaret
indomaret,4.4,11,-6.3629815,106.8068578,"jrp4+rph, jl. m. khafi, rt.7/rw.3, cipedak, kota jakarta selatan",ChIJ6Tll06LuaS4R9zTIOA9Y0rs,1059.821298542227,Indomaret
indomaret pesantren daarul rahman,5.0,3,-6.3589526,106.8065455,"jrr4+cj8, rt.6/rw.6, cipedak, south jakarta city",ChIJo81VL5juaS4RMjW6kId9FZ8,772.1520065788718,Indomaret
indomaret raden sanim,4.4,192,-6.373744299999999,106.800794,"jl. raden sanim, rt. 1 rw. 9, tanah baru, kabupaten bogor",ChIJa2uK2LDuaS4Ru1GfEJttx8E,1954.4243898922423,Indomaret
indomaret matoa raya,4.5,150,-6.3628912,106.802243,"jrp2+rvx, jl. m. khafi, rt.6/rw.2, cipedak, kota jakarta selatan",ChIJTWBpu73uaS4RDjpmaVM2yCU,781.6381296445762,Indomaret
indomaret lenteng agung barat,3.3,3,-6.3333248,106.8350508,"jl. raya lenteng agung blok cemara no.9, rt.2/rw.10, srengseng sawah, kota jakarta selatan",ChIJJaTMDg_taS4R60wVAmauYTQ,1711.1797898643144,Indomaret
indomaret,2.7,14,-6.323935700000001,106.8372384,"jl. agung raya i no.3, rt.9/rw.2, lenteng agung, kota jakarta selatan",ChIJx0ubeSPtaS4RHy0oOTeBz3s,1857.0454479757088,Indomaret
indomaret srengseng jagakarsa no.23,4.4,174,-6.3451713,106.8294743,"jl. o no.14, rw.3, srengseng sawah, kota jakarta selatan",ChIJpV0lAS7saS4RivjWQPg7JxE,2203.234683351184,Indomaret
indomaret stasiun lenteng agung,4.8,23,-6.330877699999999,106.8343701,"mr9m+jpx, jl. raya lenteng agung, rt.1/rw.5, lenteng agung, kota jakarta selatan",ChIJs8vL3f_taS4RD-B_tfITONc,1551.8820462514525,Indomaret
indomaret joe kelapa tiga,4.2,27,-6.3245479,106.8301569,"gg. bunga no.2, rt.2/rw.6, lenteng agung, kota jakarta selatan",ChIJPdTzvtrtaS4Rny8eJBB6jss,1080.9369964123744,Indomaret
indomaret lenteng agung 28,4.4,283,-6.324972,106.8335444,"mrgm+2c8, rt.13/rw.5, lenteng agung, south jakarta city",ChIJh7HpccTtaS4R3felpmD0M70,1434.1851712010548,Indomaret
indomaret,4.7,10,-6.313857899999999,106.8255294,"mrpg+f62, rt.10/rw.7, ragunan, south jakarta city",ChIJ7a6YI-TtaS4RHRQ67Lb2ub0,1587.8015765504788,Indomaret
indomaret st tj.barat,0.0,0,-6.3085045,106.8381817,"jl. raya lenteng agung no.5, rt.3/rw.1, lenteng agung, kota jakarta selatan",ChIJxbO8YfvtaS4RVgwXEDURxRs,2842.684448810194,Indomaret
indomaret lenteng agung 2,4.4,197,-6.3349815,106.8344234,"jl. raya lenteng agung no.25, rt.3/rw.4, srengseng sawah, kota jakarta selatan",ChIJ9fzyS8_taS4Ra0JH3lgQjic,1730.1951483536918,Indomaret
indomaret kebagusan city,4.3,14,-6.3075195,106.8358518,"apartement kebagusan city tower c unitk18192223, rt.1/rw.6, kebagusan, south jakarta city",ChIJz_____DtaS4RuBSePQZKmzM,2761.855427185432,Indomaret
indomaret tanjung barat,4.6,101,-6.3119122,106.838572,"jl. raya tj. barat no.12a, rt.5/rw.1, tj. bar., kota jakarta selatan",ChIJO8FvdaLtaS4RSZB1kkXDSLk,2608.665222082329,Indomaret
indomaret gongseng,4.8,6,-6.326816500000001,106.852958,"jl. gongseng raya no.6, cijantung, pasar rebo, rt.3/rw.9, baru, east jakarta city",ChIJn6qq6qPtaS4RKwJxaX8KTuI,2088.146080107543,Indomaret
indomaret pasar minggu,4.5,2,-6.291435099999999,106.8419087,"jl. raya ps. minggu no.15d, rt.13/rw.5, ps. minggu, kota jakarta selatan",ChIJKdFjS4XzaS4RpmE0MI-N8hQ,1855.3632230544624,Indomaret
indomaret,4.3,84,-6.3045613,106.8437533,"jl. nangka raya no.5, rt.8/rw.5, tj. bar., kota jakarta selatan",ChIJ_57ljYztaS4RBUKmJ5rF0XA,737.25537004416,Indomaret
indomaret,3.8,10,-6.2961348,106.843599,"jl. poltangan raya no.19, rt.1/rw.4, tj. bar., kota jakarta selatan",ChIJd3ilG3XyaS4R7Y_rIePXcG4,1313.0188789583744,Indomaret
indomaret gurame raya,4.2,18,-6.2957984,106.8366216,"jl. gurame raya no.32, rt.2/rw.9, ps. minggu, kota jakarta selatan",ChIJgVaTJgryaS4RZDPX8Ifsn0A,1881.8899641400703,Indomaret
indomaret tb simatupang,3.5,19,-6.3039672,106.8508534,"jl. tb simatupang no.47, rt.12/rw.5, tj. bar., kota jakarta selatan",ChIJNWl0JY_taS4Rcf7n3fGXkxw,223.1274166954601,Indomaret
indomaret,4.0,44,-6.295587599999999,106.8453943,"jl. poltangan raya no.49, rt.5/rw.10, pejaten tim., kota jakarta selatan",ChIJvdo1THTyaS4RBoB9yjj3LdM,1267.1871727580765,Indomaret
indomaret rancho indah,3.2,14,-6.305132,106.8502399,"jl. rancho indah no.17, rt.1/rw.2, tj. bar., kota jakarta selatan",ChIJ76qqqo3taS4RkUk7x72ntOw,84.84107803087751,Indomaret
indomaret,4.0,6,-6.3092057,106.8693524,"blok haji jani 1, jl. tb simatupang blok haji jani 1 no.104, rt.7/rw.3, susukan, east jakarta city",ChIJqSHWFHftaS4RSfN1u5Cg2Go,2138.992180687765,Indomaret
indomaret mtrade teluk betung,0.0,0,-6.2993709,106.8399129,"jl. raya pasar minggu no.168, rt.4/rw.8, ps. minggu, kota jakarta selatan",ChIJ5RSsmVTtaS4RlacdijhrxSI,1356.7972898739902,Indomaret
indomaret rawa bambu,4.4,271,-6.2914141,106.8419168,"jl. raya rw. bambu no.14, rt.13/rw.5, ps. minggu, kota jakarta selatan",ChIJA00kMHPyaS4RzjSAlv_vnD4,1856.9407879041523,Indomaret
indomaret nangka 1,4.6,117,-6.3029362,106.8475626,"jl. nangka raya no.6, rw.5, tj. bar., kota jakarta selatan",ChIJh2Vkk9jtaS4R71LDz2IfqhU,445.9369451848989,Indomaret
indomaret,4.9,7,-6.298130500000001,106.8299386,"plaza oleos, jl. tb simatupang, rt.2/rw.1, kebagusan, kota jakarta selatan",ChIJ4dtL_AfyaS4RF-C9eDUjQ0o,2409.032223236194,Indomaret
raya ragunan indomaret,4.1,17,-6.2858816,106.8301102,"jl. raya ragunan no.19, rt.2/rw.7, jati padang, kota jakarta selatan",ChIJBS7mhhDyaS4RwQ24c_CL25w,3150.412851181441,Indomaret
indomaret impres 3,3.9,18,-6.2865188,106.8616086,"pv76+9jx, rt.2/rw.3, batu ampar, east jakarta city",ChIJaS7VI2PyaS4RhJOaQnBn84s,2491.355153520024,Indomaret
indomaret taman margasatwa,4.3,21,-6.2892776,106.8242394,"jalan taman margasatwa no.18a, jati padang, rt.6/rw.1, ragunan, kota jakarta selatan",ChIJ2fZhrgTyaS4Rl1uCPiHU63Q,0.0,Indomaret
indomaret,5.0,1,-6.2794572,106.8335032,"prcm+59q, rt.13/rw.2, jati padang, south jakarta city",ChIJNb3Las7zaS4R0UHAjC6iv1A,0.0,Indomaret
indomaret spbu,4.8,19,-6.2905671,106.8235708,"jl. warung jati barat no.28, rt.5/rw.1, ragunan, kota jakarta selatan",ChIJC4P6jYjzaS4RmEFhDQhpE7U,0.0,Indomaret
indomaret jatipadang no 2,4.4,204,-6.287836299999999,106.8293824,"jl. jatipadang utara no.1, rt.7/rw.9, jati padang, kota jakarta selatan",ChIJBa5dUV_zaS4Rpz5v0gMy_nU,0.0,Indomaret
"indomaret, blok m square",4.0,1,-6.2443244,106.7993778,"jl. melawai 6 no.3, rw.1, melawai, kota jakarta selatan",ChIJp6k1jNPxaS4RsvpHlCJjam4,1958.3340497345573,Indomaret
indomaret melawai iv no 52,5.0,2,-6.2454911,106.80124,"3, jl. melawai iv no.52, rw.1, melawai, kota jakarta selatan",ChIJaWy44RjxaS4RORWqDRtDtk0,1748.0253809511405,Indomaret
indomaret kemang timur raya {t01a},4.0,13,-6.2681964,106.8239824,"jalan kemang timur, rt.7/rw.3, bangka, mampang prapatan, rt.7/rw.3, bangka, kota jakarta selatan",ChIJ89CaVi_yaS4Rmq471uckjw0,1997.133566984202,Indomaret
indomaret hasanudin 57,4.0,4,-6.2425243,106.8022062,"jl. sultan hasanudin no.53, rt.2/rw.1, melawai, kota jakarta selatan",ChIJ-ZfljI_xaS4RYqEvAOKUxi0,2013.458720463512,Indomaret
indomaret,4.0,1,-6.2460531,106.8074507,"jl. wijaya iv no.73, rt.10/rw.1, petogogan, kota jakarta selatan",ChIJLaYz6kXxaS4R23ofLaT83us,1515.0128776952297,Indomaret
indomaret,4.1,57,-6.2483714,106.7903916,"jl. gandaria 1 no.67, rt.2/rw.8, kramat pela, kota jakarta selatan",ChIJXUBFcBLxaS4RdvT3g4SaRRs,2323.926978522752,Indomaret
indomaret,2.3,3,-6.248328,106.8240323,"jl. mampang prapatan vii no.1, rw.3, tegal parang, kota jakarta selatan",ChIJJXUTrNDzaS4RJSFdr933enM,2167.144055528838,Indomaret
indomaret point,0.0,0,-6.2440509,106.8161762,"jl. bangka raya no.25, rw.2, pela mampang, kota jakarta selatan",ChIJNW2A01zxaS4RylvPeD8BOB4,1952.949301439216,Indomaret
indomaret gandaria1,4.7,7,-6.2484603,106.7904931,"jl. jatayu no.24, rt.2/rw.3, kramat pela, kota jakarta selatan",ChIJy45QPxLxaS4RZEV6XxuVfK0,2309.1463575688504,Indomaret
indomaret petogogan,4.2,21,-6.2503084,106.7941812,"jl. petogogan no.18, gandaria utara, kebayoran baru, pulo, rt.11/rw.7, rt.11/rw.7, pulo, kota jakarta selatan",ChIJ94ljMXPxaS4RH5R1BnmpJP8,1855.6261881371845,Indomaret
indomaret melawai 6 no. 17,0.0,0,-6.2443244,106.7993621,"jl. melawai 6 no.17, rt.3/rw.1, melawai, kota jakarta selatan",ChIJZXQ3b1nxaS4RBDCbFsM3GfE,1959.1873330638289,Indomaret
indomaret kh ahcmad dahlan. {twxj},4.1,27,-6.2458778,106.7920332,"qq3r+jrr, jalan kh. achmad dahlan, rt.3/rw.1, kramat pela, kota jakarta selatan",ChIJuxnwDxPxaS4R4BeT2kbalvE,2344.5889061982525,Indomaret
indomaret pondok jaya mampang,4.4,111,-6.2494907,106.8214751,"jl. pondok jaya vi no.6, rt.6/rw.6, pela mampang, kota jakarta selatan",ChIJf2NThW7zaS4RXQqG3ssDz7w,1862.958967526608,Indomaret
kemang timur indomaret,4.2,207,-6.2639511,106.8236563,"jl. kemang timur no.38, rt.8/rw.3, bangka, kota jakarta selatan",ChIJQZigUinyaS4R4ofKanmV2lI,1786.1181897134866,Indomaret
indomaret bangka 2b,4.4,293,-6.242254099999999,106.8196646,"jl. bangka ii no.12, rt.5/rw.9, pela mampang, kota jakarta selatan",ChIJR_R8Od_zaS4RTFXXRKEDqVo,2320.809635839888,Indomaret
indomaret kemang utara. tc87,4.4,18,-6.2541381,106.8269373,"jl. kemang utara ix no.1, rt.2/rw.5, duren tiga, kota jakarta selatan",ChIJhxAVNdLzaS4RE36ihgryocM,2172.6617140099747,Indomaret
indomaret melawai,4.4,110,-6.246081800000001,106.7998046,"jl. melawai raya no.17 melawai, kebayoran lama, rt.2/rw.1, melawai, south jakarta city",ChIJq2YU5W7xaS4RKF6o-6Mc-uA,1765.8103964161608,Indomaret
indomaret fave melawai (fm6s),0.0,0,-6.244421399999999,106.8015382,"jl. melawai iv no.3-11, rt.3/rw.1, melawai, kota jakarta selatan",ChIJZ_9u5ZDxaS4RtzyeEc5s00A,1842.784127775965,Indomaret
indomaret fresh,4.6,46,-6.243758199999999,106.8163851,"jl. bangka raya no.23, rw.5, pela mampang, kota jakarta selatan",ChIJOVEJ60XxaS4RhRxK42wBrb8,1992.4656261445373,Indomaret
indomaret panglima polim 106,4.7,29,-6.2476908,106.7976133,"jl. panglima polim no.107, rw.5, b-c, kota jakarta selatan",ChIJI3U5C2XxaS4RdRRpbU-heos,1763.9875544128065,Indomaret
indomaret ciputat raya 2a -b,0.0,0,-6.239546799999999,106.8263501,"jl. kapten tendean no.34, rt.9/rw.2, kuningan bar., kota jakarta selatan",ChIJR3Z58xPzaS4Rv46cCQ_1uvk,3013.364815708845,Indomaret
indomaret mampang 7,4.1,207,-6.248328099999999,106.824029,"jl. mampang prapatan vii no.30, rt.1/rw.3, tegal parang, kota jakarta selatan",ChIJAxkWrNDzaS4RyfXBmyZF8qA,2166.8408781287494,Indomaret
indomaret,4.0,1,-6.2444003,106.7725752,"jl. peninggaran raya no.9, rw.11, kby. lama utara, kota jakarta selatan",ChIJSY442R3xaS4RiKFQ5S2VbxE,2434.0414638096468,Indomaret
indomaret gandaria city,4.4,91,-6.245896699999999,106.78401,"jl. kh. moh. syafi'i hadzami no.45, rt.9/rw.6, kby. lama utara, kota jakarta selatan",ChIJM5u87BDxaS4Rgyv0HFQy6ZY,1492.79941244767,Indomaret
indomaret ciputat raya 1 {ttdq},4.6,7,-6.269582199999999,106.7748789,"jl. ciputat raya no.1 3 11, rt.3/rw.11, pd. pinang, kota jakarta selatan",ChIJY-C-8sPxaS4RnTlXQJ-0AgA,2092.735858986485,Indomaret
indomaret bungur raya2 {fuff},4.0,18,-6.2450426,106.780055,"jalan bunguran, rt.12/rw.2, kby. lama sel., kota jakarta selatan",ChIJ_46xkBrxaS4ReC4bR5CD23A,1801.588005161058,Indomaret
indomaret ciputat raya 2,4.4,22,-6.2463603,106.7796743,"jl. raya ciputat, rt.8/rw.4, kby. lama utara, kota jakarta selatan",ChIJfYz0UxrxaS4RDiV8YKP8J24,1713.7582202326016,Indomaret
indomaret ciputat 18,4.1,69,-6.2638128,106.7750009,"pqpg+f2c, jl. raya ciputat, rt.6/rw.1, pd. pinang, kota jakarta selatan",ChIJQzFdk6vxaS4Ri6I1vWvx4_s,1759.7960336578064,Indomaret
indomaret peninggaran raya,4.2,18,-6.2443344,106.7725693,"jl. peninggaran raya no.9, kby. lama utara, kota jakarta selatan",ChIJmemSdh7xaS4R82TubBojfuI,2439.116492496426,Indomaret
indomaret,4.7,3,-6.265670699999999,106.7753023,"rt.5/rw.2, pd. pinang, kota jakarta selatan",ChIJBXn-SFTxaS4R7R3uiSMUobE,1815.9844336881613,Indomaret
indomaret h. muhi,4.2,70,-6.2666653,106.7706362,"jl. haji muhi raya, rt.10/rw.4, pondok pinang, kebayoran lama, jl. h. muhi raya no.39, rt.10/rw.4, pd. pinang, kota jakarta selatan",ChIJTfxSM1PwaS4RgYyvQDCry1A,2327.884303548746,Indomaret
indomaret cikajang. f4o3,3.8,33,-6.2394178,106.8107532,"1, jl. cikajang no.1, rt.1/rw.5, petogogan, kota jakarta selatan",ChIJC8mjQGfxaS4RkOquMhj4bMM,2087.5987532492345,Indomaret
indomaret kebayoran lama 3,4.5,24,-6.2330232,106.7804064,"jl. raya kby. lama no.227, rt.10/rw.1, grogol sel., kota jakarta selatan",ChIJob7ukyTxaS4RigRph3C5HUU,1918.8146424621948,Indomaret
indomaret dan fotocopi,5.0,1,-6.2393471,106.8107088,"qr66+777, rt.1/rw.5, petogogan, south jakarta city",ChIJeSJcQGfxaS4RjSDS5V3D1ZY,2085.340316205814,Indomaret
indomaret point,3.7,11,-6.2371779,106.7826854,"stasiun kebayoran, jl. mesjid al huda no.1a, rt.3/rw.1, kby. lama utara, kota jakarta selatan",ChIJ1yLGXyDxaS4R85Dgviw7Wro,1423.1950353994082,Indomaret
indomaret simprug,0.0,0,-6.2288581,106.7857419,"jl. rw. simprug iii no.3, rw.9, grogol sel., kota jakarta selatan",ChIJkary8qvxaS4Rxb3W6Gmvnkg,1969.9721003210927,Indomaret
indomaret kebayoran lama 1,4.2,373,-6.2381749,106.7808075,"jl. raya kby. lama no.4, rt.2/rw.1, kby. lama utara, kota jakarta selatan",ChIJodfvliLxaS4RpMCXWAnHq3Q,1532.033285902227,Indomaret
indomaret kebayoran lama 242,4.5,130,-6.231951899999999,106.7803754,"jl. raya kby. lama no.242, rt.11/rw.1, grogol sel., kota jakarta selatan",ChIJM8eV5iTxaS4RwEvXAASHlko,2006.596100679162,Indomaret
indomaret point,4.1,9,-6.236225300000001,106.7826683,"jl. st. no.3, rt.4/rw.1, kby. lama utara, kota jakarta selatan",ChIJEUFZ1DzxaS4RfUdVOuGCFGo,1492.813972576562,Indomaret
indomaret cipulir 1. t2z0,4.2,186,-6.235679999999999,106.7734791,"jl. cipulir i no.4, rt.12/rw.4, cipulir, kota jakarta selatan",ChIJy6BN4CDxaS4RsVFxeRXbZhc,2377.294264508749,Indomaret
indomaret assirot,4.3,156,-6.225558899999999,106.7751594,"jl. assirot no.6a, rt.5/rw.5, grogol sel., kota jakarta selatan",ChIJ8VBSPinxaS4Rsng_u-K88hw,2920.363807582332,Indomaret
kebayoran lama indomaret assirot,4.7,213,-6.2253634,106.7782561,"jl. raya kby. lama no.n 44, rt.7/rw.1, grogol sel., kota jakarta selatan",ChIJeZWj6y7xaS4RkU4hCYZW7ig,2721.8538214195178,Indomaret
indomaret,4.6,23,-6.240787699999999,106.7915935,"jl. tebah ii no.29, rt.13/rw.3, gunung, kota jakarta selatan",ChIJS27Tds_xaS4R_ZcfY1bc7Eo,501.0557361998016,Indomaret
indomaret birah senayan,4.1,168,-6.2353007,106.8152731,"no.13, jl. birah i no.1, rt.5/rw.6, rw. bar., kota jakarta selatan",ChIJkYWOBl_xaS4RmTTy6oeqFXc,1845.897160718749,Indomaret
indomaret guru mughni,4.1,41,-6.2269641,106.8213717,"jalan guru mughni no. c4, karet semanggi, setiabudi, rt.5/rw.2, karet semanggi, rt.5/rw.2, karet semanggi, kota jakarta selatan",ChIJ4T8PLOPzaS4RQDVcYaC-IGg,2953.922898456562,Indomaret
indomaret direktorat jenderal pajak,4.6,7,-6.2255721,106.8163936,"kompleks kantor pusat djp basement 1, jend. gatot subroto kav 40-42, senayan, kebayoran baru, rt.7/rw.1, senayan, kota jakarta selatan",ChIJdfevp1fxaS4RnmGonsjjpmU,2695.308066260825,Indomaret
indomaret wolter mongonsidi,4.4,150,-6.2385571,106.817085,"1, jl. kapten tendean no.125, rt.1/rw.2, rw. bar., kota jakarta selatan",ChIJB9ECK93xaS4R_Mj4ihkqHJI,1847.7541068911207,Indomaret
indomaret point,3.3,3,-6.2331067,106.8230684,"patra jasa, jl. gatot subroto, rt.6/rw.3, kuningan, kuningan tim., kota jakarta selatan",ChIJpbNXVUrzaS4Rt_lHfKPzCKM,1709.043353514723,Indomaret
indomaret itc kuningan,0.0,0,-6.2235581,106.8259947,"jl. prof. dr. satrio no.18, rt.11/rw.4, kuningan, karet kuningan, kota jakarta selatan",ChIJDW3h1JDzaS4R8CQ1sNCxq94,2675.0371777119494,Indomaret
indomaret point mrt istora mandiri,3.7,6,-6.2225424,106.8086237,"istora mrt station, jl. jenderal sudirman, rt.1/rw.3, gelora, central jakarta city",ChIJQc2OjQzxaS4RfqiyqqO_NCw,2173.91014979723,Indomaret
indomaret pedurenan,4.4,99,-6.2222333,106.8261754,"jl. pedurenan masjid iii no.50, rt.8/rw.4, kuningan, karet kuningan, kota jakarta selatan",ChIJjyTKfPnzaS4RmgahJeqJgd8,2801.948336618724,Indomaret
indomaret warung jati,5.0,1,-6.2613007,106.8289744,"jl. warung buncit raya no.25, rt.7/rw.3, kalibata, kota jakarta selatan",ChIJSXpPIvDzaS4RKSuxd1gXm2Q,2964.637813325255,Indomaret
indomaret mampang 8. t5wi,3.9,17,-6.2477205,106.8306366,"jalan mampang prapatan viii, rt.03 / rw.02, tegal parang, mampang prapatan, rt.3/rw.2, tegal parang, kota jakarta selatan",ChIJ_xUj9s_zaS4RuolU_sbnxqY,2318.596214327582,Indomaret
indomaret,4.3,115,-6.2249707,106.807775,"plaza bapindo kav 54-55 no 54-56, jl. jenderal sudirman, rt.5/rw.3, senayan, kota jakarta selatan",ChIJo4N061HxaS4RLUD76ouW53E,1917.529024176783,Indomaret
indomaret,4.0,7,-6.223765999999999,106.826793,"jl. prof. dr. satrio no.63, rt.11/rw.4, kuningan, karet kuningan, kota jakarta selatan",ChIJq-xEWLDzaS4RO4DqvG3IFd0,2715.195344451196,Indomaret
indomaret menara kuningan,5.0,2,-6.2186328,106.8300399,"6, jl. denpasar no.7, rt.6/rw.7, kuningan, karet kuningan, kota jakarta selatan",ChIJX77vnO3zaS4RglK4CERSUh4,2731.0735414840865,Indomaret
indomaret plus,4.0,88,-6.2212663,106.8270455,"jl. karet pedurenan no.68a, rt.9/rw.4, kuningan, karet kuningan, kota jakarta selatan",ChIJFwAAAPnzaS4RSejras5dRMU,2292.218415927747,Indomaret
indomaret patal senayan,4.1,122,-6.2187177,106.7954941,"jl. patal senayan no.5, rw.7, grogol utara, kota jakarta selatan",ChIJPQAAAM32aS4RcEnvkUaMIR4,2822.423689125248,Indomaret
indomaret,3.7,33,-6.2180145,106.7953619,"indomaret, jl. ridwan i no.5, rt.5/rw.7, grogol utara, kota jakarta selatan",ChIJw8ErsUrxaS4RHLDUy4GJLKU,2888.725553934116,Indomaret
indomaret point,4.1,27,-6.2196818,106.8020245,"gelora bung karno sports complex, jl. lkr. gelora no.1, rt.1/rw.3, gelora, central jakarta city",ChIJIfE3F33xaS4RJbkMNxv6FZs,2282.085446275356,Indomaret
indomaret dr satrio 289,4.6,13,-6.2177327,106.8196168,"jalan professor doktor satrio no.289, karet kuningan, setiabudi rt.1/rw.1, kuningan, rt.1/rw.1, kuningan, karet kuningan, south jakarta city",ChIJf1IrAD3zaS4RP2uQZVJc8jY,2228.3344632959024,Indomaret
indomaret,4.3,3,-6.2167127,106.8127242,"qrm7+835, rt.5/rw.2, bendungan hilir, central jakarta city",ChIJTQh2UKv2aS4RKQet6SZxwrg,2234.906277814773,Indomaret
indomaret tegal parang 2. ts86,3.9,33,-6.2441983,106.8324248,"jl. tegal parang utara no.35, rt.7/rw.4, mampang prpt., kota jakarta selatan",ChIJF1D19sTzaS4Rw9CnBydlgJM,2256.773823981081,Indomaret
indomaret tegal parang. t986,4.1,9,-6.2464648,106.8322217,"qr3j+cw7, jl. tegal parang, rt.7/rw.5, tegal parang, kota jakarta selatan",ChIJezNcc8XzaS4RsQx_12LcMCA,2340.3695360753336,Indomaret
indomaret plaza festival,3.4,10,-6.2212209,106.8328964,"qrhm+g56, rt.2/rw.5, karet kuningan, south jakarta city",ChIJMUTCa23zaS4RHTh8p6ntkmM,2763.912984391164,Indomaret
indomaret bek murad fz7m,4.2,36,-6.216343999999999,106.8201923,"jl. bek murad no.36, rw.1, kuningan, karet kuningan, kota jakarta selatan",ChIJCzDmJsD1aS4RcZY18yQacU8,2878.029879795257,Indomaret
indomaret karbela,4.0,35,-6.216086199999999,106.8232321,"jl. flamboyan no.1, rt.9/rw.3, kuningan, karet, kota jakarta selatan",ChIJQ7XctwD0aS4RfpVYI5dO7Tk,3129.1725219283167,Indomaret
indomaret setiabudi 17 ttap,4.7,9,-6.2104472,106.8230337,"jl. setiabudi raya no.17, rt.2/rw.2, kuningan, karet kuningan, kota jakarta selatan",ChIJT8CQPFb1aS4RK8qucus35Ww,2277.5411076618866,Indomaret
indomaret the peak - tapq,0.0,0,-6.2105197,106.8242588,"qrqf+rj4, the peak jalan setiabudi raya, rt.2/rw.2, kuningan, setia budi, kota jakarta selatan",ChIJ_1BcKv_1aS4Rlooh3g26uJc,2356.449865860231,Indomaret
indomaret kemandoran,4.2,302,-6.2134016,106.7907194,"jl. kemandoran i, rt.5/rw.16, grogol utara, kota jakarta selatan",ChIJNRM7bsn2aS4R8hvF8YZwxCM,2634.7599139496665,Indomaret
indomaret (tokx),0.0,0,-6.206626099999999,106.8267823,"jl. setia budi viii no.10, rt.2/rw.3, kuningan, setia budi, kota jakarta selatan",ChIJq1gLE__1aS4RWeHN-mgTXGM,2867.835992460133,Indomaret
indomaret point stasiun palmerah,2.3,3,-6.2076075,106.7974452,"qqrw+xx4, rt.1/rw.3, gelora, central jakarta city",ChIJzzu5us73aS4ROHqUfE6SxYY,2562.5180745876914,Indomaret
indomaret dinas pariwisata (ttpb) kpdp koperasi dinas pariwisata,5.0,1,-6.2350141,106.821856,"jl. kuningan barat raya, rt.6/rw.1, kuningan bar., kota jakarta selatan",ChIJCaIfAS3zaS4RU05zKohxCf0,0.0,Indomaret
indomaret panjang cidodol 2 (tg26),3.8,8,-6.227386999999999,106.772065,"qqfc+2rv, jl. panjang cidodol, rt.14/rw.6, grogol sel., kota jakarta selatan",ChIJK5X2RyjxaS4RyPDN-Qxm35w,0.0,Indomaret
indomaret,5.0,1,-6.2321661,106.769049,"jl. h. husin no.7, rt.7/rw.13, grogol sel., kota jakarta selatan",ChIJ7wOa9NjwaS4RlE5wVtVplPI,0.0,Indomaret
indomaret panjang cidodol 3,4.4,14,-6.2321222,106.769101,"jl. masjid cidodol rt. 009 / rw. 012 no: 65a, rt.7/rw.9, south grogol, south jakarta city",ChIJGwAAADvxaS4RE8wz9nSvxB4,0.0,Indomaret
indomaret point tlt,5.0,1,-6.230163699999999,106.8183432,"jl. gatot subroto no.kav 52, rt.6/rw.1, kuningan bar., kota jakarta selatan",ChIJ4RbvS9PzaS4R6hZNBfVLPa4,0.0,Indomaret
indomaret,3.6,10,-6.2627434,106.830664,"jl. warung buncit raya no.1 a, rt.5/rw.3, kalibata, kota jakarta selatan",ChIJ420LHDLyaS4RhHEuu5hwBX8,0.0,Indomaret
indomaret cipaku 1 no. 33,0.0,0,-6.239303899999999,106.8121988,"jl. cipaku i no.2, rw.4, petogogan, kota jakarta selatan",ChIJXxPvJBLxaS4RtgUwzQoQGtQ,0.0,Indomaret
indomaret convenience store point,4.0,25,-6.2048824,106.8226389,"wisma indosemen lantai gf/annex kav. 70-71, jl. jenderal sudirman, rt.3/rw.3, kuningan, setia budi, kota jakarta selatan",ChIJJ5m3hBz0aS4RBJ9_gwBC4gk,0.0,Indomaret
indomaret plus,0.0,0,-6.208247399999999,106.8327765,"qrrm+p42, rt.8/rw.2, guntur, south jakarta city",ChIJZU13Dof1aS4RXIGm2TLCTWY,0.0,Indomaret
indomaret menara imperium (t7xu),4.6,15,-6.2101278,106.8312488,"menara imperium, jl. h. r. rasuna said no.1, rt.1/rw.6, guntur, kota jakarta selatan",ChIJHYztEg_0aS4RoD35swJ40H4,0.0,Indomaret
indomaret point stasiun mrt dukuh atas,5.0,1,-6.201634599999999,106.822607,"qrxf+82w, taman dukuh atas jl. jenderal sudirman, rt.10/rw.20, kebon melati, central jakarta city",ChIJ_ZiOif71aS4RT1bOaYGVvB8,0.0,Indomaret
indomaret anggrek petukangan,4.0,10,-6.231106,106.7557339,"jl. anggrek, rt.7/rw.5, petukangan utara, kota jakarta selatan",ChIJz6qqqsnwaS4R5k7p_0d1KX8,2074.0400752256623,Indomaret
indomaret saidi raya,4.2,13,-6.241212699999999,106.7563251,"jl. m.saidi raya no: 62 rt. 009 / rw. 01, petukangan selatan, pasanggrahan, rt.7/rw.5, petukangan sel., kota jakarta selatan",ChIJe35tSOjwaS4R6QeisbhjlkM,1970.45328856986,Indomaret
indomaret jalan masjid cidodol,4.3,46,-6.2321668,106.769016,"jl. masjid cidodol no.55-58, rt.7/rw.12, grogol sel., kota jakarta selatan",ChIJJUPMjNjwaS4RdFqvhCYBXTs,723.812793293871,Indomaret
indomaret pesanggrahan bintaro,3.6,14,-6.250045900000001,106.7566562,"jl. garuda no.27, rt.5/rw.6, pesanggrahan, kota jakarta selatan",ChIJD9RtOvDwaS4RhDJlnkZFfoE,2380.8574777223894,Indomaret
indomaret swadarma 2 {tc5e},4.0,98,-6.236108,106.7608682,"jl. swadarma raya blok haji nuh 1 no.9, rt.10/rw.3, ulujami, kota jakarta selatan",ChIJl0Lx7NzwaS4RvKVM6oOutyw,1409.008715375369,Indomaret
indomaret damai pesanggrahan,4.2,9,-6.242483699999999,106.7558974,"jl. damai no:71 rt 005/ rw 005, petukangan selatan, pasanggrahan, rt.7/rw.5, south petukangan, south jakarta city",ChIJcwAAAOnwaS4RyejTwt6YERQ,2055.1025021148416,Indomaret
indomaret ciledug raya 2,4.3,9,-6.238261,106.7717106,"jl. seskoal no.11, rt.8/rw.11, cipulir, kota jakarta selatan",ChIJ6aVHOCDxaS4R6MCZegYiQ0Q,262.7952947676403,Indomaret
indomaret swadarma 3,5.0,4,-6.233315999999999,106.7605835,"jl. swadarma raya no 26 rt 001 rw 008, rt.11/rw.5, ulujami, south jakarta city",ChIJ4___P-fwaS4R-yxrxTiWMmQ,1490.0976926654807,Indomaret
indomaret kebayoran lama 2 {thc1},3.7,23,-6.218096999999999,106.778701,"jl. raya kby. lama no.27, rt.5/rw.1, grogol utara, kota jakarta selatan",ChIJf6MZFinxaS4RyCeGToSenpA,2157.0561185337333,Indomaret
indomaret saidi raya 2. tckr,4.3,121,-6.2451289,106.7569883,"no., jl. m. saidi raya no.54, rt.1/rw.5, petukangan sel., kota jakarta selatan",ChIJAZgxPO_waS4RSgVSHG9MFBc,2055.0376893280645,Indomaret
indomaret ciledug raya. trl0,4.3,256,-6.2364187,106.7579387,"jl. ciledug raya no.51, rt.6/rw.4, petukangan utara, kota jakarta selatan",ChIJCfldOcPwaS4RtrLi0yMazkU,1731.175595899882,Indomaret
indomaret ulujami,3.9,89,-6.2410821,106.7629435,"jl. ulujami raya no.11, rt.11/rw.5, ulujami, kota jakarta selatan",ChIJ4___P-fwaS4Ra-rEZZq9-CM,1269.1836761212085,Indomaret
indomaret al mubarok 1,4.6,80,-6.239336199999999,106.7710655,"jl. al mubarok 1 no.14, rt.8/rw.6, cipulir, kota jakarta selatan",ChIJuVSpxN_waS4Rm819BJDCdw0,395.5496299101149,Indomaret
indomaret,5.0,3,-6.2375076,106.7638955,"jl. ciledug raya no.59, rt.1/rw.3, ulujami, kota jakarta selatan",ChIJSaRPzt3waS4R3DqqT8nucVY,1074.8752359988987,Indomaret
indomaret kostrad pusri,4.8,17,-6.2337088,106.7574351,"jl. kostrad pusri (sp.mitra diskon) no. 2a, petukangan utara, pasanggrahan, rt.2/rw.11, north petukangan, south jakarta city",ChIJz6qqqsnwaS4RAC370aGrhq4,1819.463438934865,Indomaret
indomaret pesanggrahan bintaro (tp12),4.1,20,-6.254884199999999,106.7566629,"jalan uluhjami, rt.12/rw.6, pesanggrahan, rt.12/rw.6, pesanggrahan, rt.12/rw.6, pesanggrahan, kota jakarta selatan",ChIJex_w2-_waS4R6VXC2vkXSFA,2745.455620935215,Indomaret
indomaret swadarma 1. texu,4.5,60,-6.228395799999999,106.7606678,"qqc6+j7v, jl. swadarma raya, rt.1/rw.2, ulujami, kota jakarta selatan",ChIJOwckatDwaS4RpIzxDLhO1EM,1708.609262679022,Indomaret
indomaret ulujami 2,4.3,106,-6.2475986,106.7632979,"jl. ulujami raya jl. h. buang no.gg, rt.1/rw.7, ulujami, kota jakarta selatan",ChIJ4___P-fwaS4RZ-EO8PKFun8,1652.8651573079449,Indomaret
indomaret pesanggrahan permai,3.9,15,-6.237529299999999,106.7545527,"jl. pesanggrahan iv, rt.1/rw.7, petukangan sel., kota jakarta selatan",ChIJz6qqqsnwaS4RxD9ldK9oKKo,2106.353595343525,Indomaret
indomaret palem raya. fgul,4.4,97,-6.2262773,106.7574534,"jl. palem raya no.3, petukangan utara, kota jakarta selatan",ChIJH36UOM7waS4RPJe-iO0msh0,2134.916163410666,Indomaret
"indomaret, taman alfa indah. t039",4.4,163,-6.2241206,106.7548738,"jl. taman alfa indah blok k. 1 no.46-47, rt.10/rw.7, petukangan utara, kota jakarta selatan",ChIJe6ZjJMzwaS4RkAqiCOaJD-E,2505.2969134909818,Indomaret
indomaret kemandoran 8,3.8,35,-6.2131316,106.7865443,"jl. kemandoran viii no.5, rw.11, grogol utara, kota jakarta selatan",ChIJT8mnns72aS4RPfUpbeXysQo,2019.547156040976,Indomaret
indomaret palmerah barat 3,4.0,11,-6.207027699999999,106.7847179,"jl. palmerah barat no.3, rt.4/rw.no: 36, grogol utara, kota jakarta selatan",ChIJXX3NcsX2aS4RkMJNDkES6m0,999.8574380453337,Indomaret
indomaret palmerah (pertamina 34.122.05),0.0,0,-6.2083321,106.7882096,"jl. palmerah barat no.35, rt.1/rw.3, grogol utara, kota jakarta selatan",ChIJd51xpy33aS4Rtb1xjVOSXzI,907.1685691877336,Indomaret
indomaret bintaro graha,4.3,18,-6.2573003,106.7640903,"jl. bintaro permai, rt.2/rw.9, bintaro, kota jakarta selatan",ChIJt____1DwaS4RKkfX8UBEtdo,1702.737958073102,Indomaret
indomaret kesehatan bintar,5.0,2,-6.267895800000001,106.7617975,"jl. kesehatan raya no.12, rt.10/rw.6, 11, bintaro, kota jakarta selatan",ChIJt____1DwaS4RX_eDTTWVP_k,2296.314251930792,Indomaret
indomaret bintaro mulia.,2.0,2,-6.2609562,106.7672112,"jl. rc. veteran raya no.2, rt.10/rw.10, bintaro, kota jakarta selatan",ChIJcQydolXwaS4RhUhvgR38H7M,1424.4760928695043,Indomaret
indomaret rc veteran,4.4,223,-6.2645803,106.7664311,"jl. rc. veteran raya jl. dahlia no.42e, rt.9/rw.3, bintaro, kota jakarta selatan",ChIJUfoIE1TwaS4RtWJPNqpLxvY,1667.5538733220703,Indomaret
indomaret depsos raya,4.3,294,-6.2635979,106.7636982,"jl. depsos raya no.4, rw.1, bintaro, kota jakarta selatan",ChIJfdJDkFbwaS4RzRPhnmq9ySw,1890.478322438036,Indomaret
indomaret kodam bintaro,4.4,82,-6.2590333,106.7597615,"pqr5+9wp, jl. bintaro permai, rt.4/rw.3, pesanggrahan, kota jakarta selatan",ChIJs2ElFvjwaS4RxGz06AXOrTg,2191.8501212300903,Indomaret
indomaret veteran 42,4.4,11,-6.264296,106.7661822,"jl. rc. veteran raya no.42, rt.3/rw.1, bintaro, kota jakarta selatan",ChIJo_xXbVTwaS4RzpuiYgv408Y,1676.0619034495423,Indomaret
rc indomaret veteran 2. f70u,4.2,19,-6.2763063,106.7624003,"pqf6+fxg, jl. rc. veteran raya, rt.3/rw.11, bintaro, kota jakarta selatan",ChIJEUakJUnwaS4R5nVu-_yApX4,2853.339902417999,Indomaret
indomaret rc veteran 13,4.4,8,-6.2576627,106.7683716,"4 no.10, rt.4/rw.10, bintaro, kota jakarta selatan",ChIJhw7nnzDxaS4RVsy9lGn0S7U,1711.6720939756422,Indomaret
indomaret spbu bintaro,4.6,48,-6.261597099999999,106.7569951,"pqq4+8rr, unnamed road, rt.6/rw.3, pesanggrahan, kota jakarta selatan",ChIJEf3pk_rxaS4R4b0T-ousRiQ,0.0,Indomaret
indomaret damai pesanggrahan,4.4,102,-6.2487206,106.754172,"jl. damai raya no.5, rt.5/rw.5, petukangan sel., kota jakarta selatan",ChIJL-ueae7waS4RrdvbPbIBUlw,0.0,Indomaret
indomaret (bintaro utama),4.9,8,-6.2710224,106.7578861,"jl. taman bintaro no.194, rt.8/rw.11, bintaro, kota jakarta selatan",ChIJtXtyLz_xaS4RNegL6qVJ54I,0.0,Indomaret
indomaret puspita raya,4.5,124,-6.263565799999999,106.7568792,"jl. bintaro puspita raya no.9, rt.9/rw.2, pesanggrahan, kota jakarta selatan",ChIJN6SvsVnwaS4R7Dvnqx_sr4M,0.0,Indomaret
indomaret warung jati,4.1,127,-6.2694594,106.8377558,"jl. siaga raya no.7b, rt.12/rw.4, pejaten bar., kota jakarta selatan",ChIJCQpntznyaS4R5HJ1zQCwkB4,2106.305698127081,Indomaret
indomaret pancoran barat 7 tfpc,4.8,8,-6.251975799999999,106.8368081,"jl. pancoran barat vii no.9a, rt.8/rw.1, duren tiga, kota jakarta selatan",ChIJEYrs5dDzaS4RJRZWtIRczmM,2026.5502682724327,Indomaret
indomaret pancoran 7,4.1,31,-6.2497874,106.8365148,"jl. pancoran barat vii, rt. 013 / rw. 006, pancoran, mampang prapatan, rt.12/rw.6, pancoran, kota jakarta selatan",ChIJY3w000zyaS4RJpAudy3L5V4,2128.8443513292523,Indomaret
indomaret warga siaga,4.5,20,-6.272292699999999,106.8391874,"jl. warga baru no.4b 17, rt.17/rw.3, pejaten bar., kota jakarta selatan",ChIJITbO1jjyaS4RS5lw3N7iBVM,2399.659714543712,Indomaret
indomaret pancoran barat 34,0.0,0,-6.251983999999999,106.8367253,"jl. pancoran barat vii no.34, rt.8/rw.6, duren tiga, kota jakarta selatan",ChIJncPt8wXzaS4RDxKhwvnyVpg,2018.1130394746456,Indomaret
indomaret h.maun,4.2,84,-6.258863799999999,106.8375135,"prrq+c2r, jl. duren tiga selatan, rt.8/rw.2, kalibata, kota jakarta selatan",ChIJI0tOwjTyaS4RLO_bH3X27As,1861.752343809516,Indomaret
indomaret buncit warung jati. {t8nd},4.4,206,-6.262678699999999,106.8306876,"jl. kalibata tengah xvi no.1, rt.5/rw.9, kalibata, kota jakarta selatan",ChIJcTAiHDLyaS4R0aVLrIbKjmg,1113.2437433252371,Indomaret
indomaret duren tiga raya. tuoi,4.0,27,-6.2534709,106.8404797,"jalan duren tiga barat no.32, rt.1/rw.1, duren tiga, pancoran, rt.1/rw.1, pancoran, kota jakarta selatan",ChIJkzb3EMrzaS4RXv7xWnaXfb8,2325.695836022764,Indomaret
indomaret,4.6,19,-6.2614906,106.840841,"jl. kalibata tengah no.1a, rt.5/rw.7, kalibata, kota jakarta selatan",ChIJyTF07TXyaS4RYebkKF7u42o,2217.735785476014,Indomaret
indomaret wisma staco,5.0,2,-6.2246197,106.8401752,"wisma staco, jl. raya casablanca no.4, rt.4/rw.12, menteng dalam, kota jakarta selatan",ChIJTYdPFlzzaS4R4JoaMHSAiPY,2380.953463485788,Indomaret
indomaret plus rasamala,4.1,61,-6.2336278,106.8395619,"jl. rasamala raya no.26, rt.7/rw.9, menteng dalam, kota jakarta selatan",ChIJtaqqauvzaS4RnSCep_ghRMM,1938.92012936344,Indomaret
indomaret soepomo,4.1,16,-6.2325019,106.8444327,"qr9v+2q4, jalan dr. soepomo, rt.1/rw.3, menteng dalam, kota jakarta selatan",ChIJw4Qe95TzaS4R4TukR0p9hZk,2205.5995982839463,Indomaret
indomaret pasar minggu 15b (ffdq),4.5,8,-6.2607737,106.8428871,"jl. raya pasar minggu no.15 a, rt.1/rw.7, kalibata, kota jakarta selatan",ChIJv6HpCt3zaS4R6xwdQSocB24,2476.76988058568,Indomaret
indomaret supomo 2,3.9,40,-6.239277899999999,106.8456902,"jl. prof. dr. soepomo no.02, rt.14/rw.6, tebet bar., kota jakarta selatan",ChIJXRviXL7zaS4RE8cUq9rXJQc,2006.89404121878,Indomaret
indomaret - spbu pancoran tjrt,3.1,10,-6.246947,106.8424352,"qr3r+6x7, rt.1/rw.4, pancoran, south jakarta city",ChIJpzdhkdPzaS4R8PAP1nFVLYE,1611.6878566754394,Indomaret
indomaret casablanca,3.7,22,-6.2250076,106.8428196,"jalan casablanca, rt. 07 / rw. 11, menteng dalam, tebet, rt.7/rw.11, menteng dalam, kota jakarta selatan",ChIJVaFRO43zaS4R9wZv9oxkGeI,2660.362024391376,Indomaret
indomaret tebet barat in tk29,4.2,149,-6.2383462,106.847226,"jl. tebet barat dalam ivd no.88, rw.6, tebet bar., kota jakarta selatan",ChIJ7ahV373zaS4Rm9rs7VrGTVg,2198.5056258264326,Indomaret
indomaret pal batu 36,4.3,70,-6.2247397,106.8447512,"jl. pal batu raya no.36, rt.13/rw.4, menteng dalam, kota jakarta selatan",ChIJtX8wqY3zaS4RTpmMPQzAFbg,2818.081412247065,Indomaret
indomaret,4.2,421,-6.229205299999999,106.8474494,"jl. prof supomo no 321 blok bz persil no 19, rt.13/rw.2, tebet barat, rt.13/rw.2, tebet bar., kota jakarta selatan",ChIJxf__P5bzaS4RZ7KfkYohoDc,2691.789401713485,Indomaret
indomaret apartemen kemang village,0.0,0,-6.2604624,106.812808,"jl. metro no.8b, rt.9/rw.14, papanggo, kota jkt utara",ChIJWXksB5_1aS4RlMiiTQ4dm-I,2116.125476947288,Indomaret
indomaret al barkah,4.6,18,-6.2204901,106.8472328,"jl. albarkah no.20, rt.7/rw.3, manggarai sel., kota jakarta selatan",ChIJk___P4nzaS4RKHnkXKOuy64,0.0,Indomaret
indomaret apartemen casablanca,1.0,1,-6.2232986,106.8453453,"jl. raya casablanca no.14, rw.5, menteng dalam, kota jakarta selatan",ChIJV4P3VhjzaS4RnuDMhqW9W2w,0.0,Indomaret
indomaret tebet raya,4.3,37,-6.230342299999999,106.8514366,"jl. tebet raya no.30 a, rt.2/rw.2, tebet bar., kota jakarta selatan",ChIJV7cl6pDzaS4RnpIsEEg4Wik,0.0,Indomaret
indomaret casablanca mansion fl12,4.0,4,-6.223185200000001,106.8461687,"qrgw+qf6, apartemen casablanca mansion jalan casablanca setia budi, rt.14/rw.5, menteng dalam, kota jakarta selatan",ChIJuRjcO4zzaS4RUa5WFynptng,0.0,Indomaret
indomaret tebet,4.7,26,-6.2242003,106.8525338,"jl. kh abdullah syafei no.2, rt.12/rw.5, bukit duri, kota jakarta selatan",ChIJndinnI_zaS4RsBdPM7-_7mo,0.0,Indomaret
indomaret tebet barat raya,4.4,15,-6.2383118,106.850335,"jl. tebet barat ix no.20, rt.5/rw.4, tebet bar., kota jakarta selatan",ChIJBxrDu73zaS4R_jKixhfyWEE,851.0569112947409,Indomaret
indomaret pengadegan timur,4.3,57,-6.248453899999999,106.8587205,"jl. pengadegan timur raya no.2, rt.3/rw.2, pengadegan, kota jakarta selatan",ChIJqUxFMa_zaS4Rb6WsdUlLWrQ,646.4027486341624,Indomaret
indomaret of pengadegan,3.9,65,-6.2516495,106.849876,"jl. pengadegan selatan viii no.5b, rt.9/rw.5, pengadegan, kota jakarta selatan",ChIJPRf2ebHzaS4R2AqgbPWyqrI,861.9255744129749,Indomaret
indomaret stasiun tebet,0.0,0,-6.227752,106.8563415,"dalam 3, 4, jl. tebet raya no.69, rt.4/rw.1, tebet tim., kota jakarta selatan",ChIJfS5DnODzaS4RByux-xL7Cy4,1941.7872263936824,Indomaret
indomaret - tower damar,4.2,10,-6.257493999999999,106.8528125,"pvr3+x4w, rt.9/rw.4, rawajati, south jakarta city",ChIJn9W6dvPzaS4R-cPh4bkgO1g,1389.0300126397472,Indomaret
indomaret pangadegan utara,4.4,142,-6.2459671,106.8555993,"no., jl. pengadegan utara no.12a, rt.6/rw.7, cikoko, kota jakarta selatan",ChIJrevYYKXzaS4RywexQtwJGqY,206.0966108390272,Indomaret
indomaret asem baris,4.1,23,-6.2389963,106.8602569,"jl. asem baris raya no.1, rt.6/rw.13, kb. baru, kota jakarta selatan",ChIJuZeA4KHzaS4RO8kOMnZzjnw,967.4904881668384,Indomaret
indomaret tebet timur dalam raya,4.4,11,-6.236383699999999,106.8568272,"jl. tebet timur dalam raya no.29, rt.11/rw.7, tebet tim., kota jakarta selatan",ChIJzddog5jzaS4RM7Gl9dS3Gbs,1014.5007095944492,Indomaret
indomaret,0.0,0,-6.2577016,106.8535744,"tower kalibata cendana, rawajati, kota jakarta selatan",ChIJV9gKwXvzaS4RKk1asM_cBr8,1406.8501998343131,Indomaret
indomaret tower 1,0.0,0,-6.2514995,106.861901,"pvx6+cq3, jl. pengadegan timur i, rt.7/rw.1, pengadegan, kota jakarta selatan",ChIJGYiD7b_zaS4RVrXT4JRudmo,1131.7213808964052,Indomaret
indomaret tower rafles,0.0,0,-6.2572773,106.850916,"tower rafles t4vn, kalibata city, apt",ChIJXYGF0a_zaS4RaVDjPs-LMYk,1400.4217134444457,Indomaret
indomaret of rawajati,4.1,10,-6.2628099,106.8520926,"pvp2+vrh, jl. rawajati timur, rt.7/rw.6, rawajati, kota jakarta selatan",ChIJPRc3DE7yaS4Rlzq8SQ7YEfE,1985.111090089348,Indomaret
indomaret,0.0,0,-6.2299609,106.8664826,"qvc8+2h9, rw.1, kampung melayu, east jakarta city",ChIJZbxsMgvzaS4ROsamm2cDWG0,2174.516408025649,Indomaret
indomaret,0.0,0,-6.2467067,106.8549365,"rw.7, pengadegan, kota jakarta selatan",ChIJZ0DyfMnzaS4RJ9jFt8abwmQ,212.0790973218116,Indomaret
indomaret of kalibata city,4.1,14,-6.256166,106.8533404,"apartemen kalibata city, tower gaharu, at 01-02, jalan kalibata raya, rawajati, pancoran, rt.9/rw.4, rawajati, kota jakarta selatan",ChIJeYYMX63zaS4RoKELlWfnU9Q,1237.3937496690285,Indomaret
indomaret tower cendana,4.8,5,-6.2584634,106.8533232,"jl. rawajati barat no.8, rw.4, rawajati, kota jakarta selatan",ChIJv2LFq1LyaS4RTp3YYUId3jg,1492.6026931083177,Indomaret
indomaret mt haryono,4.3,3,-6.2422974,106.8551682,"menara mt. haryono, jl. mt. haryono kav 23, rt.12/rw.5, tebet timur, tebet, rt.10/rw.9, tebet tim., kota jakarta selatan",ChIJHQAAwJnzaS4RX1MjemHCBZM,333.8447164727225,Indomaret
indomaret tower 3,0.0,0,-6.2523677,106.8615916,"apartemen pancoran riverside tower 3, jl, jl. pengadegan timur i no.30, rt.6/rw.1, pengadegan, south jakarta city",ChIJV7ZuexPzaS4Raja2xYYiJ_I,1170.3442402787316,Indomaret
indomaret apartemen pancoran riverside ftnt,4.4,16,-6.251923499999999,106.8616752,"jl. pengadegan timur i no.30, rt.6/rw.1, pengadegan, kota jakarta selatan",ChIJT9K7ZKnzaS4RYVbkqs38TuU,1143.447335877437,Indomaret
indomaret asembaris 2. tc71,3.8,10,-6.2292648,106.8590207,"jalan asem baris, rt.5/rw.5, kebon baru, tebet, rt.5/rw.5, kb. baru, kota jakarta selatan",ChIJ95g2h5vzaS4R0qUPfUiXjys,1842.3091421436768,Indomaret
indomaret,4.2,5,-6.2563574,106.8502356,"apartemen kalibata city green palace tower tulip, no 1, selatan rt.9/rw.4, jl. raya kalibata, rt.9/rw.4, rawajati, south jakarta city",ChIJkUGyILPzaS4RS2iZ8BGqPkc,1322.9349484769095,Indomaret
indomaret lapangan tembak 3,4.0,1,-6.2402503,106.8557039,"jl. lapangan tembak no. 08 rt. 02 rw. 10, rt.1/rw.8, east tebet, south jakarta city",ChIJE3_-BaPzaS4Rs0YHJv9N4H0,567.4675112460595,Indomaret
indomaret tower 2,0.0,0,-6.2516153,106.861321,"pvx6+9g, pengadegan, south jakarta city",ChIJuzWu8LvzaS4Ra3ud2A7lDHo,1091.4201032966887,Indomaret
indomaret signature park,4.3,3,-6.242484,106.854727,"mt haryono st no.10, rw.9, east tebet, south jakarta city",ChIJ71RBBiPzaS4RzLWpLbPWU80,297.78553880194863,Indomaret
indomaret point stasiun kalibata,4.4,27,-6.255365599999999,106.8549931,"pvv3+vx5, jl. rawajati bar., rt.6/rw.7, rawajati, kota jakarta selatan",ChIJzXZzEq3zaS4REp5urTglWeE,1151.901656765819,Indomaret
indomaret abdullah syafei 45c,4.7,6,-6.2258963,106.8575556,"jalan kh. abdullah syafei no.45 1 2, rt.4/rw.1, manggarai sel., kota jakarta selatan",ChIJ63NDeWPzaS4RHVCnhEWtXTU,2166.88068533246,Indomaret
indomaret convenience store,4.3,73,-6.2258324,106.858882,"jl. bukit duri tanjakan no. 1 rt 12/ rw 02 rt.3, rt.1/rw.9, bukit duri, kota jakarta selatan",ChIJy6qqaoTzaS4RC_J-x2TbxZU,2205.273216697221,Indomaret
indomaret abdulah syafei - kp. melayu,0.0,0,-6.224908399999999,106.866034,"qvg8+2cv, rt.2/rw.1, bidara cina, east jakarta city",ChIJZ32HrG3zaS4RDEdM-8JgtKs,2606.819792137276,Indomaret
indomaret kampung melayu besar,4.2,9,-6.2252467,106.8628154,"jl. kampung melayu besar no.18 rt. 10 / rw. 02, kebon baru, tebet, rt.1/rw.1, kb. baru, kota jakarta selatan",ChIJD391JYPzaS4RQJHI5zLfWfg,2409.6746070522254,Indomaret
indomaret plus tebet timur dalam,4.5,255,-6.2403194,106.8557598,"jl. tebet timur raya no.29, rt.1/rw.8, tebet tim., kota jakarta selatan",ChIJWRooDKPzaS4R-oR5GrizSpE,562.3752121123797,Indomaret
indomaret angsana,4.4,28,-6.2720279,106.8486037,"jl. angsana raya no.11, rt.10/rw.4, pejaten tim., kota jakarta selatan",ChIJJYdxEkTyaS4RUCWdYxW7wqA,2564.657680663097,Indomaret
indomaret kalibata utara,4.5,101,-6.2604007,106.837657,"jl. kalibata utara ii no.37, rt.7/rw.7, kalibata, kota jakarta selatan",ChIJiXNZXIjzaS4RjQ-7sFoVCPU,794.1788814805664,Indomaret
indomaret pasar minggu,4.1,77,-6.2804467,106.844865,"jl. raya pasar minggu no.8, rt.6/rw.1, ps. minggu, kota jakarta selatan",ChIJz_____DtaS4R2Q5FIFxTxv8,2010.2006754895144,Indomaret
indomaret,4.6,81,-6.275748999999999,106.8414378,"jl. pejaten raya no.1b, rt.7, pejaten bar., kota jakarta selatan",ChIJ63ebeEDyaS4RkvBsuy-1j3o,1380.3751860408777,Indomaret
indomaret ottista raya,0.0,0,-6.2414339,106.8692125,"qv59+cmg, rt.1/rw.7, bidara cina, east jakarta city",ChIJT51ruQvzaS4R6URisPO0Esg,2479.4289524934625,Indomaret
indomaret basuki rahmat 10,4.8,9,-6.225012299999999,106.8686902,"qvf9+xfw, rt.13/rw.1, bali mester, east jakarta city",ChIJseq4IvvzaS4RkFLeN9IEZOk,0.0,Indomaret
indomaret gudang peluru,4.8,13,-6.2255444,106.8622325,"jl. gudang peluru raya no.b1, rt.1/rw.1, kebon baru, south jakarta city",ChIJM_MGcAHzaS4RaWCJ-tf_NBA,0.0,Indomaret
indomaret,5.0,1,-6.2256068,106.8622342,"qvf6+qv5, rt.12/rw.9, bukit duri, south jakarta city",ChIJn03pAwTzaS4R0bJEXJlngZc,0.0,Indomaret
indomaret kp melayu jembatan,4.3,8,-6.2261166,106.8638063,"jl. kp. melayu besar 1 no.225, rt.3/rw.1, kb. baru, kota jakarta selatan",ChIJZ4s-S53zaS4Rqs7o2XJV4Lc,0.0,Indomaret
indomaret bukit duri tanjakan 106,0.0,0,-6.224636500000001,106.8590463,"3, jl. ismail no.13-18, rt.3/rw.9, bukit duri, kota jakarta selatan",ChIJ18ZbnBjzaS4RX9R3AMc2iP0,0.0,Indomaret
indomaret,5.0,1,-6.2258532,106.8588152,"blok a, jl. gudang peluru barat, jl. kh. abd. syafei'i no.17, rt.4/rw.3, kb. baru, kota jakarta selatan",ChIJq-_X7gzzaS4RvoAmsWNp4Qk,0.0,Indomaret
indomaret hybrid pejaten raya,4.3,256,-6.279562299999999,106.8367311,"jl. pejaten raya no.42, rt.8/rw.10, jati padang, kota jakarta selatan",ChIJL-7KwRXyaS4R1KfdS1lXbjA,0.0,Indomaret
indomaret simatupang 52,5.0,1,-6.3041554,106.8438925,"jl. tb simatupang no.52, rt.8/rw.4, tj. bar., kota jakarta selatan",ChIJZYivLIntaS4RYRVV5fqSKRw,2372.521878658032,Indomaret
indomaret,3.5,51,-6.285409400000001,106.8379601,"jl. raya ragunan no.9, rw.10, ps. minggu, kota jakarta selatan",ChIJmwb3rhPyaS4R_23xpv2E254,597.6881268341649,Indomaret
indomaret rm harsono no.1,0.0,0,-6.301390500000001,106.8214132,"mrxc+chv, rw.7, ragunan, south jakarta city",ChIJKzbH_nbtaS4RPC_zVyqnB5g,2108.8426219148546,Indomaret
indomaret kebagusan raya,4.5,400,-6.303428299999999,106.8267375,"mrwg+jpj, rt.8/rw.7, kebagusan, south jakarta city",ChIJbbdFCvntaS4RhngjQ_Gl0v0,2041.0783602369484,Indomaret
indomaret salihara no 10a. t2li,0.0,0,-6.284196499999999,106.8380562,"jl. salihara no.13, rw.1, ps. minggu, kota jakarta selatan",ChIJWdIwMBPzaS4RLbHyiDEEYZ4,637.4908121027324,Indomaret
indomaret bu bagus,4.8,12,-6.3064437,106.8305633,"jl. kebagusan ii no.33, rt.1/rw.6, kebagusan, kota jakarta selatan",ChIJ9V6Ft6vtaS4RcOu1gslzJIQ,614.9051454151385,Indomaret
indomaret,4.3,38,-6.284986,106.8552496,"pv84+235, rt.2/rw.3, bale kambang, east jakarta city",ChIJ00ufpmXyaS4RwCJSKBgZeBE,2456.266342180882,Indomaret
indomaret rawajati timur ii,4.4,171,-6.2599244,106.8548204,"jl. rawajati timur ii no.6a, rt.6/rw.8, rawajati, kota jakarta selatan",ChIJgxhagUnzaS4RvD_Z_w12BOo,1236.9172601693183,Indomaret
indomaret amil pejaten,5.0,2,-6.2736879,106.8335799,"jl. amil no.11, rw.4, pejaten bar., kota jakarta selatan",ChIJwXhXQUjzaS4RyD2u1bivvgU,0.0,Indomaret
indomaret rawa papan,4.1,87,-6.2683369,106.7576132,"jl. rw. papan no.11, rt.5/rw.6, bintaro, kota jakarta selatan",ChIJjV_Ni1rwaS4RQfj-56QgK9w,465.3428424313068,Indomaret
indomaret,4.3,10,-6.2724123,106.7527205,"jl. bintaro utama i no.kav 9, rt.4/rw.8, bintaro, kota jakarta selatan",ChIJq8HgY0PwaS4R5UY58R60CRk,1122.7089892371582,Indomaret
indomaret ciledug petukangan,4.5,30,-6.236263,106.74756,"jl. ciledug raya no.6b, rt.10/rw.2, petukangan utara, kota jakarta selatan",ChIJzQet4L7waS4RFeApilyOjfw,2398.602718561981,Indomaret
indomaret darul fallah 2,4.5,238,-6.235983099999999,106.7512009,"jl. masjid darul falah no.13, rw.2, petukangan utara, kota jakarta selatan",ChIJgQybDsHwaS4R6ga_XdZJ78Q,2182.227323095924,Indomaret
indomaret,5.0,1,-6.242818199999999,106.7519549,"jl. kemajuan no.40, rw.2, petukangan sel., kota jakarta selatan",ChIJZetr6vrxaS4RsX9Sa2zGjK0,1533.8621825682185,Indomaret
indomaret ciledug sangrilla,4.0,1,-6.2366825,106.7501446,"jl. ciledug raya no.12a, petukangan selatan, pesanggrahan, rt.1/rw.3, south petukangan, south jakarta city",ChIJbfGEHcHwaS4RxKnoSu1bIxk,2183.7948011594767,Indomaret
indomaret damai 2 to1u,3.9,77,-6.246344,106.7517615,"jl. damai raya no.17, rt.12/rw.2, petukangan sel., kota jakarta selatan",ChIJ8QWqFezwaS4R_5w0mAxs9dU,1306.014022449832,Indomaret
indomaret inpres pertukangan. txtt,4.0,7,-6.2431066,106.7485969,"no., jl. inpres no.54, rt.14/rw.2, petukangan sel., kota jakarta selatan",ChIJawlqH-vwaS4ROFHJDR7K8YI,1797.1930433076514,Indomaret
indomaret,3.0,2,-6.228463899999999,106.7470185,"jl. h. muchtar raya no.1, rw.11, petukangan utara, kota jakarta selatan",ChIJ91a9IMjwaS4RIcKoAkrR_dM,1844.5940439250217,Indomaret
indomaret raya muchtar. tp70,4.5,178,-6.228802099999999,106.7468449,"jl. h. muchtar raya no.9a, rt.6/rw.1, petukangan utara, kota jakarta selatan",ChIJG6pO37fwaS4RdYDjCTDUWMc,1823.3309451254893,Indomaret
indomaret amd muchtar,4.3,82,-6.226289899999999,106.7402377,"qpfr+f3q, jl. h. muchtar raya, rt.003/rw.006, petukangan utara, kota jakarta selatan",ChIJeVMAR7HwaS4R4srJiyc2f4c,2499.90518451289,Indomaret
indomaret amd manunggal,4.4,209,-6.2303346,106.7508204,"jl. amd manunggal v no.2, rw.10, petukangan utara, kota jakarta selatan",ChIJr5QeJsbwaS4RabTVm0qv1rA,1465.4510240900083,Indomaret
muchtar indomaret kingdom 2. fvpx,3.8,19,-6.230582300000001,106.7456635,"jl. h. muchtar raya no.01, rt.5/rw.1, petukangan utara, kota jakarta selatan",ChIJr4-HGLjwaS4Ragtsic4Yjus,1743.2288340139894,Indomaret
indomaret darul fallah tp13,4.4,159,-6.2333969,106.7515457,"jl. mesjid darul falah no.29d, rt.4/rw.2, petukangan utara, kota jakarta selatan",ChIJV2qZoMXwaS4RiQyhGgeG1xQ,1121.6272534761797,Indomaret
indomaret plus,0.0,0,-6.2240492,106.7547125,"jl. taman alfa indah no.10, rw.7, petukangan utara, kota jakarta selatan",ChIJKxJkI8zwaS4RTDk1MNNsXKU,637.9125987147381,Indomaret
indomaret,0.0,0,-6.214337,106.8312134,"wisma budi, jl. h. r. rasuna said no.3, rt.3/rw.1, karet, kota jakarta selatan",ChIJVwsQapH1aS4RRn0qO3oi72c,783.6132443701136,Indomaret
indomaret dr. saharjo,4.2,16,-6.2160036,106.8440714,"jl. dr. saharjo no.109, rt.2/rw.10, manggarai sel., kota jakarta selatan",ChIJk___P4nzaS4R-mx5t36xeEE,1966.544967840049,Indomaret
indomaret menteng wadas,3.0,2,-6.2106207,106.8419454,"jl. menteng wadas timur no.17, rt.1/rw.7, ps. manggis, kota jakarta selatan",ChIJVxLzin71aS4R5ngDmYA-lEM,1969.196475453122,Indomaret
indomaret,4.4,75,-6.216285699999999,106.843786,"qrmv+fgp, rt.1/rw.7, menteng atas, south jakarta city",ChIJE27Ce3X0aS4RwPqn75uJU88,1929.2009101154413,Indomaret
indomaret menteng wadas 2,3.8,8,-6.2113933,106.8415987,"jl. menteng wadas timur no.11, rt.8/rw.1, ps. manggis, kota jakarta selatan",ChIJt6qq6gz0aS4Rc32yPpqE5bc,1892.7952104596368,Indomaret
indomaret guntur t 42,4.4,208,-6.2086144,106.8368663,"jl. guntur no.40, rt.8/rw.1, guntur, kota jakarta selatan",ChIJU8fWq6_1aS4RLiY3lLYzs2o,1673.9947238085226,Indomaret
indomaret menteng atas,3.8,22,-6.214204,106.8409467,"jl. menteng atas no.rt. 03/06, rt.3/rw.6, menteng atas, kota jakarta selatan",ChIJb2LXKQv0aS4RMsA0_7UBZqw,1693.0302235604277,Indomaret
indomaret minangkabau dalam,4.2,195,-6.215694699999999,106.8422542,"jl. minangkabau dalam no.1, rt.4/rw.14, menteng atas, kota jakarta selatan",ChIJt9agVXX0aS4RMX9VQephLU0,1779.187086083815,Indomaret
indomaret permata kuningan,3.0,7,-6.2123971,106.8336757,"jalan kuningan mulia kav. 9c, kel. guntur, kec. setiabudi, rt.6/rw.1, menteng atas, rt.6/rw.1, menteng atas, kota jakarta selatan",ChIJw___Pw70aS4RWR0PfuJ3EbQ,1125.7052337866496,Indomaret
indomaret ruko sudirman park,4.6,31,-6.205504599999999,106.817375,"ruko sudirman park blok b no. 3, rt.12/rw.11, karet tengsin, central jakarta city",ChIJtbBKIBn3aS4RDILdRYO1-O4,1890.1285718941765,Indomaret
indomaret point wisma budi,3.8,5,-6.2141795,106.831199,"jl. hr rasuna said no.kav c5-6, rt.3/rw.1, 10, karet, kota jakarta selatan",ChIJS4y29Aj0aS4Rhsigp-JY_H4,796.1725155831128,Indomaret
indomaret spbu penjernihan,4.6,5,-6.202390299999999,106.8063925,"spbu, jl. penjernihan 1 no.7, rt6/rw6, area, jl. pejompongan raya, rw.8, bendungan hilir, central jakarta city",ChIJu0w9qAv3aS4RkVPqISVW4q0,2960.362982835288,Indomaret
indomaret,4.4,56,-6.2113771,106.8413589,"jl. menteng wadas timur no.3, rw.7, ps. manggis, kota jakarta selatan",ChIJ8wnNTnP0aS4Rt4yRAq93XYE,1799.3197534528738,Indomaret
indomaret point stasiun bni city,0.0,0,-6.1954565,106.8135981,"rr37+rch, rt.13/rw.4, kebon melati, central jakarta city",ChIJrVK2lB73aS4RGj_JuWOYF-8,2374.7707524282355,Indomaret
indomaret mas mansyur 2,4.2,70,-6.194562599999999,106.8146407,"jl. kh mas mansyur no 39 c-d kebon melati, kebon melati, central jakarta city",ChIJM2gR-Z72aS4RDrZHeKNfLG8,2400.814763339739,Indomaret
indomaret abdullah syafei,3.6,8,-6.2240566,106.8527215,"jl. abdullah syafe'i no.1 bukit duri, tebet, rt.12/rw.1, south manggarai, south jakarta city",ChIJw3pmkY7zaS4RzEJnuWOCvuI,1560.50521062166,Indomaret
indomaret - manggarai tb98,3.9,17,-6.2093992,106.8477239,"jl. dr. saharjo no.11d, rt.2/rw.5, manggarai, kota jakarta selatan",ChIJC_j2enH0aS4RLYqRmKfTNwU,1289.0576962551393,Indomaret
indomaret point stasiun manggarai,3.9,21,-6.2091042,106.8495212,"stasiun kereta api manggarai kebon manggis, rt.15/rw.4, manggarai, kota jakarta selatan",ChIJ4zoAOE7yaS4RTmrqJf3bbYg,1451.294643783643,Indomaret
indomaret stasiun tebet,5.0,1,-6.2258363,106.8576173,"lapangan ros selatan no.45c, rt.4/rw.1, tebet tim., kota jakarta selatan",ChIJ111irRfzaS4RZQVb6NYgSuU,2575.337043329296,Indomaret
indomaret kenari mas,4.6,14,-6.191741899999999,106.8484414,"plaza kenari mas lantai 3a jl. kramat raya no.101, paseban, senen, rt.11/rw.3, paseban, central jakarta city",ChIJ_f__P0P0aS4RwCzZ2DPOu0Q,2066.867748053453,Indomaret
indomaret apartemen salemba residence,0.0,0,-6.1950768,106.8560632,"rv34+xc8, rt.5/rw.8, paseban, central jakarta city",ChIJcSGmzSn1aS4RJUzV3mJzXWw,2229.5523275583428,Indomaret
indomaret plaza permata(tron),5.0,1,-6.1924353,106.8237857,"rr5f+2ch, rt.9/rw.5, gondangdia, central jakarta city",ChIJp2zrmwX1aS4ReZAbJY11jeo,2697.609702453127,Indomaret
indomaret raden saleh. tup7,3.9,14,-6.190139299999999,106.8440513,"jl. raden saleh no. 18 defg&h kenari, rt.10/rw.1, kenari, central jakarta city",ChIJDwAAcEH0aS4RTkKCY72UjaM,2118.6335030961845,Indomaret
indomaret point,2.0,1,-6.1871028,106.8223184,"wahid hasyim st no.117, kebon kacang, central jakarta city",ChIJgQrn1yr1aS4Rq4XC-5vIzzk,0.0,Indomaret
indomaret thamrin boulevard,4.9,18,-6.1940732,106.8199391,"rr49+9xc, rt.10/rw.4, kebon kacang, central jakarta city",ChIJea1bnRv1aS4ROX5JWYT2FVA,0.0,Indomaret
indomaret kembang raya,4.1,14,-6.183933,106.8384419,"jl. kembang raya no.8a-8b rt/rw:002/002, kwitang, senen, rt.2/rw.2, kwitang, central jakarta city",ChIJ-___Lzb0aS4R2cT53nG21O0,0.0,Indomaret
indomaret pisangan baru selatan 2,4.3,4,-6.214658699999999,106.8729981,"qvpf+459, rt.1/rw.15, pisangan baru, east jakarta city",ChIJ37a-bqf1aS4Rp7HQzQh8Awc,1910.3768423148151,Indomaret
indomaret pandan 47,4.6,60,-6.2040209,106.8672455,"jl. pandan no. 47 rt. 11 rw. 12 kel, rt.11/rw.12, south utan kayu, east jakarta city",ChIJc3lpisv1aS4RjyY4vbpNYEw,2726.749710963967,Indomaret
indomaret assirot,0.0,0,-6.194716499999999,106.8669329,"jl. assirot no. 6a rt. 06/01, sukabumi selatan, kebon jeruk",ChIJ38U6OvX0aS4RDde402dm8fE,2597.7300836537192,Indomaret
indomaret green pramuka nerine 2,0.0,0,-6.189607899999999,106.8730406,"rv6f+563, rt.13/rw.9, rawasari, central jakarta city",ChIJK7Zhegn1aS4RxRVe-npfLQ4,0.0,Indomaret
indomaret nerine utara,0.0,0,-6.188755599999999,106.8731647,"rv6f+f7v, rt.13/rw.9, rawasari, central jakarta city",ChIJk00KncL1aS4RMVWqUhiNFTE,0.0,Indomaret
