nama_tempat,rating_tempat,user_ratings_total,latitude,longitude,alamat_tempat,place_id,distance
indomaret fatmawati 33d,5,1,-6.2664857,106.7975475,"rt 03 no, jl. rs. fatmawati raya no.33c, rt.2/rw.2, gandaria sel., kota jakarta selatan",ChIJsZgWTnXxaS4R_vrbAMPG_9c,2253.1665004780366
indomaret,4.5,2,-6.2550721,106.7974134,"jl. darmawangsa raya no.125, rt.2, rt.2/rw.1, pulo, kota jakarta selatan",ChIJwX02iFLxaS4RMQgSCQVBeVQ,1993.2422023568492
indomaret panglima polim - blok a,4,29,-6.2576762,106.7967995,"jl. rs. fatmawati raya no.1, gandaria utara, kota jakarta selatan",ChIJCZIzrZ_xaS4RiJX_wvOeaH4,1914.0382282329786
indomaret,4,3,-6.2511809,106.7781617,"jl. pahlawan no.2, rw.10, kby. lama utara, kota jakarta selatan",ChIJI231igTxaS4RKIR6Aki7DBw,671.9190201554006
indomaret,4.6,43,-6.2627085,106.7887445,"jl. radio dalam raya no.12a, rt.7/rw.10, gandaria utara, kota jakarta selatan",ChIJvygfS6HxaS4RL3sTDNNU6fY,1199.0498082887343
indomaret ciputat raya ta3p,4.3,59,-6.2585712,106.7773998,"jl. ciputat raya no.35, rw.10, kby. lama sel., kota jakarta selatan",ChIJd734LwfxaS4R9GSRMspZ-XE,284.90096193323825
indomaret,4.1,57,-6.2483714,106.7903916,"jl. gandaria 1 no.67, rt.2/rw.8, kramat pela, kota jakarta selatan",ChIJXUBFcBLxaS4RdvT3g4SaRRs,1545.3464252265153
indomaret radio dalam. t06c,4.2,18,-6.2523025,106.7913861,"jl. radio dalam raya blok haji hamali no.22, rt.1/rw.9, gandaria utara, kota jakarta selatan",ChIJD3ss9gzxaS4RA85t5OGeHsk,1417.678814400312
indomaret,4,1,-6.2444003,106.7725752,"jl. peninggaran raya no.9, rw.11, kby. lama utara, kota jakarta selatan",ChIJSY442R3xaS4RiKFQ5S2VbxE,1603.6363212386043
indomaret petogogan (tb49),4.2,24,-6.254561799999999,106.7958583,"jl. petogogan ii no.18, rt.9/rw.5, pulo, kota jakarta selatan",ChIJperbNA3xaS4R4zKGAs61CVs,1830.3398248712147
indomaret bintaro graha,4.3,18,-6.2573003,106.7640903,"jl. bintaro permai, rt.2/rw.9, bintaro, kota jakarta selatan",ChIJt____1DwaS4RKkfX8UBEtdo,1702.737958073102
indomaret gandaria1,4.7,7,-6.2484603,106.7904931,"jl. jatayu no.24, rt.2/rw.3, kramat pela, kota jakarta selatan",ChIJy45QPxLxaS4RZEV6XxuVfK0,1547.9697888516434
indomaret gandaria city,4.4,91,-6.245896699999999,106.78401,"jl. kh. moh. syafi'i hadzami no.45, rt.9/rw.6, kby. lama utara, kota jakarta selatan",ChIJM5u87BDxaS4Rgyv0HFQy6ZY,1339.6655136759841
indomaret sultan iskandar muda,4.2,95,-6.2511828,106.7813003,"jl. sultan iskandar muda no.9, rt.8/rw.1, kby. lama sel., kota jakarta selatan",ChIJ74HObQXxaS4RUip6zNyV5gE,685.1369497271571
indomaret petogogan,4.2,21,-6.2503084,106.7941812,"jl. petogogan no.18, gandaria utara, kebayoran baru, pulo, rt.11/rw.7, rt.11/rw.7, pulo, kota jakarta selatan",ChIJ94ljMXPxaS4RH5R1BnmpJP8,1789.446177323669
indomaret ciputat raya 1 {ttdq},4.6,7,-6.269582199999999,106.7748789,"jl. ciputat raya no.1 3 11, rt.3/rw.11, pd. pinang, kota jakarta selatan",ChIJY-C-8sPxaS4RnTlXQJ-0AgA,1481.1339379642739
indomaret fatmawati raya,4.2,18,-6.2695941,106.7975764,"jl. rs. fatmawati raya no.27, rt.1/rw.5, cipete sel., kota jakarta selatan",ChIJDwAAAJHxaS4RELZlVPfYtVg,2435.6090805721715
indomaret kesehatan bintar,5,2,-6.267895800000001,106.7617975,"jl. kesehatan raya no.12, rt.10/rw.6, 11, bintaro, kota jakarta selatan",ChIJt____1DwaS4RX_eDTTWVP_k,2296.3142519307917
indomaret bungur raya2 {fuff},4,18,-6.2450426,106.780055,"jalan bunguran, rt.12/rw.2, kby. lama sel., kota jakarta selatan",ChIJ_46xkBrxaS4ReC4bR5CD23A,1339.5823837857881
indomaret ciputat raya 5,4,27,-6.2711724,106.7755201,"indomaret, jl. ciputat raya no.5, rt.1/rw.6, pd. pinang, kota jakarta selatan",ChIJmeRBFrLxaS4RmHuZnxbwxI8,1627.7299531303377
indomaret metro pondok indah,4.3,480,-6.2743949,106.7827922,"blok tc, jl. metro pondok indah no.11, rt.2/rw.15, pd. pinang, kota jakarta selatan",ChIJm56pCbrxaS4RgzDUcFCWSR0,1959.9008868412695
indomaret fatmawati 2,3.8,11,-6.268205399999999,106.7970959,"jalan rs. fatmawati no. 5, cilandak, rt.1/rw.3, gandaria sel., kota jakarta selatan",ChIJFb9gM5jxaS4Rq1wKzoM3qas,2305.7986688699243
indomaret,4.7,7,-6.2534879,106.7758737,"jl. bintaro raya no.17, rt.013/rw.10, kby. lama sel., kota jakarta selatan",ChIJY1VVVQTxaS4RtmETuVP403E,565.1029541941476
indomaret tanah kusir 2 dalam tt2d,4.4,269,-6.257153,106.784136,"gg. swadaya iii no.18, rt.10/rw.9, kby. lama sel., kota jakarta selatan",ChIJZbLLdm_xaS4R4cgyDKLeE8k,513.2178699653217
indomaret bintaro mulia.,2,2,-6.2609562,106.7672112,"jl. rc. veteran raya no.2, rt.10/rw.10, bintaro, kota jakarta selatan",ChIJcQydolXwaS4RhUhvgR38H7M,1424.4760928695043
indomaret spbu ciputat. t04d,4.9,7,-6.2479081,106.7781297,"jl. ciputat raya no.12, rt.8/rw.8, kby. lama utara, kota jakarta selatan",ChIJh3nZSBvxaS4RZ-S7enqBkV0,1030.5987415832824
indomaret ciputat raya 2,4.4,22,-6.2463603,106.7796743,"jl. raya ciputat, rt.8/rw.4, kby. lama utara, kota jakarta selatan",ChIJfYz0UxrxaS4RDiV8YKP8J24,1191.7896441585563
indomaret kh ahcmad dahlan. {twxj},4.1,27,-6.2458778,106.7920332,"qq3r+jrr, jalan kh. achmad dahlan, rt.3/rw.1, kramat pela, kota jakarta selatan",ChIJuxnwDxPxaS4R4BeT2kbalvE,1863.2962704169206
indomaret ciputat 18,4.1,69,-6.2638128,106.7750009,"pqpg+f2c, jl. raya ciputat, rt.6/rw.1, pd. pinang, kota jakarta selatan",ChIJQzFdk6vxaS4Ri6I1vWvx4_s,898.6677382286663
indomaret h. muhi,4.2,70,-6.2666653,106.7706362,"jl. haji muhi raya, rt.10/rw.4, pondok pinang, kebayoran lama, jl. h. muhi raya no.39, rt.10/rw.4, pd. pinang, kota jakarta selatan",ChIJTfxSM1PwaS4RgYyvQDCry1A,1447.4924537503878
indomaret haji nawi ( tq03 ),0,0,-6.2637034,106.7954092,"4, jl. h. nawi raya no.28a, rt.4/rw.7, gandaria sel., kota jakarta selatan",ChIJ4dWEmRnxaS4RQFHJI6sgsqk,1907.2765430072304
indomaret rc veteran,4.4,223,-6.2645803,106.7664311,"jl. rc. veteran raya jl. dahlia no.42e, rt.9/rw.3, bintaro, kota jakarta selatan",ChIJUfoIE1TwaS4RtWJPNqpLxvY,1667.5538733220703
indomaret madrasah,4.3,89,-6.266464999999999,106.7914699,"no, jl. madrasah no.17, rt.7/rw.1, gandaria sel., kota jakarta selatan",ChIJ14sVU6LxaS4Rrt0AdBPZjQM,1685.8659056843333
mitra umkm indomaret,0,0,-6.2695104,106.7975699,"pqjx+52v, jl. rs. fatmawati raya, rt.6/rw.5, cipete sel., kota jakarta selatan",ChIJYWqPfpfxaS4RB7eEa52T3-0,2429.711748924408
indomaret depsos raya,4.3,294,-6.2635979,106.7636982,"jl. depsos raya no.4, rw.1, bintaro, kota jakarta selatan",ChIJfdJDkFbwaS4RzRPhnmq9ySw,1890.4783224380358
indomaret praja dalam k,4.1,17,-6.2505751,106.7834542,"jl. praja dalam k no.18, rt.9/rw.5, kby. lama sel., kota jakarta selatan",ChIJOwAAAAfxaS4RKTnNaZ1qgc4,845.178411999548
indomaret ulujami,3.9,89,-6.2410821,106.7629435,"jl. ulujami raya no.11, rt.11/rw.5, ulujami, kota jakarta selatan",ChIJ4___P-fwaS4Ra-rEZZq9-CM,2551.406401085877
indomaret al mubarok 1,4.6,80,-6.239336199999999,106.7710655,"jl. al mubarok 1 no.14, rt.8/rw.6, cipulir, kota jakarta selatan",ChIJuVSpxN_waS4Rm819BJDCdw0,2181.574622655684
indomaret bungur raya 2,4.8,77,-6.2476761,106.7817145,"jl. duku raya no.79-81, rt.14/rw.6, kby. lama utara, kota jakarta selatan",ChIJhV_DfRrxaS4Ry97kNCuA-dY,1073.7524188237674
indomaret grand wijaya. t98c,4.2,55,-6.2532473,106.7993526,"grand wijaya blok b10, jl. wijaya ii, rt.6/rw.1, pulo, kota jakarta selatan",ChIJT8Q48HPxaS4RHGBGXmOUqp0,2236.0083545512225
"indomaret, blok m square",4,1,-6.2443244,106.7993778,"jl. melawai 6 no.3, rw.1, melawai, kota jakarta selatan",ChIJp6k1jNPxaS4RsvpHlCJjam4,2615.6192032067806
indomaret panglima polim 125b t3pi,4,5,-6.2550595,106.7974126,"jl. panglima polim no.125a, rt.2/rw.1, pulo, kota jakarta selatan",ChIJb-Coe5PxaS4Rq13QTJ2nq04,1993.3115339307808
indomaret delman utama. {f763},4,123,-6.247976299999999,106.7728671,"jl. delman utama, rt.2/rw.11, kby. lama utara, kota jakarta selatan",ChIJR9-Fph3xaS4R5_wCOsFGSn0,1249.1887448197663
indomaret peninggaran raya,4.2,18,-6.2443344,106.7725693,"jl. peninggaran raya no.9, kby. lama utara, kota jakarta selatan",ChIJmemSdh7xaS4R82TubBojfuI,1610.3909285721113
indomaret,0,0,-6.26411,106.7988205,"pqpx+9g4, unnamed road, rt.1/rw.5, north cipete, south jakarta city",ChIJF69gRyfxaS4R72RSYGIDZyU,2274.90231428254
indomaret abu serin,4.5,10,-6.275743299999999,106.7971777,"jl. abuserin no.5, rt.10/rw.6, gandaria sel., kota jakarta selatan",ChIJXQQSNpTxaS4RsGiRh1Rrct0,2851.114826556795
indomaret kebayoran lama 1,4.2,373,-6.2381749,106.7808075,"jl. raya kby. lama no.4, rt.2/rw.1, kby. lama utara, kota jakarta selatan",ChIJodfvliLxaS4RpMCXWAnHq3Q,2106.810727548752
indomaret,4.7,3,-6.265670699999999,106.7753023,"rt.5/rw.2, pd. pinang, kota jakarta selatan",ChIJBXn-SFTxaS4R7R3uiSMUobE,1061.9702141949872
indomaret damai fatmawati. fq84,4.1,36,-6.2600751,106.7970731,"jl. damai raya no.6, rt.1/rw.5, north cipete, south jakarta city",ChIJXw0Sy5_xaS4RW8YkG7Tx-_8,1971.5090035194537
indomaret ulujami 2,4.3,106,-6.2475986,106.7632979,"jl. ulujami raya jl. h. buang no.gg, rt.1/rw.7, ulujami, kota jakarta selatan",ChIJ4___P-fwaS4RZ-EO8PKFun8,2077.3629897824667
indomaret kodam bintaro,4.4,82,-6.2590333,106.7597615,"pqr5+9wp, jl. bintaro permai, rt.4/rw.3, pesanggrahan, kota jakarta selatan",ChIJs2ElFvjwaS4RxGz06AXOrTg,2191.8501212300903
indomaret veteran 42,4.4,11,-6.264296,106.7661822,"jl. rc. veteran raya no.42, rt.3/rw.1, bintaro, kota jakarta selatan",ChIJo_xXbVTwaS4RzpuiYgv408Y,1676.0619034495423
indomaret melawai 6 no. 17,0,0,-6.2443244,106.7993621,"jl. melawai 6 no.17, rt.3/rw.1, melawai, kota jakarta selatan",ChIJZXQ3b1nxaS4RBDCbFsM3GfE,2614.161137827697
indomaret panglima polim 106,4.7,29,-6.2476908,106.7976133,"jl. panglima polim no.107, rw.5, b-c, kota jakarta selatan",ChIJI3U5C2XxaS4RdRRpbU-heos,2258.464488035628
indomaret ciledug raya 2,4.3,9,-6.238261,106.7717106,"jl. seskoal no.11, rt.8/rw.11, cipulir, kota jakarta selatan",ChIJ6aVHOCDxaS4R6MCZegYiQ0Q,2262.1858932138884
rc indomaret veteran 2. f70u,4.2,19,-6.2763063,106.7624003,"pqf6+fxg, jl. rc. veteran raya, rt.3/rw.11, bintaro, kota jakarta selatan",ChIJEUakJUnwaS4R5nVu-_yApX4,2853.339902417999
indomaret,5,3,-6.2375076,106.7638955,"jl. ciledug raya no.59, rt.1/rw.3, ulujami, kota jakarta selatan",ChIJSaRPzt3waS4R3DqqT8nucVY,2776.249937996587
