nama_tempat,rating_tempat,user_ratings_total,latitude,longitude,alamat_tempat,place_id,distance
indomaret,4,3,-6.2511809,106.7781617,"jl. pahlawan no.2, rw.10, kby. lama utara, kota jakarta selatan",ChIJI231igTxaS4RKIR6Aki7DBw,618.3794118381986
indomaret,5,1,-6.2321661,106.769049,"jl. h. husin no.7, rt.7/rw.13, grogol sel., kota jakarta selatan",ChIJ7wOa9NjwaS4RlE5wVtVplPI,1794.88516122624
indomaret,4.6,43,-6.2627085,106.7887445,"jl. radio dalam raya no.12a, rt.7/rw.10, gandaria utara, kota jakarta selatan",ChIJvygfS6HxaS4RL3sTDNNU6fY,2239.5219650412278
indomaret ciputat raya ta3p,4.3,59,-6.2585712,106.7773998,"jl. ciputat raya no.35, rw.10, kby. lama sel., kota jakarta selatan",ChIJd734LwfxaS4R9GSRMspZ-XE,1441.568071270238
indomaret,4.1,57,-6.2483714,106.7903916,"jl. gandaria 1 no.67, rt.2/rw.8, kramat pela, kota jakarta selatan",ChIJXUBFcBLxaS4RdvT3g4SaRRs,1401.3802817961885
indomaret radio dalam. t06c,4.2,18,-6.2523025,106.7913861,"jl. radio dalam raya blok haji hamali no.22, rt.1/rw.9, gandaria utara, kota jakarta selatan",ChIJD3ss9gzxaS4RA85t5OGeHsk,1653.7843518793388
indomaret,4,1,-6.2444003,106.7725752,"jl. peninggaran raya no.9, rw.11, kby. lama utara, kota jakarta selatan",ChIJSY442R3xaS4RiKFQ5S2VbxE,616.8525091764451
indomaret kebayoran lama 3,4.5,24,-6.2330232,106.7804064,"jl. raya kby. lama no.227, rt.10/rw.1, grogol sel., kota jakarta selatan",ChIJob7ukyTxaS4RigRph3C5HUU,1425.5104795638144
indomaret petogogan (tb49),4.2,24,-6.254561799999999,106.7958583,"jl. petogogan ii no.18, rt.9/rw.5, pulo, kota jakarta selatan",ChIJperbNA3xaS4R4zKGAs61CVs,2208.282828839091
indomaret bintaro graha,4.3,18,-6.2573003,106.7640903,"jl. bintaro permai, rt.2/rw.9, bintaro, kota jakarta selatan",ChIJt____1DwaS4RKkfX8UBEtdo,2014.1350215674754
indomaret gandaria1,4.7,7,-6.2484603,106.7904931,"jl. jatayu no.24, rt.2/rw.3, kramat pela, kota jakarta selatan",ChIJy45QPxLxaS4RZEV6XxuVfK0,1414.5043607348896
indomaret gandaria city,4.4,91,-6.245896699999999,106.78401,"jl. kh. moh. syafi'i hadzami no.45, rt.9/rw.6, kby. lama utara, kota jakarta selatan",ChIJM5u87BDxaS4Rgyv0HFQy6ZY,662.933300287221
indomaret sultan iskandar muda,4.2,95,-6.2511828,106.7813003,"jl. sultan iskandar muda no.9, rt.8/rw.1, kby. lama sel., kota jakarta selatan",ChIJ74HObQXxaS4RUip6zNyV5gE,716.9116103955706
indomaret panjang cidodol 3,4.4,14,-6.2321222,106.769101,"jl. masjid cidodol rt. 009 / rw. 012 no: 65a, rt.7/rw.9, south grogol, south jakarta city",ChIJGwAAADvxaS4RE8wz9nSvxB4,1795.7947074119693
indomaret petogogan,4.2,21,-6.2503084,106.7941812,"jl. petogogan no.18, gandaria utara, kebayoran baru, pulo, rt.11/rw.7, rt.11/rw.7, pulo, kota jakarta selatan",ChIJ94ljMXPxaS4RH5R1BnmpJP8,1860.9585597599248
indomaret bungur raya2 {fuff},4,18,-6.2450426,106.780055,"jalan bunguran, rt.12/rw.2, kby. lama sel., kota jakarta selatan",ChIJ_46xkBrxaS4ReC4bR5CD23A,234.08523128568274
indomaret ciputat raya 2,4.4,22,-6.2463603,106.7796743,"jl. raya ciputat, rt.8/rw.4, kby. lama utara, kota jakarta selatan",ChIJfYz0UxrxaS4RDiV8YKP8J24,200.57501232410777
indomaret tanah kusir 2 dalam tt2d,4.4,269,-6.257153,106.784136,"gg. swadaya iii no.18, rt.10/rw.9, kby. lama sel., kota jakarta selatan",ChIJZbLLdm_xaS4R4cgyDKLeE8k,1449.5963154188637
indomaret kodam bintaro,4.4,82,-6.2590333,106.7597615,"pqr5+9wp, jl. bintaro permai, rt.4/rw.3, pesanggrahan, kota jakarta selatan",ChIJs2ElFvjwaS4RxGz06AXOrTg,2509.304772693999
indomaret bintaro mulia.,2,2,-6.2609562,106.7672112,"jl. rc. veteran raya no.2, rt.10/rw.10, bintaro, kota jakarta selatan",ChIJcQydolXwaS4RhUhvgR38H7M,2081.9732891043227
indomaret,4.7,7,-6.2534879,106.7758737,"jl. bintaro raya no.17, rt.013/rw.10, kby. lama sel., kota jakarta selatan",ChIJY1VVVQTxaS4RtmETuVP403E,906.274682274086
indomaret kh ahcmad dahlan. {twxj},4.1,27,-6.2458778,106.7920332,"qq3r+jrr, jalan kh. achmad dahlan, rt.3/rw.1, kramat pela, kota jakarta selatan",ChIJuxnwDxPxaS4R4BeT2kbalvE,1549.3337974993128
indomaret kebayoran lama 1,4.2,373,-6.2381749,106.7808075,"jl. raya kby. lama no.4, rt.2/rw.1, kby. lama utara, kota jakarta selatan",ChIJodfvliLxaS4RpMCXWAnHq3Q,883.5372071864863
indomaret spbu ciputat. t04d,4.9,7,-6.2479081,106.7781297,"jl. ciputat raya no.12, rt.8/rw.8, kby. lama utara, kota jakarta selatan",ChIJh3nZSBvxaS4RZ-S7enqBkV0,254.5534657733075
indomaret kebayoran lama 242,4.5,130,-6.231951899999999,106.7803754,"jl. raya kby. lama no.242, rt.11/rw.1, grogol sel., kota jakarta selatan",ChIJM8eV5iTxaS4RwEvXAASHlko,1542.1497960770423
indomaret jalan masjid cidodol,4.3,46,-6.2321668,106.769016,"jl. masjid cidodol no.55-58, rt.7/rw.12, grogol sel., kota jakarta selatan",ChIJJUPMjNjwaS4RdFqvhCYBXTs,1796.8379305521914
indomaret cipulir 1. t2z0,4.2,186,-6.235679999999999,106.7734791,"jl. cipulir i no.4, rt.12/rw.4, cipulir, kota jakarta selatan",ChIJy6BN4CDxaS4RsVFxeRXbZhc,1214.0123162451343
indomaret panglima polim - blok a,4,29,-6.2576762,106.7967995,"jl. rs. fatmawati raya no.1, gandaria utara, kota jakarta selatan",ChIJCZIzrZ_xaS4RiJX_wvOeaH4,2471.0444163447805
indomaret ciputat 18,4.1,69,-6.2638128,106.7750009,"pqpg+f2c, jl. raya ciputat, rt.6/rw.1, pd. pinang, kota jakarta selatan",ChIJQzFdk6vxaS4Ri6I1vWvx4_s,2050.105613424042
indomaret swadarma 2 {tc5e},4,98,-6.236108,106.7608682,"jl. swadarma raya blok haji nuh 1 no.9, rt.10/rw.3, ulujami, kota jakarta selatan",ChIJl0Lx7NzwaS4RvKVM6oOutyw,2170.945796369371
indomaret haji nawi ( tq03 ),0,0,-6.2637034,106.7954092,"4, jl. h. nawi raya no.28a, rt.4/rw.7, gandaria sel., kota jakarta selatan",ChIJ4dWEmRnxaS4RQFHJI6sgsqk,2781.628887936519
indomaret ciledug raya 2,4.3,9,-6.238261,106.7717106,"jl. seskoal no.11, rt.8/rw.11, cipulir, kota jakarta selatan",ChIJ6aVHOCDxaS4R6MCZegYiQ0Q,1075.2120028547838
indomaret swadarma 3,5,4,-6.233315999999999,106.7605835,"jl. swadarma raya no 26 rt 001 rw 008, rt.11/rw.5, ulujami, south jakarta city",ChIJ4___P-fwaS4R-yxrxTiWMmQ,2363.5891053166138
indomaret,4.5,2,-6.2550721,106.7974134,"jl. darmawangsa raya no.125, rt.2, rt.2/rw.1, pulo, kota jakarta selatan",ChIJwX02iFLxaS4RMQgSCQVBeVQ,2387.4645115306826
indomaret praja dalam k,4.1,17,-6.2505751,106.7834542,"jl. praja dalam k no.18, rt.9/rw.5, kby. lama sel., kota jakarta selatan",ChIJOwAAAAfxaS4RKTnNaZ1qgc4,815.0736954466789
indomaret point,4.1,9,-6.236225300000001,106.7826683,"jl. st. no.3, rt.4/rw.1, kby. lama utara, kota jakarta selatan",ChIJEUFZ1DzxaS4RfUdVOuGCFGo,1164.3671744815306
indomaret bungur raya 2,4.8,77,-6.2476761,106.7817145,"jl. duku raya no.79-81, rt.14/rw.6, kby. lama utara, kota jakarta selatan",ChIJhV_DfRrxaS4Ry97kNCuA-dY,468.0394333379785
indomaret ulujami,3.9,89,-6.2410821,106.7629435,"jl. ulujami raya no.11, rt.11/rw.5, ulujami, kota jakarta selatan",ChIJ4___P-fwaS4Ra-rEZZq9-CM,1741.1387332701327
indomaret depsos raya,4.3,294,-6.2635979,106.7636982,"jl. depsos raya no.4, rw.1, bintaro, kota jakarta selatan",ChIJfdJDkFbwaS4RzRPhnmq9ySw,2549.737849508229
indomaret al mubarok 1,4.6,80,-6.239336199999999,106.7710655,"jl. al mubarok 1 no.14, rt.8/rw.6, cipulir, kota jakarta selatan",ChIJuVSpxN_waS4Rm819BJDCdw0,1038.8447557578193
indomaret,5,3,-6.2375076,106.7638955,"jl. ciledug raya no.59, rt.1/rw.3, ulujami, kota jakarta selatan",ChIJSaRPzt3waS4R3DqqT8nucVY,1803.1029876031134
indomaret delman utama. {f763},4,123,-6.247976299999999,106.7728671,"jl. delman utama, rt.2/rw.11, kby. lama utara, kota jakarta selatan",ChIJR9-Fph3xaS4R5_wCOsFGSn0,626.7683365537264
indomaret peninggaran raya,4.2,18,-6.2443344,106.7725693,"jl. peninggaran raya no.9, kby. lama utara, kota jakarta selatan",ChIJmemSdh7xaS4R82TubBojfuI,619.1414310245922
indomaret panjang cidodol 2 (tg26),3.8,8,-6.227386999999999,106.772065,"qqfc+2rv, jl. panjang cidodol, rt.14/rw.6, grogol sel., kota jakarta selatan",ChIJK5X2RyjxaS4RyPDN-Qxm35w,2131.721866086052
indomaret swadarma 1. texu,4.5,60,-6.228395799999999,106.7606678,"qqc6+j7v, jl. swadarma raya, rt.1/rw.2, ulujami, kota jakarta selatan",ChIJOwckatDwaS4RpIzxDLhO1EM,2710.5884900431197
indomaret ulujami 2,4.3,106,-6.2475986,106.7632979,"jl. ulujami raya jl. h. buang no.gg, rt.1/rw.7, ulujami, kota jakarta selatan",ChIJ4___P-fwaS4RZ-EO8PKFun8,1641.9681649363167
indomaret rc veteran,4.4,223,-6.2645803,106.7664311,"jl. rc. veteran raya jl. dahlia no.42e, rt.9/rw.3, bintaro, kota jakarta selatan",ChIJUfoIE1TwaS4RtWJPNqpLxvY,2466.724865393297
indomaret panglima polim 125b t3pi,4,5,-6.2550595,106.7974126,"jl. panglima polim no.125a, rt.2/rw.1, pulo, kota jakarta selatan",ChIJb-Coe5PxaS4Rq13QTJ2nq04,2386.7687593130036
indomaret ciledug raya. trl0,4.3,256,-6.2364187,106.7579387,"jl. ciledug raya no.51, rt.6/rw.4, petukangan utara, kota jakarta selatan",ChIJCfldOcPwaS4RtrLi0yMazkU,2444.1192900407923
indomaret assirot,4.3,156,-6.225558899999999,106.7751594,"jl. assirot no.6a, rt.5/rw.5, grogol sel., kota jakarta selatan",ChIJ8VBSPinxaS4Rsng_u-K88hw,2253.1432323251934
indomaret,4.6,23,-6.240787699999999,106.7915935,"jl. tebah ii no.29, rt.13/rw.3, gunung, kota jakarta selatan",ChIJS27Tds_xaS4R_ZcfY1bc7Eo,1593.8415563025328
indomaret rc veteran 13,4.4,8,-6.2576627,106.7683716,"4 no.10, rt.4/rw.10, bintaro, kota jakarta selatan",ChIJhw7nnzDxaS4RVsy9lGn0S7U,1711.6720939756422
