nama_tempat,rating_tempat,user_ratings_total,latitude,longitude,alamat_tempat,place_id,distance
indomaret,0,0,-6.214337,106.8312134,"wisma budi, jl. h. r. rasuna said no.3, rt.3/rw.1, karet, kota jakarta selatan",ChIJVwsQapH1aS4RRn0qO3oi72c,2072.653803812542
indomaret dr. saharjo,4.2,16,-6.2160036,106.8440714,"jl. dr. saharjo no.109, rt.2/rw.10, manggarai sel., kota jakarta selatan",ChIJk___P4nzaS4R-mx5t36xeEE,1709.3320102134762
indomaret soepomo,4.1,16,-6.2325019,106.8444327,"qr9v+2q4, jalan dr. soepomo, rt.1/rw.3, menteng dalam, kota jakarta selatan",ChIJw4Qe95TzaS4R4TukR0p9hZk,528.2257949016881
indomaret tebet,4.7,26,-6.2242003,106.8525338,"jl. kh abdullah syafei no.2, rt.12/rw.5, bukit duri, kota jakarta selatan",ChIJndinnI_zaS4RsBdPM7-_7mo,1572.720756706659
indomaret,4.4,75,-6.216285699999999,106.843786,"qrmv+fgp, rt.1/rw.7, menteng atas, south jakarta city",ChIJE27Ce3X0aS4RwPqn75uJU88,1670.8542489449694
indomaret tebet barat raya,4.4,15,-6.2383118,106.850335,"jl. tebet barat ix no.20, rt.5/rw.4, tebet bar., kota jakarta selatan",ChIJBxrDu73zaS4R_jKixhfyWEE,1417.0355299168737
indomaret menara kuningan,5,2,-6.2186328,106.8300399,"6, jl. denpasar no.7, rt.6/rw.7, kuningan, karet kuningan, kota jakarta selatan",ChIJX77vnO3zaS4RglK4CERSUh4,1743.6892461539717
indomaret abdullah syafei 45c,4.7,6,-6.2258963,106.8575556,"jalan kh. abdullah syafei no.45 1 2, rt.4/rw.1, manggarai sel., kota jakarta selatan",ChIJ63NDeWPzaS4RHVCnhEWtXTU,2020.4372924444456
indomaret,2.3,3,-6.248328,106.8240323,"jl. mampang prapatan vii no.1, rw.3, tegal parang, kota jakarta selatan",ChIJJXUTrNDzaS4RJSFdr933enM,2624.726326763345
indomaret tebet raya,4.3,37,-6.230342299999999,106.8514366,"jl. tebet raya no.30 a, rt.2/rw.2, tebet bar., kota jakarta selatan",ChIJV7cl6pDzaS4RnpIsEEg4Wik,1269.4764722532602
indomaret stasiun tebet,0,0,-6.227752,106.8563415,"dalam 3, 4, jl. tebet raya no.69, rt.4/rw.1, tebet tim., kota jakarta selatan",ChIJfS5DnODzaS4RByux-xL7Cy4,1842.460539668075
indomaret al barkah,4.6,18,-6.2204901,106.8472328,"jl. albarkah no.20, rt.7/rw.3, manggarai sel., kota jakarta selatan",ChIJk___P4nzaS4RKHnkXKOuy64,1402.176334669025
indomaret supomo 2,3.9,40,-6.239277899999999,106.8456902,"jl. prof. dr. soepomo no.02, rt.14/rw.6, tebet bar., kota jakarta selatan",ChIJXRviXL7zaS4RE8cUq9rXJQc,1133.437911622009
indomaret plus,4,88,-6.2212663,106.8270455,"jl. karet pedurenan no.68a, rt.9/rw.4, kuningan, karet kuningan, kota jakarta selatan",ChIJFwAAAPnzaS4RSejras5dRMU,1779.877282011958
indomaret pangadegan utara,4.4,142,-6.2459671,106.8555993,"no., jl. pengadegan utara no.12a, rt.6/rw.7, cikoko, kota jakarta selatan",ChIJrevYYKXzaS4RywexQtwJGqY,2413.1206647687063
indomaret abdullah syafei,3.6,8,-6.2240566,106.8527215,"jl. abdullah syafe'i no.1 bukit duri, tebet, rt.12/rw.1, south manggarai, south jakarta city",ChIJw3pmkY7zaS4RzEJnuWOCvuI,1598.542078452242
indomaret menteng atas,3.8,22,-6.214204,106.8409467,"jl. menteng atas no.rt. 03/06, rt.3/rw.6, menteng atas, kota jakarta selatan",ChIJb2LXKQv0aS4RMsA0_7UBZqw,1851.1853375898274
indomaret tebet timur dalam raya,4.4,11,-6.236383699999999,106.8568272,"jl. tebet timur dalam raya no.29, rt.11/rw.7, tebet tim., kota jakarta selatan",ChIJzddog5jzaS4RM7Gl9dS3Gbs,1964.0636407186814
indomaret point,3.3,3,-6.2331067,106.8230684,"patra jasa, jl. gatot subroto, rt.6/rw.3, kuningan, kuningan tim., kota jakarta selatan",ChIJpbNXVUrzaS4Rt_lHfKPzCKM,1884.5994339153438
indomaret itc kuningan,0,0,-6.2235581,106.8259947,"jl. prof. dr. satrio no.18, rt.11/rw.4, kuningan, karet kuningan, kota jakarta selatan",ChIJDW3h1JDzaS4R8CQ1sNCxq94,1742.5426002183897
indomaret pedurenan,4.4,99,-6.2222333,106.8261754,"jl. pedurenan masjid iii no.50, rt.8/rw.4, kuningan, karet kuningan, kota jakarta selatan",ChIJjyTKfPnzaS4RmgahJeqJgd8,1798.5807583641233
indomaret tegal parang 2. ts86,3.9,33,-6.2441983,106.8324248,"jl. tegal parang utara no.35, rt.7/rw.4, mampang prpt., kota jakarta selatan",ChIJF1D19sTzaS4Rw9CnBydlgJM,1704.7110661408121
indomaret mampang 8. t5wi,3.9,17,-6.2477205,106.8306366,"jalan mampang prapatan viii, rt.03 / rw.02, tegal parang, mampang prapatan, rt.3/rw.2, tegal parang, kota jakarta selatan",ChIJ_xUj9s_zaS4RuolU_sbnxqY,2143.086689138551
indomaret mt haryono,4.3,3,-6.2422974,106.8551682,"menara mt. haryono, jl. mt. haryono kav 23, rt.12/rw.5, tebet timur, tebet, rt.10/rw.9, tebet tim., kota jakarta selatan",ChIJHQAAwJnzaS4RX1MjemHCBZM,2110.205143629332
indomaret minangkabau dalam,4.2,195,-6.215694699999999,106.8422542,"jl. minangkabau dalam no.1, rt.4/rw.14, menteng atas, kota jakarta selatan",ChIJt9agVXX0aS4RMX9VQephLU0,1701.1961209833407
indomaret wisma staco,5,2,-6.2246197,106.8401752,"wisma staco, jl. raya casablanca no.4, rt.4/rw.12, menteng dalam, kota jakarta selatan",ChIJTYdPFlzzaS4R4JoaMHSAiPY,690.2111242758036
indomaret casablanca,3.7,22,-6.2250076,106.8428196,"jalan casablanca, rt. 07 / rw. 11, menteng dalam, tebet, rt.7/rw.11, menteng dalam, kota jakarta selatan",ChIJVaFRO43zaS4R9wZv9oxkGeI,719.6860345884115
indomaret tegal parang. t986,4.1,9,-6.2464648,106.8322217,"qr3j+cw7, jl. tegal parang, rt.7/rw.5, tegal parang, kota jakarta selatan",ChIJezNcc8XzaS4RsQx_12LcMCA,1938.3246339436193
indomaret apartemen casablanca,1,1,-6.2232986,106.8453453,"jl. raya casablanca no.14, rw.5, menteng dalam, kota jakarta selatan",ChIJV4P3VhjzaS4RnuDMhqW9W2w,1026.7158691202555
indomaret ciputat raya 2a -b,0,0,-6.239546799999999,106.8263501,"jl. kapten tendean no.34, rt.9/rw.2, kuningan bar., kota jakarta selatan",ChIJR3Z58xPzaS4Rv46cCQ_1uvk,1790.2260063443357
indomaret tebet barat in tk29,4.2,149,-6.2383462,106.847226,"jl. tebet barat dalam ivd no.88, rw.6, tebet bar., kota jakarta selatan",ChIJ7ahV373zaS4Rm9rs7VrGTVg,1159.488550744509
indomaret,0,0,-6.2467067,106.8549365,"rw.7, pengadegan, kota jakarta selatan",ChIJZ0DyfMnzaS4RJ9jFt8abwmQ,2420.5333542351595
indomaret plaza festival,3.4,10,-6.2212209,106.8328964,"qrhm+g56, rt.2/rw.5, karet kuningan, south jakarta city",ChIJMUTCa23zaS4RHTh8p6ntkmM,1322.9215130433709
indomaret lapangan tembak 3,4,1,-6.2402503,106.8557039,"jl. lapangan tembak no. 08 rt. 02 rw. 10, rt.1/rw.8, east tebet, south jakarta city",ChIJE3_-BaPzaS4Rs0YHJv9N4H0,2031.3820205186032
indomaret pal batu 36,4.3,70,-6.2247397,106.8447512,"jl. pal batu raya no.36, rt.13/rw.4, menteng dalam, kota jakarta selatan",ChIJtX8wqY3zaS4RTpmMPQzAFbg,858.9693288115645
indomaret plus rasamala,4.1,61,-6.2336278,106.8395619,"jl. rasamala raya no.26, rt.7/rw.9, menteng dalam, kota jakarta selatan",ChIJtaqqauvzaS4RnSCep_ghRMM,314.9717394504222
indomaret guru mughni,4.1,41,-6.2269641,106.8213717,"jalan guru mughni no. c4, karet semanggi, setiabudi, rt.5/rw.2, karet semanggi, rt.5/rw.2, karet semanggi, kota jakarta selatan",ChIJ4T8PLOPzaS4RQDVcYaC-IGg,2099.3064843939283
indomaret pengadegan timur,4.3,57,-6.248453899999999,106.8587205,"jl. pengadegan timur raya no.2, rt.3/rw.2, pengadegan, kota jakarta selatan",ChIJqUxFMa_zaS4Rb6WsdUlLWrQ,2853.5169101009024
indomaret point wisma budi,3.8,5,-6.2141795,106.831199,"jl. hr rasuna said no.kav c5-6, rt.3/rw.1, 10, karet, kota jakarta selatan",ChIJS4y29Aj0aS4Rhsigp-JY_H4,2088.8974290623323
indomaret signature park,4.3,3,-6.242484,106.854727,"mt haryono st no.10, rw.9, east tebet, south jakarta city",ChIJ71RBBiPzaS4RzLWpLbPWU80,2084.412734599118
indomaret karbela,4,35,-6.216086199999999,106.8232321,"jl. flamboyan no.1, rt.9/rw.3, kuningan, karet, kota jakarta selatan",ChIJQ7XctwD0aS4RfpVYI5dO7Tk,2470.91468113663
indomaret,4.2,421,-6.229205299999999,106.8474494,"jl. prof supomo no 321 blok bz persil no 19, rt.13/rw.2, tebet barat, rt.13/rw.2, tebet bar., kota jakarta selatan",ChIJxf__P5bzaS4RZ7KfkYohoDc,846.9418566555194
indomaret menteng wadas 2,3.8,8,-6.2113933,106.8415987,"jl. menteng wadas timur no.11, rt.8/rw.1, ps. manggis, kota jakarta selatan",ChIJt6qq6gz0aS4Rc32yPpqE5bc,2168.0795506106583
indomaret permata kuningan,3,7,-6.2123971,106.8336757,"jalan kuningan mulia kav. 9c, kel. guntur, kec. setiabudi, rt.6/rw.1, menteng atas, rt.6/rw.1, menteng atas, kota jakarta selatan",ChIJw___Pw70aS4RWR0PfuJ3EbQ,2163.5431321457654
indomaret menteng wadas,3,2,-6.2106207,106.8419454,"jl. menteng wadas timur no.17, rt.1/rw.7, ps. manggis, kota jakarta selatan",ChIJVxLzin71aS4R5ngDmYA-lEM,2257.1000572137323
indomaret pancoran 7,4.1,31,-6.2497874,106.8365148,"jl. pancoran barat vii, rt. 013 / rw. 006, pancoran, mampang prapatan, rt.12/rw.6, pancoran, kota jakarta selatan",ChIJY3w000zyaS4RJpAudy3L5V4,2142.8706113445437
indomaret - spbu pancoran tjrt,3.1,10,-6.246947,106.8424352,"qr3r+6x7, rt.1/rw.4, pancoran, south jakarta city",ChIJpzdhkdPzaS4R8PAP1nFVLYE,1813.59385454142
indomaret convenience store,4.3,73,-6.2258324,106.858882,"jl. bukit duri tanjakan no. 1 rt 12/ rw 02 rt.3, rt.1/rw.9, bukit duri, kota jakarta selatan",ChIJy6qqaoTzaS4RC_J-x2TbxZU,2163.7399886979247
indomaret dr satrio 289,4.6,13,-6.2177327,106.8196168,"jalan professor doktor satrio no.289, karet kuningan, setiabudi rt.1/rw.1, kuningan, rt.1/rw.1, kuningan, karet kuningan, south jakarta city",ChIJf1IrAD3zaS4RP2uQZVJc8jY,2678.9415144710097
indomaret asembaris 2. tc71,3.8,10,-6.2292648,106.8590207,"jalan asem baris, rt.5/rw.5, kebon baru, tebet, rt.5/rw.5, kb. baru, kota jakarta selatan",ChIJ95g2h5vzaS4R0qUPfUiXjys,2113.8005127910237
indomaret asem baris,4.1,23,-6.2389963,106.8602569,"jl. asem baris raya no.1, rt.6/rw.13, kb. baru, kota jakarta selatan",ChIJuZeA4KHzaS4RO8kOMnZzjnw,2420.404735726794
indomaret pondok jaya mampang,4.4,111,-6.2494907,106.8214751,"jl. pondok jaya vi no.6, rt.6/rw.6, pela mampang, kota jakarta selatan",ChIJf2NThW7zaS4RXQqG3ssDz7w,2912.823728117129
indomaret casablanca mansion fl12,4,4,-6.223185200000001,106.8461687,"qrgw+qf6, apartemen casablanca mansion jalan casablanca setia budi, rt.14/rw.5, menteng dalam, kota jakarta selatan",ChIJuRjcO4zzaS4RUa5WFynptng,1091.790630774465
indomaret mampang 7,4.1,207,-6.248328099999999,106.824029,"jl. mampang prapatan vii no.30, rt.1/rw.3, tegal parang, kota jakarta selatan",ChIJAxkWrNDzaS4RyfXBmyZF8qA,2624.979298282261
indomaret bukit duri tanjakan 106,0,0,-6.224636500000001,106.8590463,"3, jl. ismail no.13-18, rt.3/rw.9, bukit duri, kota jakarta selatan",ChIJ18ZbnBjzaS4RX9R3AMc2iP0,2218.863345116801
indomaret,4,7,-6.223765999999999,106.826793,"jl. prof. dr. satrio no.63, rt.11/rw.4, kuningan, karet kuningan, kota jakarta selatan",ChIJq-xEWLDzaS4RO4DqvG3IFd0,1653.7639365200873
indomaret bek murad fz7m,4.2,36,-6.216343999999999,106.8201923,"jl. bek murad no.36, rw.1, kuningan, karet kuningan, kota jakarta selatan",ChIJCzDmJsD1aS4RcZY18yQacU8,2714.4118922991
indomaret plus tebet timur dalam,4.5,255,-6.2403194,106.8557598,"jl. tebet timur raya no.29, rt.1/rw.8, tebet tim., kota jakarta selatan",ChIJWRooDKPzaS4R-oR5GrizSpE,2040.642441258183
indomaret bangka 2b,4.4,293,-6.242254099999999,106.8196646,"jl. bangka ii no.12, rt.5/rw.9, pela mampang, kota jakarta selatan",ChIJR_R8Od_zaS4RTFXXRKEDqVo,2578.6658353184675
