nama_tempat,rating_tempat,user_ratings_total,latitude,longitude,alamat_tempat,place_id,distance
indomaret soepomo,4.1,16,-6.2325019,106.8444327,"qr9v+2q4, jalan dr. soepomo, rt.1/rw.3, menteng dalam, kota jakarta selatan",ChIJw4Qe95TzaS4R4TukR0p9hZk,597.0391379870805
indomaret tebet,4.7,26,-6.2242003,106.8525338,"jl. kh abdullah syafei no.2, rt.12/rw.5, bukit duri, kota jakarta selatan",ChIJndinnI_zaS4RsBdPM7-_7mo,1337.2654479335354
indomaret tebet barat raya,4.4,15,-6.2383118,106.850335,"jl. tebet barat ix no.20, rt.5/rw.4, tebet bar., kota jakarta selatan",ChIJBxrDu73zaS4R_jKixhfyWEE,341.0814749562869
indomaret duren tiga raya. tuoi,4,27,-6.2534709,106.8404797,"jalan duren tiga barat no.32, rt.1/rw.1, duren tiga, pancoran, rt.1/rw.1, pancoran, kota jakarta selatan",ChIJkzb3EMrzaS4RXv7xWnaXfb8,2185.8577114764685
indomaret pengadegan timur,4.3,57,-6.248453899999999,106.8587205,"jl. pengadegan timur raya no.2, rt.3/rw.2, pengadegan, kota jakarta selatan",ChIJqUxFMa_zaS4Rb6WsdUlLWrQ,1796.775664110457
indomaret abdullah syafei 45c,4.7,6,-6.2258963,106.8575556,"jalan kh. abdullah syafei no.45 1 2, rt.4/rw.1, manggarai sel., kota jakarta selatan",ChIJ63NDeWPzaS4RHVCnhEWtXTU,1452.132937784401
indomaret of pengadegan,3.9,65,-6.2516495,106.849876,"jl. pengadegan selatan viii no.5b, rt.9/rw.5, pengadegan, kota jakarta selatan",ChIJPRf2ebHzaS4R2AqgbPWyqrI,1783.6531701104016
indomaret tebet raya,4.3,37,-6.230342299999999,106.8514366,"jl. tebet raya no.30 a, rt.2/rw.2, tebet bar., kota jakarta selatan",ChIJV7cl6pDzaS4RnpIsEEg4Wik,656.9639922967949
indomaret abdulah syafei - kp. melayu,0,0,-6.224908399999999,106.866034,"qvg8+2cv, rt.2/rw.1, bidara cina, east jakarta city",ChIJZ32HrG3zaS4RDEdM-8JgtKs,2246.9149087204933
indomaret al barkah,4.6,18,-6.2204901,106.8472328,"jl. albarkah no.20, rt.7/rw.3, manggarai sel., kota jakarta selatan",ChIJk___P4nzaS4RKHnkXKOuy64,1694.0218542841765
indomaret supomo 2,3.9,40,-6.239277899999999,106.8456902,"jl. prof. dr. soepomo no.02, rt.14/rw.6, tebet bar., kota jakarta selatan",ChIJXRviXL7zaS4RE8cUq9rXJQc,531.4573974348679
indomaret pangadegan utara,4.4,142,-6.2459671,106.8555993,"no., jl. pengadegan utara no.12a, rt.6/rw.7, cikoko, kota jakarta selatan",ChIJrevYYKXzaS4RywexQtwJGqY,1371.2971614415999
indomaret abdullah syafei,3.6,8,-6.2240566,106.8527215,"jl. abdullah syafe'i no.1 bukit duri, tebet, rt.12/rw.1, south manggarai, south jakarta city",ChIJw3pmkY7zaS4RzEJnuWOCvuI,1358.9321385505834
indomaret asem baris,4.1,23,-6.2389963,106.8602569,"jl. asem baris raya no.1, rt.6/rw.13, kb. baru, kota jakarta selatan",ChIJuZeA4KHzaS4RO8kOMnZzjnw,1318.7852007819313
indomaret pancoran barat 7 tfpc,4.8,8,-6.251975799999999,106.8368081,"jl. pancoran barat vii no.9a, rt.8/rw.1, duren tiga, kota jakarta selatan",ChIJEYrs5dDzaS4RJRZWtIRczmM,2249.1906941044867
indomaret pancoran 7,4.1,31,-6.2497874,106.8365148,"jl. pancoran barat vii, rt. 013 / rw. 006, pancoran, mampang prapatan, rt.12/rw.6, pancoran, kota jakarta selatan",ChIJY3w000zyaS4RJpAudy3L5V4,2078.7816477388983
indomaret tebet timur dalam raya,4.4,11,-6.236383699999999,106.8568272,"jl. tebet timur dalam raya no.29, rt.11/rw.7, tebet tim., kota jakarta selatan",ChIJzddog5jzaS4RM7Gl9dS3Gbs,889.7029900680635
indomaret tegal parang. t986,4.1,9,-6.2464648,106.8322217,"qr3j+cw7, jl. tegal parang, rt.7/rw.5, tegal parang, kota jakarta selatan",ChIJezNcc8XzaS4RsQx_12LcMCA,2193.4193621728373
indomaret convenience store,4.3,73,-6.2258324,106.858882,"jl. bukit duri tanjakan no. 1 rt 12/ rw 02 rt.3, rt.1/rw.9, bukit duri, kota jakarta selatan",ChIJy6qqaoTzaS4RC_J-x2TbxZU,1558.533586575249
indomaret tegal parang 2. ts86,3.9,33,-6.2441983,106.8324248,"jl. tegal parang utara no.35, rt.7/rw.4, mampang prpt., kota jakarta selatan",ChIJF1D19sTzaS4Rw9CnBydlgJM,2046.039644140059
indomaret mt haryono,4.3,3,-6.2422974,106.8551682,"menara mt. haryono, jl. mt. haryono kav 23, rt.12/rw.5, tebet timur, tebet, rt.10/rw.9, tebet tim., kota jakarta selatan",ChIJHQAAwJnzaS4RX1MjemHCBZM,1020.2542767626059
indomaret pancoran barat 34,0,0,-6.251983999999999,106.8367253,"jl. pancoran barat vii no.34, rt.8/rw.6, duren tiga, kota jakarta selatan",ChIJncPt8wXzaS4RDxKhwvnyVpg,2255.336874311589
indomaret mampang 8. t5wi,3.9,17,-6.2477205,106.8306366,"jalan mampang prapatan viii, rt.03 / rw.02, tegal parang, mampang prapatan, rt.3/rw.2, tegal parang, kota jakarta selatan",ChIJ_xUj9s_zaS4RuolU_sbnxqY,2416.595642386373
indomaret kampung melayu besar,4.2,9,-6.2252467,106.8628154,"jl. kampung melayu besar no.18 rt. 10 / rw. 02, kebon baru, tebet, rt.1/rw.1, kb. baru, kota jakarta selatan",ChIJD391JYPzaS4RQJHI5zLfWfg,1931.913139176717
indomaret wisma staco,5,2,-6.2246197,106.8401752,"wisma staco, jl. raya casablanca no.4, rt.4/rw.12, menteng dalam, kota jakarta selatan",ChIJTYdPFlzzaS4R4JoaMHSAiPY,1553.7730665334211
indomaret casablanca,3.7,22,-6.2250076,106.8428196,"jalan casablanca, rt. 07 / rw. 11, menteng dalam, tebet, rt.7/rw.11, menteng dalam, kota jakarta selatan",ChIJVaFRO43zaS4R9wZv9oxkGeI,1355.576583584178
indomaret apartemen casablanca,1,1,-6.2232986,106.8453453,"jl. raya casablanca no.14, rw.5, menteng dalam, kota jakarta selatan",ChIJV4P3VhjzaS4RnuDMhqW9W2w,1425.2112876679475
indomaret,0,0,-6.2299609,106.8664826,"qvc8+2h9, rw.1, kampung melayu, east jakarta city",ChIJZbxsMgvzaS4ROsamm2cDWG0,2052.85126204471
indomaret tebet barat in tk29,4.2,149,-6.2383462,106.847226,"jl. tebet barat dalam ivd no.88, rw.6, tebet bar., kota jakarta selatan",ChIJ7ahV373zaS4Rm9rs7VrGTVg,347.95820800749
indomaret asembaris 2. tc71,3.8,10,-6.2292648,106.8590207,"jalan asem baris, rt.5/rw.5, kebon baru, tebet, rt.5/rw.5, kb. baru, kota jakarta selatan",ChIJ95g2h5vzaS4R0qUPfUiXjys,1332.7750483237244
indomaret tower 1,0,0,-6.2514995,106.861901,"pvx6+cq3, jl. pengadegan timur i, rt.7/rw.1, pengadegan, kota jakarta selatan",ChIJGYiD7b_zaS4RVrXT4JRudmo,2280.6770800387753
indomaret tower 3,0,0,-6.2523677,106.8615916,"apartemen pancoran riverside tower 3, jl, jl. pengadegan timur i no.30, rt.6/rw.1, pengadegan, south jakarta city",ChIJV7ZuexPzaS4Raja2xYYiJ_I,2335.2596089821886
indomaret,0,0,-6.2467067,106.8549365,"rw.7, pengadegan, kota jakarta selatan",ChIJZ0DyfMnzaS4RJ9jFt8abwmQ,1404.0935521126833
indomaret plaza festival,3.4,10,-6.2212209,106.8328964,"qrhm+g56, rt.2/rw.5, karet kuningan, south jakarta city",ChIJMUTCa23zaS4RHTh8p6ntkmM,2380.6245522638214
indomaret lapangan tembak 3,4,1,-6.2402503,106.8557039,"jl. lapangan tembak no. 08 rt. 02 rw. 10, rt.1/rw.8, east tebet, south jakarta city",ChIJE3_-BaPzaS4Rs0YHJv9N4H0,917.9373456081353
indomaret pal batu 36,4.3,70,-6.2247397,106.8447512,"jl. pal batu raya no.36, rt.13/rw.4, menteng dalam, kota jakarta selatan",ChIJtX8wqY3zaS4RTpmMPQzAFbg,1292.914045591454
indomaret plus rasamala,4.1,61,-6.2336278,106.8395619,"jl. rasamala raya no.26, rt.7/rw.9, menteng dalam, kota jakarta selatan",ChIJtaqqauvzaS4RnSCep_ghRMM,1046.8488430829952
indomaret dr. saharjo,4.2,16,-6.2160036,106.8440714,"jl. dr. saharjo no.109, rt.2/rw.10, manggarai sel., kota jakarta selatan",ChIJk___P4nzaS4R-mx5t36xeEE,2245.8821040598345
indomaret menara kuningan,5,2,-6.2186328,106.8300399,"6, jl. denpasar no.7, rt.6/rw.7, kuningan, karet kuningan, kota jakarta selatan",ChIJX77vnO3zaS4RglK4CERSUh4,2807.852070588186
indomaret apartemen pancoran riverside ftnt,4.4,16,-6.251923499999999,106.8616752,"jl. pengadegan timur i no.30, rt.6/rw.1, pengadegan, kota jakarta selatan",ChIJT9K7ZKnzaS4RYVbkqs38TuU,2301.817526183856
indomaret bukit duri tanjakan 106,0,0,-6.224636500000001,106.8590463,"3, jl. ismail no.13-18, rt.3/rw.9, bukit duri, kota jakarta selatan",ChIJ18ZbnBjzaS4RX9R3AMc2iP0,1666.6188601667077
indomaret tower 2,0,0,-6.2516153,106.861321,"pvx6+9g, pengadegan, south jakarta city",ChIJuzWu8LvzaS4Ra3ud2A7lDHo,2250.704135896537
indomaret,4.4,75,-6.216285699999999,106.843786,"qrmv+fgp, rt.1/rw.7, menteng atas, south jakarta city",ChIJE27Ce3X0aS4RwPqn75uJU88,2223.0669723152196
indomaret signature park,4.3,3,-6.242484,106.854727,"mt haryono st no.10, rw.9, east tebet, south jakarta city",ChIJ71RBBiPzaS4RzLWpLbPWU80,1002.9507842080247
indomaret,4.2,421,-6.229205299999999,106.8474494,"jl. prof supomo no 321 blok bz persil no 19, rt.13/rw.2, tebet barat, rt.13/rw.2, tebet bar., kota jakarta selatan",ChIJxf__P5bzaS4RZ7KfkYohoDc,731.598213372768
indomaret gudang peluru,4.8,13,-6.2255444,106.8622325,"jl. gudang peluru raya no.b1, rt.1/rw.1, kebon baru, south jakarta city",ChIJM_MGcAHzaS4RaWCJ-tf_NBA,1860.519868797473
indomaret - spbu pancoran tjrt,3.1,10,-6.246947,106.8424352,"qr3r+6x7, rt.1/rw.4, pancoran, south jakarta city",ChIJpzdhkdPzaS4R8PAP1nFVLYE,1441.08096500914
indomaret casablanca mansion fl12,4,4,-6.223185200000001,106.8461687,"qrgw+qf6, apartemen casablanca mansion jalan casablanca setia budi, rt.14/rw.5, menteng dalam, kota jakarta selatan",ChIJuRjcO4zzaS4RUa5WFynptng,1415.8093555432772
indomaret,5,1,-6.2256068,106.8622342,"qvf6+qv5, rt.12/rw.9, bukit duri, south jakarta city",ChIJn03pAwTzaS4R0bJEXJlngZc,1856.4901901763426
indomaret minangkabau dalam,4.2,195,-6.215694699999999,106.8422542,"jl. minangkabau dalam no.1, rt.4/rw.14, menteng atas, kota jakarta selatan",ChIJt9agVXX0aS4RMX9VQephLU0,2333.6877209320874
indomaret plus tebet timur dalam,4.5,255,-6.2403194,106.8557598,"jl. tebet timur raya no.29, rt.1/rw.8, tebet tim., kota jakarta selatan",ChIJWRooDKPzaS4R-oR5GrizSpE,927.3570807724624
indomaret basuki rahmat 10,4.8,9,-6.225012299999999,106.8686902,"qvf9+xfw, rt.13/rw.1, bali mester, east jakarta city",ChIJseq4IvvzaS4RkFLeN9IEZOk,2495.0402742904625
