nama_tempat,rating_tempat,user_ratings_total,latitude,longitude,alamat_tempat,place_id,distance
indomaret,4,3,-6.2511809,106.7781617,"jl. pahlawan no.2, rw.10, kby. lama utara, kota jakarta selatan",ChIJI231igTxaS4RKIR6Aki7DBw,1998.13540511665
indomaret,5,1,-6.2321661,106.769049,"jl. h. husin no.7, rt.7/rw.13, grogol sel., kota jakarta selatan",ChIJ7wOa9NjwaS4RlE5wVtVplPI,1170.5950255596745
indomaret ciputat raya ta3p,4.3,59,-6.2585712,106.7773998,"jl. ciputat raya no.35, rw.10, kby. lama sel., kota jakarta selatan",ChIJd734LwfxaS4R9GSRMspZ-XE,2502.0301653643846
indomaret,4,1,-6.2444003,106.7725752,"jl. peninggaran raya no.9, rw.11, kby. lama utara, kota jakarta selatan",ChIJSY442R3xaS4RiKFQ5S2VbxE,1095.930369435522
indomaret kebayoran lama 3,4.5,24,-6.2330232,106.7804064,"jl. raya kby. lama no.227, rt.10/rw.1, grogol sel., kota jakarta selatan",ChIJob7ukyTxaS4RigRph3C5HUU,2090.808491219455
indomaret bintaro graha,4.3,18,-6.2573003,106.7640903,"jl. bintaro permai, rt.2/rw.9, bintaro, kota jakarta selatan",ChIJt____1DwaS4RKkfX8UBEtdo,1815.8959218283915
indomaret sultan iskandar muda,4.2,95,-6.2511828,106.7813003,"jl. sultan iskandar muda no.9, rt.8/rw.1, kby. lama sel., kota jakarta selatan",ChIJ74HObQXxaS4RUip6zNyV5gE,2292.4367069907203
indomaret panjang cidodol 3,4.4,14,-6.2321222,106.769101,"jl. masjid cidodol rt. 009 / rw. 012 no: 65a, rt.7/rw.9, south grogol, south jakarta city",ChIJGwAAADvxaS4RE8wz9nSvxB4,1177.8234979465947
indomaret anggrek petukangan,4,10,-6.231106,106.7557339,"jl. anggrek, rt.7/rw.5, petukangan utara, kota jakarta selatan",ChIJz6qqqsnwaS4R5k7p_0d1KX8,1379.2533018291304
indomaret bungur raya2 {fuff},4,18,-6.2450426,106.780055,"jalan bunguran, rt.12/rw.2, kby. lama sel., kota jakarta selatan",ChIJ_46xkBrxaS4ReC4bR5CD23A,1908.9646571102965
indomaret ciputat raya 2,4.4,22,-6.2463603,106.7796743,"jl. raya ciputat, rt.8/rw.4, kby. lama utara, kota jakarta selatan",ChIJfYz0UxrxaS4RDiV8YKP8J24,1908.7474161790772
indomaret kodam bintaro,4.4,82,-6.2590333,106.7597615,"pqr5+9wp, jl. bintaro permai, rt.4/rw.3, pesanggrahan, kota jakarta selatan",ChIJs2ElFvjwaS4RxGz06AXOrTg,2043.5477140357887
indomaret ciledug petukangan,4.5,30,-6.236263,106.74756,"jl. ciledug raya no.6b, rt.10/rw.2, petukangan utara, kota jakarta selatan",ChIJzQet4L7waS4RFeApilyOjfw,1814.6456816545071
indomaret saidi raya,4.2,13,-6.241212699999999,106.7563251,"jl. m.saidi raya no: 62 rt. 009 / rw. 01, petukangan selatan, pasanggrahan, rt.7/rw.5, petukangan sel., kota jakarta selatan",ChIJe35tSOjwaS4R6QeisbhjlkM,768.3932873377474
indomaret,3,2,-6.228463899999999,106.7470185,"jl. h. muchtar raya no.1, rw.11, petukangan utara, kota jakarta selatan",ChIJ91a9IMjwaS4RIcKoAkrR_dM,2273.3636697002166
indomaret,4.7,7,-6.2534879,106.7758737,"jl. bintaro raya no.17, rt.013/rw.10, kby. lama sel., kota jakarta selatan",ChIJY1VVVQTxaS4RtmETuVP403E,1967.5559167588497
indomaret kebayoran lama 1,4.2,373,-6.2381749,106.7808075,"jl. raya kby. lama no.4, rt.2/rw.1, kby. lama utara, kota jakarta selatan",ChIJodfvliLxaS4RpMCXWAnHq3Q,1963.3110543207044
indomaret spbu ciputat. t04d,4.9,7,-6.2479081,106.7781297,"jl. ciputat raya no.12, rt.8/rw.8, kby. lama utara, kota jakarta selatan",ChIJh3nZSBvxaS4RZ-S7enqBkV0,1813.4449869414339
indomaret kebayoran lama 242,4.5,130,-6.231951899999999,106.7803754,"jl. raya kby. lama no.242, rt.11/rw.1, grogol sel., kota jakarta selatan",ChIJM8eV5iTxaS4RwEvXAASHlko,2140.9717979455
indomaret jalan masjid cidodol,4.3,46,-6.2321668,106.769016,"jl. masjid cidodol no.55-58, rt.7/rw.12, grogol sel., kota jakarta selatan",ChIJJUPMjNjwaS4RdFqvhCYBXTs,1168.544147771225
indomaret cipulir 1. t2z0,4.2,186,-6.235679999999999,106.7734791,"jl. cipulir i no.4, rt.12/rw.4, cipulir, kota jakarta selatan",ChIJy6BN4CDxaS4RsVFxeRXbZhc,1273.3098229182663
indomaret pesanggrahan bintaro,3.6,14,-6.250045900000001,106.7566562,"jl. garuda no.27, rt.5/rw.6, pesanggrahan, kota jakarta selatan",ChIJD9RtOvDwaS4RhDJlnkZFfoE,1244.5746274666828
indomaret pesanggrahan permai,3.9,15,-6.237529299999999,106.7545527,"jl. pesanggrahan iv, rt.1/rw.7, petukangan sel., kota jakarta selatan",ChIJz6qqqsnwaS4RxD9ldK9oKKo,1037.8767125297884
indomaret darul fallah 2,4.5,238,-6.235983099999999,106.7512009,"jl. masjid darul falah no.13, rw.2, petukangan utara, kota jakarta selatan",ChIJgQybDsHwaS4R6ga_XdZJ78Q,1445.885487775648
indomaret swadarma 2 {tc5e},4,98,-6.236108,106.7608682,"jl. swadarma raya blok haji nuh 1 no.9, rt.10/rw.3, ulujami, kota jakarta selatan",ChIJl0Lx7NzwaS4RvKVM6oOutyw,604.4221656198946
indomaret damai pesanggrahan,4.2,9,-6.242483699999999,106.7558974,"jl. damai no:71 rt 005/ rw 005, petukangan selatan, pasanggrahan, rt.7/rw.5, south petukangan, south jakarta city",ChIJcwAAAOnwaS4RyejTwt6YERQ,832.0198695217691
indomaret,5,1,-6.242818199999999,106.7519549,"jl. kemajuan no.40, rw.2, petukangan sel., kota jakarta selatan",ChIJZetr6vrxaS4RsX9Sa2zGjK0,1267.4684069757616
indomaret ciledug raya 2,4.3,9,-6.238261,106.7717106,"jl. seskoal no.11, rt.8/rw.11, cipulir, kota jakarta selatan",ChIJ6aVHOCDxaS4R6MCZegYiQ0Q,980.7787481860038
indomaret swadarma 3,5,4,-6.233315999999999,106.7605835,"jl. swadarma raya no 26 rt 001 rw 008, rt.11/rw.5, ulujami, south jakarta city",ChIJ4___P-fwaS4R-yxrxTiWMmQ,903.5942175282091
indomaret ciledug sangrilla,4,1,-6.2366825,106.7501446,"jl. ciledug raya no.12a, petukangan selatan, pesanggrahan, rt.1/rw.3, south petukangan, south jakarta city",ChIJbfGEHcHwaS4RxKnoSu1bIxk,1528.162820943762
indomaret saidi raya 2. tckr,4.3,121,-6.2451289,106.7569883,"no., jl. m. saidi raya no.54, rt.1/rw.5, petukangan sel., kota jakarta selatan",ChIJAZgxPO_waS4RSgVSHG9MFBc,833.3143167607543
indomaret ciledug raya. trl0,4.3,256,-6.2364187,106.7579387,"jl. ciledug raya no.51, rt.6/rw.4, petukangan utara, kota jakarta selatan",ChIJCfldOcPwaS4RtrLi0yMazkU,778.4742005001262
indomaret damai 2 to1u,3.9,77,-6.246344,106.7517615,"jl. damai raya no.17, rt.12/rw.2, petukangan sel., kota jakarta selatan",ChIJ8QWqFezwaS4R_5w0mAxs9dU,1404.8242953982892
indomaret raya muchtar. tp70,4.5,178,-6.228802099999999,106.7468449,"jl. h. muchtar raya no.9a, rt.6/rw.1, petukangan utara, kota jakarta selatan",ChIJG6pO37fwaS4RdYDjCTDUWMc,2265.868819752574
indomaret ulujami,3.9,89,-6.2410821,106.7629435,"jl. ulujami raya no.11, rt.11/rw.5, ulujami, kota jakarta selatan",ChIJ4___P-fwaS4Ra-rEZZq9-CM,37.8400696808842
indomaret assirot,4.3,156,-6.225558899999999,106.7751594,"jl. assirot no.6a, rt.5/rw.5, grogol sel., kota jakarta selatan",ChIJ8VBSPinxaS4Rsng_u-K88hw,2161.1174114792716
indomaret panjang cidodol 2 (tg26),3.8,8,-6.227386999999999,106.772065,"qqfc+2rv, jl. panjang cidodol, rt.14/rw.6, grogol sel., kota jakarta selatan",ChIJK5X2RyjxaS4RyPDN-Qxm35w,1797.869689673146
indomaret al mubarok 1,4.6,80,-6.239336199999999,106.7710655,"jl. al mubarok 1 no.14, rt.8/rw.6, cipulir, kota jakarta selatan",ChIJuVSpxN_waS4Rm819BJDCdw0,880.760602470321
"indomaret, taman alfa indah. t039",4.4,163,-6.2241206,106.7548738,"jl. taman alfa indah blok k. 1 no.46-47, rt.10/rw.7, petukangan utara, kota jakarta selatan",ChIJe6ZjJMzwaS4RkAqiCOaJD-E,2092.964930091048
indomaret,5,3,-6.2375076,106.7638955,"jl. ciledug raya no.59, rt.1/rw.3, ulujami, kota jakarta selatan",ChIJSaRPzt3waS4R3DqqT8nucVY,393.26991573709086
indomaret kostrad pusri,4.8,17,-6.2337088,106.7574351,"jl. kostrad pusri (sp.mitra diskon) no. 2a, petukangan utara, pasanggrahan, rt.2/rw.11, north petukangan, south jakarta city",ChIJz6qqqsnwaS4RAC370aGrhq4,1035.319565862149
indomaret delman utama. {f763},4,123,-6.247976299999999,106.7728671,"jl. delman utama, rt.2/rw.11, kby. lama utara, kota jakarta selatan",ChIJR9-Fph3xaS4R5_wCOsFGSn0,1314.5916577788942
indomaret pesanggrahan bintaro (tp12),4.1,20,-6.254884199999999,106.7566629,"jalan uluhjami, rt.12/rw.6, pesanggrahan, rt.12/rw.6, pesanggrahan, rt.12/rw.6, pesanggrahan, kota jakarta selatan",ChIJex_w2-_waS4R6VXC2vkXSFA,1709.0443618538184
indomaret amd manunggal,4.4,209,-6.2303346,106.7508204,"jl. amd manunggal v no.2, rw.10, petukangan utara, kota jakarta selatan",ChIJr5QeJsbwaS4RabTVm0qv1rA,1816.1634645486645
indomaret plus,0,0,-6.2240492,106.7547125,"jl. taman alfa indah no.10, rw.7, petukangan utara, kota jakarta selatan",ChIJKxJkI8zwaS4RTDk1MNNsXKU,2108.0264087044225
muchtar indomaret kingdom 2. fvpx,3.8,19,-6.230582300000001,106.7456635,"jl. h. muchtar raya no.01, rt.5/rw.1, petukangan utara, kota jakarta selatan",ChIJr4-HGLjwaS4Ragtsic4Yjus,2264.5388972514943
indomaret peninggaran raya,4.2,18,-6.2443344,106.7725693,"jl. peninggaran raya no.9, kby. lama utara, kota jakarta selatan",ChIJmemSdh7xaS4R82TubBojfuI,1092.8031253431063
kebayoran lama indomaret assirot,4.7,213,-6.2253634,106.7782561,"jl. raya kby. lama no.n 44, rt.7/rw.1, grogol sel., kota jakarta selatan",ChIJeZWj6y7xaS4RkU4hCYZW7ig,2400.4522770931135
indomaret darul fallah tp13,4.4,159,-6.2333969,106.7515457,"jl. mesjid darul falah no.29d, rt.4/rw.2, petukangan utara, kota jakarta selatan",ChIJV2qZoMXwaS4RiQyhGgeG1xQ,1547.0042953353884
indomaret bungur raya 2,4.8,77,-6.2476761,106.7817145,"jl. duku raya no.79-81, rt.14/rw.6, kby. lama utara, kota jakarta selatan",ChIJhV_DfRrxaS4Ry97kNCuA-dY,2169.79206865493
indomaret swadarma 1. texu,4.5,60,-6.228395799999999,106.7606678,"qqc6+j7v, jl. swadarma raya, rt.1/rw.2, ulujami, kota jakarta selatan",ChIJOwckatDwaS4RpIzxDLhO1EM,1429.6931156783664
indomaret inpres pertukangan. txtt,4,7,-6.2431066,106.7485969,"no., jl. inpres no.54, rt.14/rw.2, petukangan sel., kota jakarta selatan",ChIJawlqH-vwaS4ROFHJDR7K8YI,1639.222329228035
indomaret damai pesanggrahan,4.4,102,-6.2487206,106.754172,"jl. damai raya no.5, rt.5/rw.5, petukangan sel., kota jakarta selatan",ChIJL-ueae7waS4RrdvbPbIBUlw,1323.2373353642815
