nama_tempat,rating_tempat,user_ratings_total,latitude,longitude,alamat_tempat,place_id,distance
indomaret,4,3,-6.2511809,106.7781617,"jl. pahlawan no.2, rw.10, kby. lama utara, kota jakarta selatan",ChIJI231igTxaS4RKIR6Aki7DBw,2592.3432476648136
indomaret ciputat raya ta3p,4.3,59,-6.2585712,106.7773998,"jl. ciputat raya no.35, rw.10, kby. lama sel., kota jakarta selatan",ChIJd734LwfxaS4R9GSRMspZ-XE,2011.39266611658
indomaret rawa papan,4.1,87,-6.2683369,106.7576132,"jl. rw. papan no.11, rt.5/rw.6, bintaro, kota jakarta selatan",ChIJjV_Ni1rwaS4RQfj-56QgK9w,465.3428424313068
indomaret,4.3,7,-6.2774015,106.7765376,"pertokoan taman hijau baru, jalan bukit hijau 1 no. 14, pondok pinang, kebayoran lama, rt.1/rw.13, pd. pinang, kota jakarta selatan",ChIJkx-NPnL4aS4RDbS5_c6xsp4,1942.7724498914417
indomaret bintaro graha,4.3,18,-6.2573003,106.7640903,"jl. bintaro permai, rt.2/rw.9, bintaro, kota jakarta selatan",ChIJt____1DwaS4RKkfX8UBEtdo,1203.648896049609
indomaret ciputat raya 1 {ttdq},4.6,7,-6.269582199999999,106.7748789,"jl. ciputat raya no.1 3 11, rt.3/rw.11, pd. pinang, kota jakarta selatan",ChIJY-C-8sPxaS4RnTlXQJ-0AgA,1458.0913163375983
indomaret,4.3,10,-6.2724123,106.7527205,"jl. bintaro utama i no.kav 9, rt.4/rw.8, bintaro, kota jakarta selatan",ChIJq8HgY0PwaS4R5UY58R60CRk,1122.7089892371582
indomaret pondok pinang,4.4,131,-6.277701,106.7728599,"jl. ciputat raya no.9, rt.1/rw.7, pd. pinang, kota jakarta selatan",ChIJFzBJ_bTxaS4R8JON9mw_ULs,1639.133909786348
indomaret kesehatan bintar,5,2,-6.267895800000001,106.7617975,"jl. kesehatan raya no.12, rt.10/rw.6, 11, bintaro, kota jakarta selatan",ChIJt____1DwaS4RX_eDTTWVP_k,1.4822364468545643
indomaret ciputat raya 5,4,1,-6.2776029,106.7794317,"jl. ciputat raya no.01, rt.11/rw.15, pd. pinang, kota jakarta selatan",ChIJE1VVVbbxaS4R4pD7bmqkkgI,2228.6431993035817
indomaret ciputat raya 5,4,27,-6.2711724,106.7755201,"indomaret, jl. ciputat raya no.5, rt.1/rw.6, pd. pinang, kota jakarta selatan",ChIJmeRBFrLxaS4RmHuZnxbwxI8,1560.1546635219022
indomaret kodam bintaro,4.4,82,-6.2590333,106.7597615,"pqr5+9wp, jl. bintaro permai, rt.4/rw.3, pesanggrahan, kota jakarta selatan",ChIJs2ElFvjwaS4RxGz06AXOrTg,1009.4156703989223
indomaret bintaro mulia.,2,2,-6.2609562,106.7672112,"jl. rc. veteran raya no.2, rt.10/rw.10, bintaro, kota jakarta selatan",ChIJcQydolXwaS4RhUhvgR38H7M,975.2461054214025
indomaret,4.7,7,-6.2534879,106.7758737,"jl. bintaro raya no.17, rt.013/rw.10, kby. lama sel., kota jakarta selatan",ChIJY1VVVQTxaS4RtmETuVP403E,2232.1218742507886
indomaret (bintaro utama),4.9,8,-6.2710224,106.7578861,"jl. taman bintaro no.194, rt.8/rw.11, bintaro, kota jakarta selatan",ChIJtXtyLz_xaS4RNegL6qVJ54I,555.7810993212336
indomaret ciputat 18,4.1,69,-6.2638128,106.7750009,"pqpg+f2c, jl. raya ciputat, rt.6/rw.1, pd. pinang, kota jakarta selatan",ChIJQzFdk6vxaS4Ri6I1vWvx4_s,1527.8387814461876
indomaret h. muhi,4.2,70,-6.2666653,106.7706362,"jl. haji muhi raya, rt.10/rw.4, pondok pinang, kebayoran lama, jl. h. muhi raya no.39, rt.10/rw.4, pd. pinang, kota jakarta selatan",ChIJTfxSM1PwaS4RgYyvQDCry1A,986.1785069311666
indomaret pesanggrahan bintaro,3.6,14,-6.250045900000001,106.7566562,"jl. garuda no.27, rt.5/rw.6, pesanggrahan, kota jakarta selatan",ChIJD9RtOvDwaS4RhDJlnkZFfoE,2063.1773886981405
indomaret rc veteran,4.4,223,-6.2645803,106.7664311,"jl. rc. veteran raya jl. dahlia no.42e, rt.9/rw.3, bintaro, kota jakarta selatan",ChIJUfoIE1TwaS4RtWJPNqpLxvY,630.1019118884727
indomaret depsos raya,4.3,294,-6.2635979,106.7636982,"jl. depsos raya no.4, rw.1, bintaro, kota jakarta selatan",ChIJfdJDkFbwaS4RzRPhnmq9ySw,520.6500580642422
indomaret spbu bintaro,4.6,48,-6.261597099999999,106.7569951,"pqq4+8rr, unnamed road, rt.6/rw.3, pesanggrahan, kota jakarta selatan",ChIJEf3pk_rxaS4R4b0T-ousRiQ,877.6892761132416
indomaret pupan ciputat,5,11,-6.2831678,106.7717267,"jl. pupan no: 01 rt 07 / rw 08, pondok pinang, kebayoran lama, rt.11/rw.15, pd. pinang, kota jakarta selatan",ChIJE1VVVbbxaS4RJVUwg--0dq4,2023.120301200032
rc indomaret veteran 2. f70u,4.2,19,-6.2763063,106.7624003,"pqf6+fxg, jl. rc. veteran raya, rt.3/rw.11, bintaro, kota jakarta selatan",ChIJEUakJUnwaS4R5nVu-_yApX4,939.0446973752587
indomaret pesanggrahan bintaro (tp12),4.1,20,-6.254884199999999,106.7566629,"jalan uluhjami, rt.12/rw.6, pesanggrahan, rt.12/rw.6, pesanggrahan, rt.12/rw.6, pesanggrahan, kota jakarta selatan",ChIJex_w2-_waS4R6VXC2vkXSFA,1552.8163075705909
indomaret puspita raya,4.5,124,-6.263565799999999,106.7568792,"jl. bintaro puspita raya no.9, rt.9/rw.2, pesanggrahan, kota jakarta selatan",ChIJN6SvsVnwaS4R7Dvnqx_sr4M,725.2799795811208
indomaret ciputat raya 4,4.1,18,-6.2829641,106.7806074,"jl. ciputat raya no.4, rt.9/rw.2, pd. pinang, kota jakarta selatan",ChIJd-fx6q3xaS4RLtxCS_G0RvY,2671.011631091664
indomaret,4.3,42,-6.2857772,106.7808844,"pq7j+p92, jl. metro pondok indah, rt.3/rw.14, pd. pinang, kota jakarta selatan",ChIJLWcbOM_xaS4RIMEFJuZjRvY,2899.914167214543
indomaret sultan iskandar muda,4.2,95,-6.2511828,106.7813003,"jl. sultan iskandar muda no.9, rt.8/rw.1, kby. lama sel., kota jakarta selatan",ChIJ74HObQXxaS4RUip6zNyV5gE,2845.1228910264767
indomaret - plaza satu pondok indah,4.2,9,-6.2843295,106.7811145,"jl. taman duta i no.7, rt.4/rw.14, pd. pinang, kota jakarta selatan",ChIJn2i-wMjxaS4RporVNR8Svs0,2811.183464700109
indomaret,4.7,3,-6.265670699999999,106.7753023,"rt.5/rw.2, pd. pinang, kota jakarta selatan",ChIJBXn-SFTxaS4R7R3uiSMUobE,1512.7212147494072
indomaret spbu ciputat. t04d,4.9,7,-6.2479081,106.7781297,"jl. ciputat raya no.12, rt.8/rw.8, kby. lama utara, kota jakarta selatan",ChIJh3nZSBvxaS4RZ-S7enqBkV0,2862.09956903295
bii atm indomaret bona indah 1,4.3,142,-6.2876105,106.7772803,"jl. lebak bulus 1, cilandak, jakarta selatan, rt.1/rw.1, lebak bulus, south jakarta city",ChIJF9Syud7xaS4RCaXavhh53AA,2782.138317667964
indomaret delman utama. {f763},4,123,-6.247976299999999,106.7728671,"jl. delman utama, rt.2/rw.11, kby. lama utara, kota jakarta selatan",ChIJR9-Fph3xaS4R5_wCOsFGSn0,2529.0884895387912
