nama_tempat,rating_tempat,user_ratings_total,latitude,longitude,alamat_tempat,place_id,distance
indomaret,3.6,10,-6.2627434,106.830664,"jl. warung buncit raya no.1 a, rt.5/rw.3, kalibata, kota jakarta selatan",ChIJ420LHDLyaS4RhHEuu5hwBX8,0
indomaret warung jati,5,1,-6.2613007,106.8289744,"jl. warung buncit raya no.25, rt.7/rw.3, kalibata, kota jakarta selatan",ChIJSXpPIvDzaS4RKSuxd1gXm2Q,0
kemang timur indomaret,4.2,207,-6.2639511,106.8236563,"jl. kemang timur no.38, rt.8/rw.3, bangka, kota jakarta selatan",ChIJQZigUinyaS4R4ofKanmV2lI,0
indomaret menara kuningan,5,2,-6.2186328,106.8300399,"6, jl. denpasar no.7, rt.6/rw.7, kuningan, karet kuningan, kota jakarta selatan",ChIJX77vnO3zaS4RglK4CERSUh4,0
indomaret plus,4,88,-6.2212663,106.8270455,"jl. karet pedurenan no.68a, rt.9/rw.4, kuningan, karet kuningan, kota jakarta selatan",ChIJFwAAAPnzaS4RSejras5dRMU,0
indomaret itc kuningan,0,0,-6.2235581,106.8259947,"jl. prof. dr. satrio no.18, rt.11/rw.4, kuningan, karet kuningan, kota jakarta selatan",ChIJDW3h1JDzaS4R8CQ1sNCxq94,0
indomaret pedurenan,4.4,99,-6.2222333,106.8261754,"jl. pedurenan masjid iii no.50, rt.8/rw.4, kuningan, karet kuningan, kota jakarta selatan",ChIJjyTKfPnzaS4RmgahJeqJgd8,0
indomaret guru mughni,4.1,41,-6.2269641,106.8213717,"jalan guru mughni no. c4, karet semanggi, setiabudi, rt.5/rw.2, karet semanggi, rt.5/rw.2, karet semanggi, kota jakarta selatan",ChIJ4T8PLOPzaS4RQDVcYaC-IGg,0
indomaret dr satrio 289,4.6,13,-6.2177327,106.8196168,"jalan professor doktor satrio no.289, karet kuningan, setiabudi rt.1/rw.1, kuningan, rt.1/rw.1, kuningan, karet kuningan, south jakarta city",ChIJf1IrAD3zaS4RP2uQZVJc8jY,0
indomaret,4,7,-6.223765999999999,106.826793,"jl. prof. dr. satrio no.63, rt.11/rw.4, kuningan, karet kuningan, kota jakarta selatan",ChIJq-xEWLDzaS4RO4DqvG3IFd0,0
indomaret bek murad fz7m,4.2,36,-6.216343999999999,106.8201923,"jl. bek murad no.36, rw.1, kuningan, karet kuningan, kota jakarta selatan",ChIJCzDmJsD1aS4RcZY18yQacU8,0
indomaret plaza festival,3.4,10,-6.2212209,106.8328964,"qrhm+g56, rt.2/rw.5, karet kuningan, south jakarta city",ChIJMUTCa23zaS4RHTh8p6ntkmM,0
indomaret karbela,4,35,-6.216086199999999,106.8232321,"jl. flamboyan no.1, rt.9/rw.3, kuningan, karet, kota jakarta selatan",ChIJQ7XctwD0aS4RfpVYI5dO7Tk,0
