nama_tempat,rating_tempat,user_ratings_total,latitude,longitude,alamat_tempat,place_id,distance
indomaret cikajang. f4o3,3.8,33,-6.2394178,106.8107532,"1, jl. cikajang no.1, rt.1/rw.5, petogogan, kota jakarta selatan",ChIJC8mjQGfxaS4RkOquMhj4bMM,0
indomaret birah senayan,4.1,168,-6.2353007,106.8152731,"no.13, jl. birah i no.1, rt.5/rw.6, rw. bar., kota jakarta selatan",ChIJkYWOBl_xaS4RmTTy6oeqFXc,0
indomaret cipaku 1 no. 33,0,0,-6.239303899999999,106.8121988,"jl. cipaku i no.2, rw.4, petogogan, kota jakarta selatan",ChIJXxPvJBLxaS4RtgUwzQoQGtQ,0
indomaret wolter mongonsidi,4.4,150,-6.2385571,106.817085,"1, jl. kapten tendean no.125, rt.1/rw.2, rw. bar., kota jakarta selatan",ChIJB9ECK93xaS4R_Mj4ihkqHJI,0
indomaret ciputat raya 5,4,1,-6.2776029,106.7794317,"jl. ciputat raya no.01, rt.11/rw.15, pd. pinang, kota jakarta selatan",ChIJE1VVVbbxaS4R4pD7bmqkkgI,0
indomaret metro pondok indah,4.3,480,-6.2743949,106.7827922,"blok tc, jl. metro pondok indah no.11, rt.2/rw.15, pd. pinang, kota jakarta selatan",ChIJm56pCbrxaS4RgzDUcFCWSR0,0
indomaret,4.3,7,-6.2774015,106.7765376,"pertokoan taman hijau baru, jalan bukit hijau 1 no. 14, pondok pinang, kebayoran lama, rt.1/rw.13, pd. pinang, kota jakarta selatan",ChIJkx-NPnL4aS4RDbS5_c6xsp4,0
