nama_tempat,rating_tempat,user_ratings_total,latitude,longitude,alamat_tempat,place_id,distance
indomaret spbu kemang,4.5,98,-6.2668841,106.8157034,"spbu kemang, jl. kemang raya no.7, rw.2, bangka, kota jakarta selatan",ChIJXaV9uofxaS4R737kEcz9UiE,0
indomaret kemang selatan 8 t6zo,4.5,225,-6.2674666,106.8139114,"jl. kemang selatan viii no.67f, rt.7/rw.2, bangka, kota jakarta selatan",ChIJDVvROIbxaS4RE-sW0bxd2kc,0
fresh indomaret kemang,4.4,382,-6.272597699999999,106.8149503,"jl. kemang raya no.128, rt.3/rw.2, bangka, kota jakarta selatan",ChIJsVZkdYnxaS4RtDwdFb5B2t0,0
indomaret pintu barat ragunan (t1y7),0,0,-6.3104305,106.8159192,"14, jl. margasatwa baru no.45, rw.8, jagakarsa, kota jakarta selatan",ChIJwcwxNEXvaS4RiKmoGQ6V0pU,0
indomaret plus cilandak kko (tmip),4.5,645,-6.3098246,106.8139564,"jl. raya cilandak kko no.3, rt.14/rw.8, ragunan, kota jakarta selatan",ChIJJ3rNnQjuaS4RWjDJ-zFTzR0,0
