nama_tempat,rating_tempat,user_ratings_total,latitude,longitude,alamat_tempat,place_id,distance
indomaret kemang mampang tjkc,3.4,16,-6.2555529,106.8123381,"jl. kemang raya no.15, rt.13/rw.1, bangka, kota jakarta selatan",ChIJN7p70X7xaS4R6VpOujMI_Wo,0
indomaret,0,0,-6.247488499999999,106.8149378,"jl. bangka iig no.11, rw.11, pela mampang, kota jakarta selatan",ChIJ-bHiAPTxaS4RQJ3di8P7F2g,0
indomaret,4.4,243,-6.2518104,106.8145478,"jl. bangka raya no.105, rt.1/rw.12, pela mampang, kota jakarta selatan",ChIJ0dTG_nzxaS4RT0V7owX_qpg,0
indomaret bangka raya,4.6,18,-6.245269400000001,106.8158177,"jl. bangka raya no. 30, rt. 02 / 02, pela mampang, bangka, rt.11/rw.11, pela mampang, kota jakarta selatan",ChIJETmoJH3xaS4R8_bMnW8Vt74,0
indomaret,5,2,-6.255084,106.8144756,"jl. bangka raya no.5d, rt.13/rw.1, bangka, kota jakarta selatan",ChIJna8wx9fxaS4RYJPoLhdWN9A,0
indomaret,4,3,-6.2511809,106.7781617,"jl. pahlawan no.2, rw.10, kby. lama utara, kota jakarta selatan",ChIJI231igTxaS4RKIR6Aki7DBw,0
indomaret,4.7,7,-6.2534879,106.7758737,"jl. bintaro raya no.17, rt.013/rw.10, kby. lama sel., kota jakarta selatan",ChIJY1VVVQTxaS4RtmETuVP403E,0
indomaret ciputat raya ta3p,4.3,59,-6.2585712,106.7773998,"jl. ciputat raya no.35, rw.10, kby. lama sel., kota jakarta selatan",ChIJd734LwfxaS4R9GSRMspZ-XE,0
indomaret sultan iskandar muda,4.2,95,-6.2511828,106.7813003,"jl. sultan iskandar muda no.9, rt.8/rw.1, kby. lama sel., kota jakarta selatan",ChIJ74HObQXxaS4RUip6zNyV5gE,0
indomaret spbu ciputat. t04d,4.9,7,-6.2479081,106.7781297,"jl. ciputat raya no.12, rt.8/rw.8, kby. lama utara, kota jakarta selatan",ChIJh3nZSBvxaS4RZ-S7enqBkV0,0
indomaret delman utama. {f763},4,123,-6.247976299999999,106.7728671,"jl. delman utama, rt.2/rw.11, kby. lama utara, kota jakarta selatan",ChIJR9-Fph3xaS4R5_wCOsFGSn0,0
indomaret bungur raya 2,4.8,77,-6.2476761,106.7817145,"jl. duku raya no.79-81, rt.14/rw.6, kby. lama utara, kota jakarta selatan",ChIJhV_DfRrxaS4Ry97kNCuA-dY,0
indomaret ciputat raya 2a-b,4.9,26,-6.2512092,106.7780693,"pqxh+g69, jl. ciputat raya, rt.9/rw.8, kby. lama utara, kota jakarta selatan",ChIJM0m-HlLxaS4R1ijwvB3yJVg,0
