nama_tempat,rating_tempat,user_ratings_total,latitude,longitude,alamat_tempat,place_id,distance
indomaret jeruk purut,4.5,132,-6.291164699999999,106.8129499,"jl. jeruk purut no.22, rt.3/rw.3, cilandak tim., kota jakarta selatan",ChIJvy_4mvnxaS4RjjbhIFaTp4Y,0
indomaret perempatan ampera,4.1,69,-6.2917269,106.8165986,"jalan ampera raya 2, rt.2/rw.2, cilandak tim., kota jakarta selatan",ChIJCTLyivjxaS4Rre-W6oaY4qE,0
indomaret cilandak raya,4.3,20,-6.297004200000001,106.8154176,"pr38+55x, jl. raya cilandak kko, rt.1/rw.5, ragunan, kota jakarta selatan",ChIJ-6Meqf_xaS4R99u9vNNVFjg,0
indomaret raya jagakarsa,4.4,221,-6.3273649,106.8163662,"no., jl. raya jagakarsa no.2, rt.10/rw.2, jagakarsa, kota jakarta selatan",ChIJnz15NXbuaS4RjtdQGUQE7gY,0
papaya indomaret jagakarsa,4.5,269,-6.325327300000001,106.8198997,"jl. pepaya raya no.4, rt.2/rw.5, jagakarsa, kota jakarta selatan",ChIJTTG_z9jtaS4RnfCTBd_V_Sw,0
indomaret ciremai jagakarsa,3.9,22,-6.3245086,106.8113082,"jl. m.kahfi 1 rt 01/rw 04, jagakarsa, jagakarsa, rt.2/rw.7, jagakarsa, south jakarta city",ChIJcQAAANntaS4RAesd4Pw1hXk,0
indomaret jagakarsa 1 no.1,4.5,196,-6.3322727,106.8204749,"mr9c+35v, townhouse jagakarsa, jl. jagakarsa 1, rt.3/rw.2, jagakarsa, kota jakarta selatan",ChIJnfhFPGLtaS4R8RAXOhmLRC4,0
