nama_tempat,rating_tempat,user_ratings_total,latitude,longitude,alamat_tempat,place_id,distance
"indomaret, blok m square",4,1,-6.2443244,106.7993778,"jl. melawai 6 no.3, rw.1, melawai, kota jakarta selatan",ChIJp6k1jNPxaS4RsvpHlCJjam4,0
indomaret melawai iv no 52,5,2,-6.2454911,106.80124,"3, jl. melawai iv no.52, rw.1, melawai, kota jakarta selatan",ChIJaWy44RjxaS4RORWqDRtDtk0,0
indomaret petogogan,4.2,21,-6.2503084,106.7941812,"jl. petogogan no.18, gandaria utara, kebayoran baru, pulo, rt.11/rw.7, rt.11/rw.7, pulo, kota jakarta selatan",ChIJ94ljMXPxaS4RH5R1BnmpJP8,0
indomaret melawai 6 no. 17,0,0,-6.2443244,106.7993621,"jl. melawai 6 no.17, rt.3/rw.1, melawai, kota jakarta selatan",ChIJZXQ3b1nxaS4RBDCbFsM3GfE,0
indomaret grand wijaya. t98c,4.2,55,-6.2532473,106.7993526,"grand wijaya blok b10, jl. wijaya ii, rt.6/rw.1, pulo, kota jakarta selatan",ChIJT8Q48HPxaS4RHGBGXmOUqp0,0
indomaret hasanudin 57,4,4,-6.2425243,106.8022062,"jl. sultan hasanudin no.53, rt.2/rw.1, melawai, kota jakarta selatan",ChIJ-ZfljI_xaS4RYqEvAOKUxi0,0
indomaret radio dalam. t06c,4.2,18,-6.2523025,106.7913861,"jl. radio dalam raya blok haji hamali no.22, rt.1/rw.9, gandaria utara, kota jakarta selatan",ChIJD3ss9gzxaS4RA85t5OGeHsk,0
indomaret melawai,4.4,110,-6.246081800000001,106.7998046,"jl. melawai raya no.17 melawai, kebayoran lama, rt.2/rw.1, melawai, south jakarta city",ChIJq2YU5W7xaS4RKF6o-6Mc-uA,0
indomaret kh ahcmad dahlan. {twxj},4.1,27,-6.2458778,106.7920332,"qq3r+jrr, jalan kh. achmad dahlan, rt.3/rw.1, kramat pela, kota jakarta selatan",ChIJuxnwDxPxaS4R4BeT2kbalvE,0
indomaret fave melawai (fm6s),0,0,-6.244421399999999,106.8015382,"jl. melawai iv no.3-11, rt.3/rw.1, melawai, kota jakarta selatan",ChIJZ_9u5ZDxaS4RtzyeEc5s00A,0
indomaret panglima polim 106,4.7,29,-6.2476908,106.7976133,"jl. panglima polim no.107, rw.5, b-c, kota jakarta selatan",ChIJI3U5C2XxaS4RdRRpbU-heos,0
indomaret ulujami 2,4.3,106,-6.2475986,106.7632979,"jl. ulujami raya jl. h. buang no.gg, rt.1/rw.7, ulujami, kota jakarta selatan",ChIJ4___P-fwaS4RZ-EO8PKFun8,0
indomaret pesanggrahan bintaro,3.6,14,-6.250045900000001,106.7566562,"jl. garuda no.27, rt.5/rw.6, pesanggrahan, kota jakarta selatan",ChIJD9RtOvDwaS4RhDJlnkZFfoE,0
indomaret saidi raya 2. tckr,4.3,121,-6.2451289,106.7569883,"no., jl. m. saidi raya no.54, rt.1/rw.5, petukangan sel., kota jakarta selatan",ChIJAZgxPO_waS4RSgVSHG9MFBc,0
indomaret ulujami,3.9,89,-6.2410821,106.7629435,"jl. ulujami raya no.11, rt.11/rw.5, ulujami, kota jakarta selatan",ChIJ4___P-fwaS4Ra-rEZZq9-CM,0
