nama_tempat,rating_tempat,user_ratings_total,latitude,longitude,alamat_tempat,place_id,distance
indomaret pasar minggu,4.5,2,-6.291435099999999,106.8419087,"jl. raya ps. minggu no.15d, rt.13/rw.5, ps. minggu, kota jakarta selatan",ChIJKdFjS4XzaS4RpmE0MI-N8hQ,1193.4501736460888
indomaret kemang timur raya {t01a},4,13,-6.2681964,106.8239824,"jalan kemang timur, rt.7/rw.3, bangka, mampang prapatan, rt.7/rw.3, bangka, kota jakarta selatan",ChIJ89CaVi_yaS4Rmq471uckjw0,2198.0546812361763
indomaret,3.8,10,-6.2961348,106.843599,"jl. poltangan raya no.19, rt.1/rw.4, tj. bar., kota jakarta selatan",ChIJd3ilG3XyaS4R7Y_rIePXcG4,1657.3640873403758
indomaret gurame raya,4.2,18,-6.2957984,106.8366216,"jl. gurame raya no.32, rt.2/rw.9, ps. minggu, kota jakarta selatan",ChIJgVaTJgryaS4RZDPX8Ifsn0A,1175.427434836367
indomaret simatupang 52,5,1,-6.3041554,106.8438925,"jl. tb simatupang no.52, rt.8/rw.4, tj. bar., kota jakarta selatan",ChIJZYivLIntaS4RYRVV5fqSKRw,2372.5218786580313
indomaret angsana,4.4,28,-6.2720279,106.8486037,"jl. angsana raya no.11, rt.10/rw.4, pejaten tim., kota jakarta selatan",ChIJJYdxEkTyaS4RUCWdYxW7wqA,2356.6385667610084
indomaret warung jati,4.1,127,-6.2694594,106.8377558,"jl. siaga raya no.7b, rt.12/rw.4, pejaten bar., kota jakarta selatan",ChIJCQpntznyaS4R5HJ1zQCwkB4,1927.7914502381789
indomaret warga siaga,4.5,20,-6.272292699999999,106.8391874,"jl. warga baru no.4b 17, rt.17/rw.3, pejaten bar., kota jakarta selatan",ChIJITbO1jjyaS4RS5lw3N7iBVM,1691.5441773360878
indomaret tb simatupang,3.5,19,-6.3039672,106.8508534,"jl. tb simatupang no.47, rt.12/rw.5, tj. bar., kota jakarta selatan",ChIJNWl0JY_taS4Rcf7n3fGXkxw,2838.911298576641
raya ragunan indomaret,4.1,17,-6.2858816,106.8301102,"jl. raya ragunan no.19, rt.2/rw.7, jati padang, kota jakarta selatan",ChIJBS7mhhDyaS4RwQ24c_CL25w,274.1922405892498
indomaret,4,44,-6.295587599999999,106.8453943,"jl. poltangan raya no.49, rt.5/rw.10, pejaten tim., kota jakarta selatan",ChIJvdo1THTyaS4RBoB9yjj3LdM,1770.8857657241347
indomaret pasar minggu,4.1,77,-6.2804467,106.844865,"jl. raya pasar minggu no.8, rt.6/rw.1, ps. minggu, kota jakarta selatan",ChIJz_____DtaS4R2Q5FIFxTxv8,1491.7341927913037
indomaret point ampera,4.3,264,-6.2819344,106.8197334,"5, jl. ampera raya no.135, rt.5/rw.10, ragunan, kota jakarta selatan",ChIJSdmaRR7yaS4Rz1S6S2xE9kw,1491.4823799111125
indomaret,4.9,7,-6.298130500000001,106.8299386,"plaza oleos, jl. tb simatupang, rt.2/rw.1, kebagusan, kota jakarta selatan",ChIJ4dtL_AfyaS4RF-C9eDUjQ0o,1378.3290414518258
indomaret taman margasatwa,4.3,21,-6.2892776,106.8242394,"jalan taman margasatwa no.18a, jati padang, rt.6/rw.1, ragunan, kota jakarta selatan",ChIJ2fZhrgTyaS4Rl1uCPiHU63Q,991.3018484675815
indomaret,5,1,-6.2794572,106.8335032,"prcm+59q, rt.13/rw.2, jati padang, south jakarta city",ChIJNb3Las7zaS4R0UHAjC6iv1A,736.487313358529
indomaret perempatan ampera,4.1,69,-6.2917269,106.8165986,"jalan ampera raya 2, rt.2/rw.2, cilandak tim., kota jakarta selatan",ChIJCTLyivjxaS4Rre-W6oaY4qE,1877.725254764884
indomaret,3.5,51,-6.285409400000001,106.8379601,"jl. raya ragunan no.9, rw.10, ps. minggu, kota jakarta selatan",ChIJmwb3rhPyaS4R_23xpv2E254,597.6881268341649
indomaret,4.3,84,-6.3045613,106.8437533,"jl. nangka raya no.5, rt.8/rw.5, tj. bar., kota jakarta selatan",ChIJ_57ljYztaS4RBUKmJ5rF0XA,2403.0688637313733
indomaret rm harsono no.1,0,0,-6.301390500000001,106.8214132,"mrxc+chv, rw.7, ragunan, south jakarta city",ChIJKzbH_nbtaS4RPC_zVyqnB5g,2108.8426219148546
indomaret cilandak raya,4.3,20,-6.297004200000001,106.8154176,"pr38+55x, jl. raya cilandak kko, rt.1/rw.5, ragunan, kota jakarta selatan",ChIJ-6Meqf_xaS4R99u9vNNVFjg,2256.898732272843
indomaret jeruk purut,4.5,132,-6.291164699999999,106.8129499,"jl. jeruk purut no.22, rt.3/rw.3, cilandak tim., kota jakarta selatan",ChIJvy_4mvnxaS4RjjbhIFaTp4Y,2244.6218084870384
indomaret mtrade teluk betung,0,0,-6.2993709,106.8399129,"jl. raya pasar minggu no.168, rt.4/rw.8, ps. minggu, kota jakarta selatan",ChIJ5RSsmVTtaS4RlacdijhrxSI,1691.2223331968019
indomaret kebagusan raya,4.5,400,-6.303428299999999,106.8267375,"mrwg+jpj, rt.8/rw.7, kebagusan, south jakarta city",ChIJbbdFCvntaS4RhngjQ_Gl0v0,2041.0783602369484
indomaret spbu,4.8,19,-6.2905671,106.8235708,"jl. warung jati barat no.28, rt.5/rw.1, ragunan, kota jakarta selatan",ChIJC4P6jYjzaS4RmEFhDQhpE7U,1117.5918785090366
indomaret salihara no 10a. t2li,0,0,-6.284196499999999,106.8380562,"jl. salihara no.13, rw.1, ps. minggu, kota jakarta selatan",ChIJWdIwMBPzaS4RLbHyiDEEYZ4,637.4908121027324
indomaret spbu kemang,4.5,98,-6.2668841,106.8157034,"spbu kemang, jl. kemang raya no.7, rw.2, bangka, kota jakarta selatan",ChIJXaV9uofxaS4R737kEcz9UiE,2830.0190897232715
indomaret rawa bambu,4.4,271,-6.2914141,106.8419168,"jl. raya rw. bambu no.14, rt.13/rw.5, ps. minggu, kota jakarta selatan",ChIJA00kMHPyaS4RzjSAlv_vnD4,1193.0469648662936
indomaret kemang selatan 8 t6zo,4.5,225,-6.2674666,106.8139114,"jl. kemang selatan viii no.67f, rt.7/rw.2, bangka, kota jakarta selatan",ChIJDVvROIbxaS4RE-sW0bxd2kc,2918.2294556149054
fresh indomaret kemang,4.4,382,-6.272597699999999,106.8149503,"jl. kemang raya no.128, rt.3/rw.2, bangka, kota jakarta selatan",ChIJsVZkdYnxaS4RtDwdFb5B2t0,2454.958317140913
indomaret rancho indah,3.2,14,-6.305132,106.8502399,"jl. rancho indah no.17, rt.1/rw.2, tj. bar., kota jakarta selatan",ChIJ76qqqo3taS4RkUk7x72ntOw,2885.136609760889
indomaret nangka 1,4.6,117,-6.3029362,106.8475626,"jl. nangka raya no.6, rw.5, tj. bar., kota jakarta selatan",ChIJh2Vkk9jtaS4R71LDz2IfqhU,2505.7225363304015
indomaret,4.6,81,-6.275748999999999,106.8414378,"jl. pejaten raya no.1b, rt.7, pejaten bar., kota jakarta selatan",ChIJ63ebeEDyaS4RkvBsuy-1j3o,1503.5686544770547
indomaret jatipadang no 2,4.4,204,-6.287836299999999,106.8293824,"jl. jatipadang utara no.1, rt.7/rw.9, jati padang, kota jakarta selatan",ChIJBa5dUV_zaS4Rpz5v0gMy_nU,407.8735476168128
