nama_tempat,rating_tempat,user_ratings_total,latitude,longitude,alamat_tempat,place_id,distance
alfamart,4.3,102,-6.272520099999999,106.8383983,"jl. siaga raya no.17, rt.4/rw.4 kel, pejaten bar., kota jakarta selatan",ChIJxRVKKDnyaS4RxtZdiPBr3f4,0
alfamart,2.8,4,-6.279772899999999,106.8375655,"jl. raya jatipadang no.kel, rt.8/rw.10, jati padang, kota jakarta selatan",ChIJIXz_vBXyaS4RCwm7-7rVjP4,0
alfamart pejaten 2,4.2,13,-6.2795707,106.8349757,"jl. pejaten raya (graha pejaten) no. 5 j-k, rt.7/rw.7, kel, kota jakarta selatan",ChIJnX2VLibzaS4RTmYUIBuSA9A,0
alfamart,4.4,124,-6.2726555,106.8465858,"jl. raya pasar minggu, rt.12/rw.005 kel, pejaten tim., kota jakarta selatan",ChIJx7JuK6HzaS4RmwoaiswInGQ,0
alfamart,4.3,102,-6.272520099999999,106.8383983,"jl. siaga raya no.17, rt.4/rw.4 kel, pejaten bar., kota jakarta selatan",ChIJxRVKKDnyaS4RxtZdiPBr3f4,0
alfamart,4.5,81,-6.2692393,106.8377635,"jl. siaga raya no.kel, rt.12/rw.0, pejaten bar., kota jakarta selatan",ChIJZ4vwWCzzaS4R9YOSWsktFtA,0
alfamart,4.1,48,-6.2658257,106.8352335,"jl.warung jati no.2, kel no.9, rt.4/rw.9, kalibata, kota jakarta selatan",ChIJa4P60zDyaS4R4wTgs1-cS5k,0
alfamart,4.3,119,-6.2661947,106.8408908,"jl. h. samali kel no.3, rt.1/rw.4, pejaten bar., kota jakarta selatan",ChIJkah0xDfyaS4RVVK-oIB1NjA,0
