nama_tempat,rating_tempat,user_ratings_total,latitude,longitude,alamat_tempat,place_id,distance
indomaret duren tiga raya. tuoi,4,27,-6.2534709,106.8404797,"jalan duren tiga barat no.32, rt.1/rw.1, duren tiga, pancoran, rt.1/rw.1, pancoran, kota jakarta selatan",ChIJkzb3EMrzaS4RXv7xWnaXfb8,0
indomaret pancoran barat 7 tfpc,4.8,8,-6.251975799999999,106.8368081,"jl. pancoran barat vii no.9a, rt.8/rw.1, duren tiga, kota jakarta selatan",ChIJEYrs5dDzaS4RJRZWtIRczmM,0
indomaret pancoran 7,4.1,31,-6.2497874,106.8365148,"jl. pancoran barat vii, rt. 013 / rw. 006, pancoran, mampang prapatan, rt.12/rw.6, pancoran, kota jakarta selatan",ChIJY3w000zyaS4RJpAudy3L5V4,0
indomaret h.maun,4.2,84,-6.258863799999999,106.8375135,"prrq+c2r, jl. duren tiga selatan, rt.8/rw.2, kalibata, kota jakarta selatan",ChIJI0tOwjTyaS4RLO_bH3X27As,0
indomaret - spbu pancoran tjrt,3.1,10,-6.246947,106.8424352,"qr3r+6x7, rt.1/rw.4, pancoran, south jakarta city",ChIJpzdhkdPzaS4R8PAP1nFVLYE,0
indomaret,4.3,3,-6.2167127,106.8127242,"qrm7+835, rt.5/rw.2, bendungan hilir, central jakarta city",ChIJTQh2UKv2aS4RKQet6SZxwrg,0
indomaret point mrt istora mandiri,3.7,6,-6.2225424,106.8086237,"istora mrt station, jl. jenderal sudirman, rt.1/rw.3, gelora, central jakarta city",ChIJQc2OjQzxaS4RfqiyqqO_NCw,0
