nama_tempat,rating_tempat,user_ratings_total,latitude,longitude,alamat_tempat,place_id,distance
alfamart,4,2,-6.253431399999999,106.8216615,"jl. bangka xi c kel no.26, rt.11/rw.10, pela mampang, kota jakarta selatan",ChIJ87K7nWvzaS4Rle3PP96wwFg,0
alfamart,4.2,283,-6.2491889,106.8186279,"jl. bangka ii kel no.1a, rt.8/rw.3, pela mampang, kota jakarta selatan",ChIJ-dormaPzaS4RlalyMly0C5M,0
alfamart,3.8,13,-6.2510088,106.8216417,"jl. pondok jaya vi no.31 rt.00 kel, rt.6/rw.6, pela mampang, kota jakarta selatan",ChIJmdxMydLzaS4R3PTMkWwbsm8,0
alfamart,0,0,-6.252799599999999,106.8268128,"jl. mampang prpt. 16 kel no.5, rt.1/rw.6, tegal parang, kota jakarta selatan",ChIJl_om9KjzaS4RGU8Vxu07GBo,0
alfamart,4.2,66,-6.2457614,106.8258046,"jl. mampang prpt. raya kel no.58 a, rt.9/rw.3, tegal parang, kota jakarta selatan",ChIJWVXFdyLzaS4R8xNLa-VEm_w,0
alfamart,4.4,24,-6.2572531,106.8177386,"jl. kemang utara, no. 12 d-e, rt. 006/005, kel, rt.6/rw.1, bangka, kota jakarta selatan",ChIJtQRU4H_xaS4R4f3Hqd6dnFE,0
alfamart,4.2,120,-6.245465,106.8186523,"jl. bangka ii kel no.29l, rt.17/rw.2, pela mampang, kota jakarta selatan",ChIJE2FoiNjzaS4RkuhZJgb9Stg,0
alfamart mampang prapatan 2 (kb48),4,4,-6.2527525,106.8268743,"jl. warung buncit raya no.5, rt.4/rw.6, tegal parang, kota jakarta selatan",ChIJgePHgdHzaS4RcdWxMOdPfeA,0
alfamart,4.1,175,-6.249124,106.8586472,"jl. pengadegan timur raya no.17, rt.3/rw.2, pengadegan, kota jakarta selatan",ChIJSRHaLq_zaS4RM3bNCU2HZd8,0
alfamart,0,0,-6.2514477,106.8618801,"jl. pengadegan timur i no.30, rt.7/rw.1, pengadegan, kota jakarta selatan",ChIJ1YYQJfXzaS4RtiFyuIT23go,0
alfamart,4.3,271,-6.246529199999999,106.8553284,"5 jalan pengadegan utara kel no. 6 2, cikoko, kota jakarta selatan",ChIJSzw7gK_zaS4R5IGShG4jJTk,0
alfamart express,0,0,-6.2425745,106.8586384,"jl. tebet timur raya no.55, rw.14, tebet tim., kota jakarta selatan",ChIJA4mAfRjzaS4RW9IHZeqsAaw,0
alfamart,0,0,-6.2550819,106.8562552,"woodland park residence tower trembesi, jl. raya kalibata kel no.22, rt.6/rw.7, rawajati, kota jakarta selatan",ChIJGWu7SVDzaS4RQFrnntyC1lo,0
alfamart apartemen signature,3,2,-6.242746899999999,106.8545314,"jl. letjen m.t. haryono no.10, rw.9, tebet tim., kota jakarta selatan",ChIJaY52jS7zaS4Rhs70E5KpMKc,0
alfamart pengadengan barat,4.4,85,-6.245896,106.8555588,"jl. pengadegan barat raya no.21, rt.2/rw.6, pengadegan, kota jakarta selatan",ChIJD6Xy_f7zaS4RD9NxgaCPQ9I,0
