nama_tempat,rating_tempat,user_ratings_total,latitude,longitude,alamat_tempat,place_id,distance
alfamart,4.5,287,-6.258382699999999,106.7680629,"jl. rc. veteran raya no.17h, rt.4/rw.4, bintaro, kota jakarta selatan",ChIJ19nrzXjxaS4R0lQ2di-0Tl4,2005.1658621471943
alfamart ciledug pesanggrahan,4.7,3,-6.2363047,106.7479354,"jl. ciledug raya no.3f, rt.10/rw.2, petukangan utara, kota jakarta selatan",ChIJf5s9qDHxaS4RWnBj2p2aQVc,1773.6020619453993
alfamart,4.1,13,-6.2562549,106.7620386,"jl. bintaro permai no.03b, rt.5/rw.2, pesanggrahan, kota jakarta selatan",ChIJd_TogY_xaS4Rr4fIDW9btxc,1702.879120726438
alfamart,4.3,118,-6.228025,106.7785565,"jl. raya kby. lama no.37, rt.5/rw.007 kel, grogol sel., kota jakarta selatan",ChIJl8UlGdXxaS4Rzp4Cn0GDDRY,2220.887874656115
alfamart,4.2,121,-6.2350886,106.7512863,"jl. masjid darul falah kel no.4a, rt.3/rw.2, petukangan utara, kota jakarta selatan",ChIJu7akxyTxaS4RsElEKAH5zmI,1478.5547459167524
alfamart,4.8,13,-6.247626299999999,106.7785018,"jl. ciputat raya, rt. 8/8 kel, rt.8/rw.8, kby. lama sel., kota jakarta selatan",ChIJMyzoc8PxaS4Rx4Pb25aRaVI,1837.970232149508
alfamart,4.4,82,-6.233785,106.7573647,"jl. kostrad pusri kel no.42 rt 04/04, rt.4/rw.4, pela mampang, kota jakarta selatan",ChIJV5SblcTwaS4RFahjIV6xK_g,1033.606473111695
alfamart,4.2,220,-6.230081999999999,106.7457079,"jl. h. muchtar raya rt 05/1 kel, rt.5/rw.1, petukangan utara, kota jakarta selatan",ChIJ04xV4tLxaS4RJ5m-u5L84Po,2289.3037654680857
alfamart,4.6,7,-6.2375671,106.7690621,"jl. ciledug raya kel no.99, rw.5, cipulir, kota jakarta selatan",ChIJW9fq8I3xaS4RxMcrn3PVoYk,744.531454588491
alfamart,3.8,20,-6.241620699999999,106.7563085,"jl. m. saidi no. 37, rt. 004 / 001 kel, rt.7/rw.5, petukangan sel., kota jakarta selatan",ChIJHWXiNejwaS4ROduEiEdqDvs,773.0178873617539
alfamart,4.8,8,-6.2466634,106.7620832,"jl.ulujami raya no 86 rt 1/4 kel, rw.7, ulujami, kota jakarta selatan",ChIJiZF3MRHxaS4RMkLi-3sXAfI,644.4387214955043
alfamart,5,4,-6.2534671,106.7755935,"jl. bintaro raya no.21a, rt.11/rw.10, kby. lama sel., kota jakarta selatan",ChIJcydB66nxaS4RsYN_8dfR-hc,1944.1029749976083
alfamart,0,0,-6.2373959,106.7584582,"jl. ciledug raya kel no.2, rt.13/rw.002, petukangan utara, kota jakarta selatan",ChIJ-agkUa3xaS4RDzBJWhZ9pAQ,665.543244910834
alfamart,5,1,-6.2427534,106.7520614,"jl. kemajuan kel no.48, rt.6/rw.6, petukangan sel., kota jakarta selatan",ChIJO5o704LxaS4RopukQoSoSlU,1254.703926591106
alfamart,4.4,189,-6.2364448,106.7524101,"jl. ciledug raya no. 10a, rt. 002/003 kel, rt.2/rw.3, petukangan utara, kota jakarta selatan",ChIJyQtTMjnxaS4RAmG4Z9miTuU,1302.768317271764
sumber alfaria trijaya. pt (alfamart),0,0,-6.2351522,106.7576759,"mampang prpt. jl. kostrad pusri no.42, rt.5/rw.4, petukangan utara, kota jakarta selatan",ChIJTfcbXMPwaS4RUTsckpjrLio,896.7262338342622
alfamart,4.3,83,-6.2262738,106.7574297,"jl. palem v no.29a, rt.3/rw.008 kel, petukangan utara, kota jakarta selatan",ChIJbZxuR87waS4RypdX0qDk-Ss,1759.2110451444146
alfamart,4.1,52,-6.2382658,106.7723374,"jl. raya ciledug, rt. 5/4 kel, rt.6/rw.11, cipulir, kota jakarta selatan",ChIJa3p8yiXxaS4RfugjuGiw9us,1046.7287339961601
outlet binaan alfamart,0,0,-6.2273784,106.7526256,"jl. masjid darul falah no.8, rw.3, petukangan utara, kota jakarta selatan",ChIJvajR18jwaS4RsJDl7rn-tu8,1917.2704267903907
alfamart,4.1,9,-6.2452254,106.7725276,"jl. peninggaran raya no.kel, rt.8/rw.11, kby. lama utara, kota jakarta selatan",ChIJkUx2wx3xaS4RC4O553KPlfM,1126.176515155721
alfamart,4.4,125,-6.2458404,106.7519896,"jl. damai raya kel no.2, rt.9/rw.5, petukangan sel., kota jakarta selatan",ChIJCZ41mAzxaS4RmvfdRLwHuNU,1358.8460232099058
alfamart,4.1,61,-6.2333072,106.7605881,"jl. swadarma raya kel no.24, rt.18/rw.8, ulujami, kota jakarta selatan",ChIJiThZFNvwaS4RTbh3WkNuQRc,904.3513240622116
alfamart,4.4,228,-6.2498001,106.7567651,"jl. merpati raya no.1, rt.3/rw.6, pesanggrahan, kota jakarta selatan",ChIJfTNH2u_waS4RfAA7VP4nhgA,1215.4030221702437
alfamart,4.6,56,-6.250438,106.7817332,"jl. sultan iskandar muda no.72, rt.10/rw.2, kby. lama sel., kota jakarta selatan",ChIJP3zxrTPxaS4R58_AUM2UGGA,2295.0784990915977
alfamart,4.1,78,-6.2276746,106.7604631,"jl. swadarma raya kel no.9, rt.9/rw.8, ulujami, kota jakarta selatan",ChIJUXhI3AzxaS4RwEQ8G0z8fnE,1512.8129604737953
alfamart,4.5,71,-6.2256975,106.7750044,"jl assirot rt 12/1 kel, rt.12/rw.1, sukabumi sel., kota jakarta selatan",ChIJiRXWFynxaS4RMfZt6bXsEeI,2138.4687125967966
alfamart,4.3,45,-6.2430094,106.748566,"jl. inpres no.54, kel no.02, rt.14/rw.2, petukangan sel., kota jakarta selatan",ChIJ3ea0GOvwaS4RUn2P0PG59CU,1641.088813123376
alfamart ulujami perdatam 2,4.4,278,-6.241565200000001,106.763046,"jl. ulujami raya no.37, rt.11/rw.5, ulujami, kota jakarta selatan",ChIJxVlcmuXxaS4RuKkkG0FzqEg,68.7258584150303
alfamart,0,0,-6.2260319,106.7445316,"jl. h. muchtar raya kel, rt.8/rw.11, petukangan utara, kota jakarta selatan",ChIJU2gAqwDxaS4Ri6ZzCqxukos,2656.6964395459026
alfamart panjang cidodol 10,4.6,87,-6.226878399999999,106.7720727,"9, jl. panjang cidodol no.1, rw.9, sukabumi sel., kota jakarta selatan",ChIJye3X2v_xaS4R_nF5CHsgfqM,1846.150680601989
alfamart,4.3,12,-6.220866099999999,106.7786611,"jl. raya kby. lama kel no.60, rt.7/rw.2, grogol utara, kota jakarta selatan",ChIJTXm4acHxaS4RKHXcYl6lbG4,2810.7676705600024
alfamart,4.4,96,-6.2609176,106.7672296,"jl. rc. veteran raya no.8, rt.10/rw.10, bintaro, kota jakarta selatan",ChIJAcbTg1XwaS4RG9XNozvVjE4,2258.6189853196915
alfamart,4.6,75,-6.2521128,106.783147,"jl. praja dalam k kel, rt.12/rw.2, kby. lama sel., kota jakarta selatan",ChIJFy0cH3DxaS4RqAsb1UlHVzU,2521.018074594344
alfamart h. muchtar 2,4.5,235,-6.2260342,106.7445134,"jl. h. muchtar raya no.41, rt.8/rw.11, petukangan utara, kota jakarta selatan",ChIJT6yVZrbwaS4RgDyhIXMu-qo,2658.105466562571
alfamart express stasiun kebayoran lama,3.6,5,-6.2374573,106.7825889,"jl. st. no.7a, rt.2/rw.1, south, kota jakarta selatan",ChIJ8-2f5VzxaS4RuUIzcDEbZJ8,2170.941768046565
mitra ukm alfamart,0,0,-6.2516093,106.7831185,"jl. praja dalam f no.11, rt.11/rw.2, south kebayoran lama, south jakarta city",ChIJGU1_dw_xaS4RKV_Wngx69Ic,2491.254533302679
alfamart budi luhur,4.7,3,-6.2363032,106.7479061,"jl. ciledug raya no.22, rt.10/rw.2, petukangan utara, kota jakarta selatan",ChIJZ3iYT7PxaS4RlMn9hgZzoXA,1776.7470891837668
