nama_tempat,rating_tempat,user_ratings_total,latitude,longitude,alamat_tempat,place_id,store,place_id.1,nama_kelurahan,nama_kecamatan,nama_kota,nomor,jarak_terkecil_lat,jarak_terkecil_lng,jarak_terkecil_nama_tempat,jarak_terkecil_alamat,jarak_terkecil_values,berdekatan_30m,berdekatan_50m
indomaret,4.3,104,-6.302203,106.7919364,"jl. lb. bulus iii no.40, rt.9/rw.7, cilandak bar., kota jakarta selatan",ChIJaxj8TyDuaS4RmJ8rDkpB2GA,Indomaret,ChIJaxj8TyDuaS4RmJ8rDkpB2GA,Cilandak Barat,Cilandak,Kota Jakarta Selatan,0,-6.3050746,106.794028,alfamart pondok labu,"jl. pd. labu 1 no.40, rt.2/rw.7, pd. labu, kota jakarta selatan",394.2039978797804,no,no
indomaret,0.0,0,-6.3070032,106.7936899,"10, rt.4/rw.10, pondok labu, south jakarta city",ChIJPz4W5BPvaS4RoUnKBAiaL3o,Indomaret,ChIJPz4W5BPvaS4RoUnKBAiaL3o,Pondok Labu,Cilandak,Kota Jakarta Selatan,1,-6.3050746,106.794028,alfamart pondok labu,"jl. pd. labu 1 no.40, rt.2/rw.7, pd. labu, kota jakarta selatan",217.6820973818952,no,no
indomaret bdn raya,4.2,66,-6.2793922,106.7984418,"jl. bdn raya no.10, rt.10/rw.11, cilandak bar., kota jakarta selatan",ChIJKZqyypTxaS4RkjwUtyXrkBY,Indomaret,ChIJKZqyypTxaS4RkjwUtyXrkBY,Cilandak Barat,Cilandak,Kota Jakarta Selatan,2,-6.2799761,106.79663,alfamart fatmawati 4,"jl. rs. fatmawati raya no.4, rt.3/rw.10, cilandak bar., kota jakarta selatan",210.51680663922798,no,no
indomaret,4.7,3,-6.2782231,106.797096,"jl. rs. fatmawati raya no.7, rt.8/rw.6, gandaria sel., kota jakarta selatan",ChIJzVqDlcTxaS4Rwlnqrz5hXbo,Indomaret,ChIJzVqDlcTxaS4Rwlnqrz5hXbo,Gandaria Selatan,Cilandak,Kota Jakarta Selatan,3,-6.2799761,106.79663,alfamart fatmawati 4,"jl. rs. fatmawati raya no.4, rt.3/rw.10, cilandak bar., kota jakarta selatan",201.61502841250874,no,no
indomaret karang tengah raya,4.3,108,-6.3013439,106.7805495,"bona indah plaza, jl. karang tengah raya no.1, rt.5/rw.4, lb. bulus, kota jakarta selatan",ChIJ7aqqqinuaS4RKy68g0RuyMk,Indomaret,ChIJ7aqqqinuaS4RKy68g0RuyMk,Lebak Bulus,Cilandak,Kota Jakarta Selatan,4,-6.303783,106.7814079,alfamart,"jl. karang tengah raya no.kel, rt.6/rw.4, lb. bulus, kota jakarta selatan",287.33074031122953,no,no
indomaret,0.0,0,-6.2910563,106.7949517,"jl. pejaten raya no.19 a, rt.18/rw.2, jati padang, kota jakarta selatan",ChIJZW196Q7xaS4R95E7nWT6Da4,Indomaret,ChIJZW196Q7xaS4R95E7nWT6Da4,Jati Padang,Cilandak,Kota Jakarta Selatan,5,-6.2904353,106.7954148,alfamart,"jl. rs. fatmawati raya kel no.33, rt. 01/09, rt.1/rw.9, cilandak bar., kota jakarta selatan",85.9537032167827,no,no
indomaret spbu terogong,4.8,8,-6.2821542,106.7916131,"jl. terogong raya no.16, rt.10/rw.10, cilandak bar., kota jakarta selatan",ChIJj-UaO5zxaS4RHGBB4QPZ-0Y,Indomaret,ChIJj-UaO5zxaS4RHGBB4QPZ-0Y,Cilandak Barat,Cilandak,Kota Jakarta Selatan,6,-6.2822937,106.7923652,alfamart,"jl. terogong raya no.kel, rt.9/rw.10, cilandak bar., kota jakarta selatan",84.56248738633344,no,no
indomaret spbu simatupang,4.2,22,-6.2928207,106.794356,"pq4v+vph, jl. r.a. kartini, rt.1/rw.4, cilandak bar., kota jakarta selatan",ChIJPd3qm93xaS4Ry_DGnmEAInk,Indomaret,ChIJPd3qm93xaS4Ry_DGnmEAInk,Cilandak Barat,Cilandak,Kota Jakarta Selatan,7,-6.2943276,106.7947017,alfamart pos fatmawati(1m1f),"jl. rs. fatmawati raya no.10, rt.2/rw.4, cilandak bar., kota jakarta selatan",171.8609788080867,no,no
indomaret golden fatmawati,0.0,0,-6.2777755,106.7968703,"jl. rs. fatmawati no. 15 ab gandaria selatan cilandak jakarta selatan dki jakarta rt.8, rw.6, gandaria sel., kota jakarta selatan",ChIJSShBVZDxaS4Rte30BlBPAO4,Indomaret,ChIJSShBVZDxaS4Rte30BlBPAO4,Gandaria Selatan,Cilandak,Kota Jakarta Selatan,8,-6.2799761,106.79663,alfamart fatmawati 4,"jl. rs. fatmawati raya no.4, rt.3/rw.10, cilandak bar., kota jakarta selatan",246.1331107843144,no,no
indomaret fatmawati 26,4.3,6,-6.3043705,106.7951843,"jl. rs. fatmawati raya no.26, rt.1/rw.7, pd. labu, kota jakarta selatan",ChIJ-WTA4iHuaS4RhhDcoecn57U,Indomaret,ChIJ-WTA4iHuaS4RhhDcoecn57U,Pondok Labu,Cilandak,Kota Jakarta Selatan,9,-6.3050746,106.794028,alfamart pondok labu,"jl. pd. labu 1 no.40, rt.2/rw.7, pd. labu, kota jakarta selatan",149.87275550712982,no,no
indomaret,4.4,26,-6.2962454,106.7892345,"pq3q+gmh, jl. lb. bulus i, rt.3/rw.4, cilandak bar., kota jakarta selatan",ChIJsbv9uN7xaS4RK2vE-f9VboA,Indomaret,ChIJsbv9uN7xaS4RK2vE-f9VboA,Cilandak Barat,Cilandak,Kota Jakarta Selatan,10,-6.2962773,106.7897248,alfamart,"jl. lebak bulus 1 rt 3/4 kel, rt.3/rw.4, cilandak bar., kota jakarta selatan",54.306063737623205,no,no
indomaret minimarket bona indah plaza,4.5,6,-6.3009042,106.7806588,"bona indah plaza no.a2/d3 jl. karang tengah raya, rt.7/rw.6, lb. bulus, kota jakarta selatan",ChIJJesreyjuaS4RF1nrMU1l0JE,Indomaret,ChIJJesreyjuaS4RF1nrMU1l0JE,Lebak Bulus,Cilandak,Kota Jakarta Selatan,11,-6.303783,106.7814079,alfamart,"jl. karang tengah raya no.kel, rt.6/rw.4, lb. bulus, kota jakarta selatan",330.64185862648685,no,no
indomaret taman cilandak,5.0,4,-6.2930967,106.7920496,"jl. taman cilandak raya no.9, rt.11/rw.4, cilandak bar., kota jakarta selatan",ChIJv01rArvxaS4RuUFeXimA3zk,Indomaret,ChIJv01rArvxaS4RuUFeXimA3zk,Cilandak Barat,Cilandak,Kota Jakarta Selatan,12,-6.2943276,106.7947017,alfamart pos fatmawati(1m1f),"jl. rs. fatmawati raya no.10, rt.2/rw.4, cilandak bar., kota jakarta selatan",323.5035673917214,no,no
indomaret bango raya,0.0,0,-6.3075877,106.8039904,"jl. bango ii no.31, rw.3, pd. labu, kota jakarta selatan",ChIJXTAa0H_vaS4R5_VN2xv2sJA,Indomaret,ChIJXTAa0H_vaS4R5_VN2xv2sJA,Pondok Labu,Cilandak,Kota Jakarta Selatan,13,-6.3132072,106.8032178,alfamart,"jl. margasatwa raya no 14a-c, kel, rt.1/rw.3, pd. labu, kota jakarta selatan",630.6680645857653,no,no
indomaret abu serin,4.5,10,-6.2757433,106.7971777,"jl. abuserin no.5, rt.10/rw.6, gandaria sel., kota jakarta selatan",ChIJXQQSNpTxaS4RsGiRh1Rrct0,Indomaret,ChIJXQQSNpTxaS4RsGiRh1Rrct0,Gandaria Selatan,Cilandak,Kota Jakarta Selatan,14,-6.2799761,106.79663,alfamart fatmawati 4,"jl. rs. fatmawati raya no.4, rt.3/rw.10, cilandak bar., kota jakarta selatan",474.5436078460637,no,no
indomaret bona indah 2,4.9,15,-6.2963167,106.7891712,"jl. lb. bulus i no.35b, rt.3/rw.4, cilandak bar., kota jakarta selatan",ChIJF35byhHxaS4RhU4r6frWhIo,Indomaret,ChIJF35byhHxaS4RhU4r6frWhIo,Cilandak Barat,Cilandak,Kota Jakarta Selatan,15,-6.2962773,106.7897248,alfamart,"jl. lebak bulus 1 rt 3/4 kel, rt.3/rw.4, cilandak bar., kota jakarta selatan",61.34293146413785,no,no
indomaret fatmawati 20,0.0,0,-6.2813511,106.7963965,"pq9w+fh2, west cilandak, south jakarta city",ChIJrTZnpp_xaS4RW53IaKnPsIc,Indomaret,ChIJrTZnpp_xaS4RW53IaKnPsIc,Cilandak Barat,Cilandak,Kota Jakarta Selatan,16,-6.2799761,106.79663,alfamart fatmawati 4,"jl. rs. fatmawati raya no.4, rt.3/rw.10, cilandak bar., kota jakarta selatan",155.05613589199046,no,no
indomaret plus,4.3,229,-6.2963734,106.7948721,"5, jl. rs. fatmawati raya no.35, rt.5/rw.4, cilandak bar., kota jakarta selatan",ChIJd96Hv-DxaS4RHJwKA-4iFZI,Indomaret,ChIJd96Hv-DxaS4RHJwKA-4iFZI,Cilandak Barat,Cilandak,Kota Jakarta Selatan,17,-6.2943276,106.7947017,alfamart pos fatmawati(1m1f),"jl. rs. fatmawati raya no.10, rt.2/rw.4, cilandak bar., kota jakarta selatan",228.26117488680381,no,no
indomaret pintu barat ragunan (t1y7),0.0,0,-6.3104305,106.8159192,"14, jl. margasatwa baru no.45, rw.8, jagakarsa, kota jakarta selatan",ChIJwcwxNEXvaS4RiKmoGQ6V0pU,Indomaret,ChIJwcwxNEXvaS4RiKmoGQ6V0pU,Jagakarsa,Cilandak,Kota Jakarta Selatan,18,-6.3094162,106.8138852,alfamart cilandak kko 3,"jl. cilandak kko no.1 a rt.014/08, cilandak ragunan rt.1, rt.14/rw.7, ragunan, south jakarta city",251.50709815590412,no,no
indomaret karang tengah 39,4.4,90,-6.3059123,106.7816935,"mqvj+jmp, rt.6/rw.4, lebak bulus, south jakarta city",ChIJraDzUtLvaS4RD7IR82uJtEo,Indomaret,ChIJraDzUtLvaS4RD7IR82uJtEo,Lebak Bulus,Cilandak,Kota Jakarta Selatan,19,-6.3065871,106.7813887,sumber alfaria trijaya. pt (alfamart),"jl. karang tengah raya no.29, rt.6/rw.4, lb. bulus, kota jakarta selatan",82.24957841396859,no,no
indomaret h. batong,3.9,60,-6.2868579,106.7903161,"jl. h.batong raya rt007/rw006, cilandak barat, cilandak, rt.7/rw.6, west cilandak, south jakarta city",ChIJAQAAAOfxaS4R6wrqsJtf5pk,Indomaret,ChIJAQAAAOfxaS4R6wrqsJtf5pk,Cilandak Barat,Cilandak,Kota Jakarta Selatan,20,-6.2875123,106.7906552,alfamart muhasyim,"jl. kh muhasim raya no.9, rw.6, cilandak bar., kota jakarta selatan",81.8511451890073,no,no
indomaret hybrid lebak bulus/008,4.6,13,-6.3101176,106.780875,"jl. karang tengah raya no.1, rt.1/rw.3, lb. bulus, kota jakarta selatan",ChIJBwBd3S_uaS4RMBfxWKiy408,Indomaret,ChIJBwBd3S_uaS4RMBfxWKiy408,Lebak Bulus,Cilandak,Kota Jakarta Selatan,21,-6.3065871,106.7813887,sumber alfaria trijaya. pt (alfamart),"jl. karang tengah raya no.29, rt.6/rw.4, lb. bulus, kota jakarta selatan",396.65845777627175,no,no
indomaret asem 2.,3.8,23,-6.272082,106.8009549,"jl. asem dua no.26, rt.14/rw.5, cipete sel., kota jakarta selatan",ChIJs6y5G5HxaS4RurVX3sajfVU,Indomaret,ChIJs6y5G5HxaS4RurVX3sajfVU,Cipete Selatan,Cilandak,Kota Jakarta Selatan,22,-6.2706697,106.7969812,alfamart mangga raya,"rt.1/rw.4, gandaria sel., kota jakarta selatan",466.44261046281264,no,no
indomaret berlian ii cilandak,4.5,2,-6.2965402,106.8005802,"pr32+96p, rt.6/rw.2, west cilandak, south jakarta city",ChIJDaAAxvjxaS4RX-J08P1H7ug,Indomaret,ChIJDaAAxvjxaS4RX-J08P1H7ug,Cilandak Barat,Cilandak,Kota Jakarta Selatan,23,-6.2929597,106.803038,alfamart,"sovereign plaza, gedung, jl. tb simatupang kel no.kav.36, rt.2/rw.2, west cilandak, south jakarta city",481.9782916170582,no,no
indomaret,2.0,4,-6.2898389,106.7781069,"jl. r.a. kartini no.49, rt.9/rw.7, lb. bulus, kota jakarta selatan",ChIJEaTZ42DxaS4R044D9l8J_vQ,Indomaret,ChIJEaTZ42DxaS4R044D9l8J_vQ,Lebak Bulus,Cilandak,Kota Jakarta Selatan,24,-6.2874722,106.7768054,alfamart pondok indah 1,"jl. bukit hijau i no.12, rt.012/rw.13, pd. pinang, kota jakarta selatan",299.9145267589154,no,no
indomaret pinang raya,4.1,147,-6.3081054,106.7981876,"jl. pinang raya no.9, rt.2/rw.9, pd. labu, kota jakarta selatan",ChIJteuioxnuaS4R3u6TiMK2DHc,Indomaret,ChIJteuioxnuaS4R3u6TiMK2DHc,Pondok Labu,Cilandak,Kota Jakarta Selatan,25,-6.3083256,106.7978603,alfamart,"jl. pinang raya kel no.6, rt.2/rw.2, pd. labu, kota jakarta selatan",43.681415289039045,no,yes
indomaret bona indah,3.2,5,-6.2974692,106.7824281,"indomaret, jl. lb. bulus i no.23, rt.1/rw.1, lebak bulus, south jakarta city",ChIJ5cZCSA_xaS4RWfbV5rM0sBg,Indomaret,ChIJ5cZCSA_xaS4RWfbV5rM0sBg,Lebak Bulus,Cilandak,Kota Jakarta Selatan,26,-6.3037727,106.7821517,bright by alfamart,"jl. karang tengah raya no.71, rt.7/rw.4, lb. bulus, kota jakarta selatan",701.5835861324485,no,no
indomaret pondok labu,4.1,52,-6.3109767,106.7934225,"jl. rs fatmawati no.8, rt.7/rw.1, pd. labu, kota jakarta selatan",ChIJuZWfRT3uaS4RPJR0-gix6to,Indomaret,ChIJuZWfRT3uaS4RPJR0-gix6to,Pondok Labu,Cilandak,Kota Jakarta Selatan,27,-6.3105462,106.7937534,alfamart,"jl. pd. labu raya no.7, rw.1, pd. labu, kota jakarta selatan",60.24085964446946,no,no
post shop indomaret,3.0,5,-6.2947447,106.795399,"jl. rs. fatmawati raya no.10, rt.1/rw.4, cilandak bar., kota jakarta selatan",ChIJbd1pUOfxaS4Rt-kFPuyDtsk,Indomaret,ChIJbd1pUOfxaS4Rt-kFPuyDtsk,Cilandak Barat,Cilandak,Kota Jakarta Selatan,28,-6.2943276,106.7947017,alfamart pos fatmawati(1m1f),"jl. rs. fatmawati raya no.10, rt.2/rw.4, cilandak bar., kota jakarta selatan",89.94814975875376,no,no
indomaret h.ipin,4.3,123,-6.3118874,106.7902907,"jl. h. ipin no.11, rw.1, pd. labu, kota jakarta selatan",ChIJWagF6TzuaS4RChibXwRnJgA,Indomaret,ChIJWagF6TzuaS4RChibXwRnJgA,Pondok Labu,Cilandak,Kota Jakarta Selatan,29,-6.3101879,106.7901479,alfamart,"jl. h. ipin kel no.45 - a, rt.11/rw.1, pd. labu, kota jakarta selatan",189.6339324734803,no,no
bii atm indomaret bona indah 1,4.3,142,-6.2876105,106.7772803,"jl. lebak bulus 1, cilandak, jakarta selatan, rt.1/rw.1, lebak bulus, south jakarta city",ChIJF9Syud7xaS4RCaXavhh53AA,Indomaret,ChIJF9Syud7xaS4RCaXavhh53AA,Lebak Bulus,Cilandak,Kota Jakarta Selatan,30,-6.2874722,106.7768054,alfamart pondok indah 1,"jl. bukit hijau i no.12, rt.012/rw.13, pd. pinang, kota jakarta selatan",54.695303680380356,no,no
indomaret caringin,4.5,183,-6.2831999,106.7926034,"jl. caringin utara no.32, rw.10, cilandak bar., kota jakarta selatan",ChIJMRDIwMHxaS4RGxUodpMMNq8,Indomaret,ChIJMRDIwMHxaS4RGxUodpMMNq8,Cilandak Barat,Cilandak,Kota Jakarta Selatan,31,-6.2822937,106.7923652,alfamart,"jl. terogong raya no.kel, rt.9/rw.10, cilandak bar., kota jakarta selatan",104.14760403742464,no,no
indomaret fatmawati no.6,3.9,13,-6.2942065,106.7950223,"jl. rs. fatmawati raya no.6, rt.2/rw.5, cilandak bar., kota jakarta selatan",ChIJ6yLv7KvxaS4RlTGBTyv0phM,Indomaret,ChIJ6yLv7KvxaS4RlTGBTyv0phM,Cilandak Barat,Cilandak,Kota Jakarta Selatan,32,-6.2943276,106.7947017,alfamart pos fatmawati(1m1f),"jl. rs. fatmawati raya no.10, rt.2/rw.4, cilandak bar., kota jakarta selatan",37.90661688713191,no,yes
indomaret fatmawati 33d,5.0,1,-6.2664857,106.7975475,"rt 03 no, jl. rs. fatmawati raya no.33c, rt.2/rw.2, gandaria sel., kota jakarta selatan",ChIJsZgWTnXxaS4R_vrbAMPG_9c,Indomaret,ChIJsZgWTnXxaS4R_vrbAMPG_9c,Gandaria Selatan,Cilandak,Kota Jakarta Selatan,33,-6.2665447,106.7971267,di depan alfamart,"jl. rs. fatmawati raya no.33, rw.2, gandaria sel., kota jakarta selatan",46.97171780172848,no,yes
indomaret fatmawati raya,4.2,18,-6.2695941,106.7975764,"jl. rs. fatmawati raya no.27, rt.1/rw.5, cipete sel., kota jakarta selatan",ChIJDwAAAJHxaS4RELZlVPfYtVg,Indomaret,ChIJDwAAAJHxaS4RELZlVPfYtVg,Cipete Selatan,Cilandak,Kota Jakarta Selatan,34,-6.2706697,106.7969812,alfamart mangga raya,"rt.1/rw.4, gandaria sel., kota jakarta selatan",136.50085817432344,no,no
indomaret palem raya,1.0,1,-6.271645,106.803089,"jl. palem no.5, rt.14/rw.5, cipete sel., kota jakarta selatan",ChIJDwAAAJHxaS4RjyudUxZZxus,Indomaret,ChIJDwAAAJHxaS4RjyudUxZZxus,Cipete Selatan,Cilandak,Kota Jakarta Selatan,35,-6.2670737,106.8019836,sumber alfaria trijaya. pt (alfamart),"jl. abdul majid raya no.33, rt.11/rw.7, cipete utara, kota jakarta selatan",522.7838948751795,no,no
indomaret fatmawati 2,3.8,11,-6.2682054,106.7970959,"jalan rs. fatmawati no. 5, cilandak, rt.1/rw.3, gandaria sel., kota jakarta selatan",ChIJFb9gM5jxaS4Rq1wKzoM3qas,Indomaret,ChIJFb9gM5jxaS4Rq1wKzoM3qas,Gandaria Selatan,Cilandak,Kota Jakarta Selatan,36,-6.2676196,106.7970639,alfamart,"jl. rs. fatmawati raya kel no.17 rt 002/002, rt.2/rw.2, gandaria sel., kota jakarta selatan",65.2340354316151,no,no
indomaret haji nawi ( tq03 ),0.0,0,-6.2637034,106.7954092,"4, jl. h. nawi raya no.28a, rt.4/rw.7, gandaria sel., kota jakarta selatan",ChIJ4dWEmRnxaS4RQFHJI6sgsqk,Indomaret,ChIJ4dWEmRnxaS4RQFHJI6sgsqk,Gandaria Selatan,Cilandak,Kota Jakarta Selatan,37,-6.2665447,106.7971267,di depan alfamart,"jl. rs. fatmawati raya no.33, rw.2, gandaria sel., kota jakarta selatan",368.58547812768506,no,no
indomaret madrasah,4.3,89,-6.266465,106.7914699,"no, jl. madrasah no.17, rt.7/rw.1, gandaria sel., kota jakarta selatan",ChIJ14sVU6LxaS4Rrt0AdBPZjQM,Indomaret,ChIJ14sVU6LxaS4Rrt0AdBPZjQM,Gandaria Selatan,Cilandak,Kota Jakarta Selatan,38,-6.2670475,106.792991,alfamart,"jl. madrasah kel no.48, rt.8/rw.1, gandaria sel., kota jakarta selatan",180.17317049018985,no,no
mitra umkm indomaret,0.0,0,-6.2695104,106.7975699,"pqjx+52v, jl. rs. fatmawati raya, rt.6/rw.5, cipete sel., kota jakarta selatan",ChIJYWqPfpfxaS4RB7eEa52T3-0,Indomaret,ChIJYWqPfpfxaS4RB7eEa52T3-0,Cipete Selatan,Cilandak,Kota Jakarta Selatan,39,-6.2706697,106.7969812,alfamart mangga raya,"rt.1/rw.4, gandaria sel., kota jakarta selatan",144.40000153590117,no,no
indomaret (abdul majid),4.4,207,-6.266423,106.8061697,"jl. cipete utara no.4, rt.17/rw.2, cipete sel., kota jakarta selatan",ChIJtzSt1YTxaS4RFu6cHY0WKkQ,Indomaret,ChIJtzSt1YTxaS4RFu6cHY0WKkQ,Cipete Selatan,Cilandak,Kota Jakarta Selatan,40,-6.266536,106.8103135,alfamart,"jl. pelita no.99a, rt.8/rw.7, cipete utara, kota jakarta selatan",458.1893842145242,no,no
indomaret exit mrt h nawi,5.0,1,-6.266061,106.7975764,"jl. rs. fatmawati raya no.2, rt.4/rw.5, cipete sel., kota jakarta selatan",ChIJyzZxP67xaS4RMbpMyvQ2wbU,Indomaret,ChIJyzZxP67xaS4RMbpMyvQ2wbU,Cipete Selatan,Cilandak,Kota Jakarta Selatan,41,-6.2665447,106.7971267,di depan alfamart,"jl. rs. fatmawati raya no.33, rw.2, gandaria sel., kota jakarta selatan",73.23582499553868,no,no
indomaret reno pangkalan jati,4.4,61,-6.3131032,106.7963693,"jl. pangkalan jati no.8, rt.2/rw.5, pd. labu, kota jakarta selatan",ChIJ_YPzTRbuaS4RBMIVZIUvApQ,Indomaret,ChIJ_YPzTRbuaS4RBMIVZIUvApQ,Pondok Labu,Cilandak,Kota Jakarta Selatan,42,-6.3127449,106.7967237,alfamart,"jl. margasatwa no.1, rt.1/rw.2 kel, pd. labu, kota jakarta selatan",55.87037099154987,no,no
indomaret adhiyaksa lebak bulus,4.5,13,-6.2977921,106.7762749,"4, jl. adhyaksa vii no.5, rw.5, lb. bulus, kota jakarta selatan",ChIJo6D2K9TxaS4RRAFRFQZF85I,Indomaret,ChIJo6D2K9TxaS4RRAFRFQZF85I,Lebak Bulus,Cilandak,Kota Jakarta Selatan,43,-6.3002921,106.776064,alfamart batan,"jl. lb. bulus no.48, rt.3/rw.4, lb. bulus, kota jakarta selatan",278.96324626529366,no,no
indomaret,4.0,1,-6.3110032,106.7935373,"mqqv+hcv, jl. h. ipin, rt.7/rw.1, pd. labu, kota jakarta selatan",ChIJI9WSpdXvaS4RyrpdfY2WyYA,Indomaret,ChIJI9WSpdXvaS4RyrpdfY2WyYA,Pondok Labu,Cilandak,Kota Jakarta Selatan,44,-6.3105462,106.7937534,alfamart,"jl. pd. labu raya no.7, rw.1, pd. labu, kota jakarta selatan",56.14899691521951,no,no
indomaret margasatwa raya,3.6,48,-6.3130393,106.8000683,"jl. margasatwa no.41, rt.8/rw.2, pd. labu, kota jakarta selatan",ChIJP8XfLBHuaS4RUZWOBnFgxCo,Indomaret,ChIJP8XfLBHuaS4RUZWOBnFgxCo,Pondok Labu,Cilandak,Kota Jakarta Selatan,45,-6.3130741,106.8004155,alfamart margasatwa raya,"jl. margasatwa no.90, rt.8/rw.2, pd. labu, kota jakarta selatan",38.5674313381001,no,yes
indomaret,4.3,190,-6.310845,106.8031917,"jalan margasatwa, rt.1/rw.3, pondok labu, cilandak, rt.1/rw.3, pd. labu, kota jakarta selatan",ChIJz_7MYxDuaS4RL6XfEsDgb-M,Indomaret,ChIJz_7MYxDuaS4RL6XfEsDgb-M,Pondok Labu,Cilandak,Kota Jakarta Selatan,46,-6.3132072,106.8032178,alfamart,"jl. margasatwa raya no 14a-c, kel, rt.1/rw.3, pd. labu, kota jakarta selatan",262.68085743936496,no,no
indomaret,4.7,6,-6.3203625,106.8106762,"jl. m. khafi no.62, rt.3/rw.4, jagakarsa, kota jakarta selatan",ChIJWdlCSXPuaS4RzpIWwflyKKU,Indomaret,ChIJWdlCSXPuaS4RzpIWwflyKKU,Jagakarsa,Jagakarsa,Kota Jakarta Selatan,74,-6.3270311,106.8144222,alfamart,"jl.jagakarsa kp.kandang no.50, rt.6/rw.4, kel, kota jakarta selatan",849.2603825806126,no,no
indomaret ciremai jagakarsa,3.9,22,-6.3245086,106.8113082,"jl. m.kahfi 1 rt 01/rw 04, jagakarsa, jagakarsa, rt.2/rw.7, jagakarsa, south jakarta city",ChIJcQAAANntaS4RAesd4Pw1hXk,Indomaret,ChIJcQAAANntaS4RAesd4Pw1hXk,Jagakarsa,Jagakarsa,Kota Jakarta Selatan,75,-6.3270311,106.8144222,alfamart,"jl.jagakarsa kp.kandang no.50, rt.6/rw.4, kel, kota jakarta selatan",443.97734294696835,no,no
indomaret jl. m. kahfi 1,4.1,73,-6.3180584,106.8113141,"jalan jagakarsa blok hidayah no.10 rt.10/rw.6, rt.3/rw.6, jagakarsa, kota jakarta selatan",ChIJWQO5mgzuaS4RFP9F2gFfJyY,Indomaret,ChIJWQO5mgzuaS4RFP9F2gFfJyY,Jagakarsa,Jagakarsa,Kota Jakarta Selatan,76,-6.3179633,106.8191259,alfamart,"jl. pepaya raya no.58, rt.12/rw.5, kel, kota jakarta selatan",863.4227621855271,no,no
indomaret raya jagakarsa,4.4,221,-6.3273649,106.8163662,"no., jl. raya jagakarsa no.2, rt.10/rw.2, jagakarsa, kota jakarta selatan",ChIJnz15NXbuaS4RjtdQGUQE7gY,Indomaret,ChIJnz15NXbuaS4RjtdQGUQE7gY,Jagakarsa,Jagakarsa,Kota Jakarta Selatan,77,-6.3274385,106.8165763,alfamart,"jl. gandaria ii kel no.rt. 006/02, rt.6/rw.2, jagakarsa, kota jakarta selatan",24.619809578390964,yes,yes
indomaret durian jagakarsa,4.4,243,-6.3187172,106.8157181,"jl. paso no.32, rt.4/rw.4, jagakarsa, kota jakarta selatan",ChIJp2612gruaS4R6xThXZZnoQw,Indomaret,ChIJp2612gruaS4R6xThXZZnoQw,Jagakarsa,Jagakarsa,Kota Jakarta Selatan,78,-6.3179633,106.8191259,alfamart,"jl. pepaya raya no.58, rt.12/rw.5, kel, kota jakarta selatan",385.84554155691734,no,no
papaya indomaret jagakarsa,4.5,269,-6.3253273,106.8198997,"jl. pepaya raya no.4, rt.2/rw.5, jagakarsa, kota jakarta selatan",ChIJTTG_z9jtaS4RnfCTBd_V_Sw,Indomaret,ChIJTTG_z9jtaS4RnfCTBd_V_Sw,Jagakarsa,Jagakarsa,Kota Jakarta Selatan,79,-6.3267655,106.8215854,alfamart,"jl. raya jagakarsa, rt.2/rw.7, kel, kota jakarta selatan",245.52478250276582,no,no
indomaret jagakarsa 1 no.1,4.5,196,-6.3322727,106.8204749,"mr9c+35v, townhouse jagakarsa, jl. jagakarsa 1, rt.3/rw.2, jagakarsa, kota jakarta selatan",ChIJnfhFPGLtaS4R8RAXOhmLRC4,Indomaret,ChIJnfhFPGLtaS4R8RAXOhmLRC4,Jagakarsa,Jagakarsa,Kota Jakarta Selatan,80,-6.3286377,106.8244583,alfamart,"jl. raya jagakarsa no.2a, rt.9/rw.7, kel, kota jakarta selatan",597.6441918468759,no,no
indomaret m kahfi,3.6,8,-6.3406939,106.8044744,"jl. m. khafi no.5, rt.8/rw.6, ciganjur, kota jakarta selatan",ChIJFxAcIIjuaS4RYFvViU4kKeA,Indomaret,ChIJFxAcIIjuaS4RYFvViU4kKeA,Ciganjur,Jagakarsa,Kota Jakarta Selatan,81,-6.3412216,106.8046813,alfamart,"jl. m. kahfi i no. 60, rt. 006 kel, rt.8/rw.6, ciganjur, kota jakarta selatan",62.97537372689466,no,no
indomaret timbul (t18j),4.3,87,-6.3517988,106.810539,"jl. timbul no.37, rt.1/rw.3, cipedak, kota jakarta selatan",ChIJ9SsEQJvuaS4RNq5qlCDIJtw,Indomaret,ChIJ9SsEQJvuaS4RNq5qlCDIJtw,Cipedak,Jagakarsa,Kota Jakarta Selatan,82,-6.3519106,106.8104356,alfamart,"jl. timbul rt 1/3 kel, jl. timbul no.38, rt.1/rw.3, cipedak, kota jakarta selatan",16.885527418543546,yes,yes
indomaret srengseng,4.3,195,-6.3455694,106.8262261,"jl. yon zikon 14 no.1-32, rt.6/rw.6, srengseng sawah, kota jakarta selatan",ChIJ-2nJhS7saS4RpCO7nEHGBsU,Indomaret,ChIJ-2nJhS7saS4RpCO7nEHGBsU,Srengseng Sawah,Jagakarsa,Kota Jakarta Selatan,83,-6.3463896,106.8257072,alfamart,"jl.simpang tiga, jl. pratama kel no.22, rt.6/rw.6, srengseng sawah, kota jakarta selatan",107.73280702563244,no,no
indomaret brigif raya,4.3,135,-6.3442002,106.8017057,"jl. brigif no.15, rt.1/rw.1, cipedak, kota jakarta selatan",ChIJh-0yE4nuaS4RT4cgaf1ZTk8,Indomaret,ChIJh-0yE4nuaS4RT4cgaf1ZTk8,Cipedak,Jagakarsa,Kota Jakarta Selatan,84,-6.3447007,106.8044728,alfamart,"jl. wr. sila kel no.261, rt.3/rw.4, ciganjur, kota jakarta selatan",310.8263818280078,no,no
indomaret masjid annur,2.0,3,-6.3464005,106.8143894,"jl. moh. kafi no.24, rt.2/rw.5, cipedak, kota jakarta selatan",ChIJF2LOzoPuaS4RGhpeBivt3Zk,Indomaret,ChIJF2LOzoPuaS4RGhpeBivt3Zk,Cipedak,Jagakarsa,Kota Jakarta Selatan,85,-6.3450368,106.8152846,alfamart,"jl. wr. sila no.36, rt.2/rw.5, ciganjur, kota jakarta selatan",181.0558726858743,no,no
indomaret,4.0,1,-6.3566026,106.8093138,"jl. moch. kahfi ii no.6, rw.3, cipedak, kota jakarta selatan",ChIJ69Imd5nuaS4R4l3iPtF1Wmw,Indomaret,ChIJ69Imd5nuaS4R4l3iPtF1Wmw,Cipedak,Jagakarsa,Kota Jakarta Selatan,86,-6.357054,106.8095512,alfamart,"jl. srengseng sawah kel no.4, rt.9/rw.9, cipedak, kota jakarta selatan",56.63638440034296,no,no
indomaret,0.0,0,-6.3350508,106.8131039,"jl. sadar raya no.75 a, rw.2, ciganjur, kota jakarta selatan",ChIJK1AskZ3vaS4REypC6pL89EA,Indomaret,ChIJK1AskZ3vaS4REypC6pL89EA,Ciganjur,Jagakarsa,Kota Jakarta Selatan,87,-6.3353411,106.8132835,alfamart,"jl. sadar raya no.kel, rt.2/rw.2, jagakarsa, kota jakarta selatan",37.89411840961416,no,yes
indomaret fresh,4.0,4,-6.3461701,106.8028596,"jl. m. khafi no.2-34, rt.4/rw.1, cipedak, kota jakarta selatan",ChIJ3YjtL_zvaS4Rnl104wRCVD8,Indomaret,ChIJ3YjtL_zvaS4Rnl104wRCVD8,Cipedak,Jagakarsa,Kota Jakarta Selatan,88,-6.3447007,106.8044728,alfamart,"jl. wr. sila kel no.261, rt.3/rw.4, ciganjur, kota jakarta selatan",241.82722661591453,no,no
indomaret,4.5,44,-6.3387782,106.8218532,"jl. moch. kahfi ii no.14e, rt.1/rw.4, ciganjur, kota jakarta selatan",ChIJ-Q7w6dTtaS4RDEfVifDRyGE,Indomaret,ChIJ-Q7w6dTtaS4RDEfVifDRyGE,Ciganjur,Jagakarsa,Kota Jakarta Selatan,89,-6.3359894,106.8270017,alfamart,"jl. moch. kahfi ii kel no.23, rt.11/rw.8, srengseng sawah, kota jakarta selatan",648.0058330502061,no,no
indomaret timbul iv a,4.4,183,-6.3518525,106.807109,"jl. timbul iv no.8, rt.8/rw.6, cipedak, kota jakarta selatan",ChIJ7WecLyzvaS4Rn9KPGUD4Ljg,Indomaret,ChIJ7WecLyzvaS4Rn9KPGUD4Ljg,Cipedak,Jagakarsa,Kota Jakarta Selatan,90,-6.3519106,106.8104356,alfamart,"jl. timbul rt 1/3 kel, jl. timbul no.38, rt.1/rw.3, cipedak, kota jakarta selatan",367.68755674104574,no,no
indomaret - warung silah no.27,4.3,80,-6.3448961,106.8089498,"2, jl. wr. sila no.21, rw.5, ciganjur, kota jakarta selatan",ChIJw0MeY4buaS4RXvv9hDhmtt4,Indomaret,ChIJw0MeY4buaS4RXvv9hDhmtt4,Ciganjur,Jagakarsa,Kota Jakarta Selatan,91,-6.3455177,106.810441,alfamart,"jl. wr. sila kel no.48, rt.11/rw.5, ciganjur, kota jakarta selatan",178.70620862456937,no,no
indomaret m kahfi 4,4.5,212,-6.3500389,106.8016393,"jalan muhammad kahfi i, rt.6/rw.1, cipedak, jagakarsa, rt.6/rw.1, cipedak, kota jakarta selatan",ChIJ6cQUFo7uaS4R-_kInWNWM1E,Indomaret,ChIJ6cQUFo7uaS4R-_kInWNWM1E,Cipedak,Jagakarsa,Kota Jakarta Selatan,92,-6.3492714,106.8016789,alfamart,"jl. m. khafi kel no.1, rt.015/rw.1, cipedak, kota jakarta selatan",85.45435814141449,no,no
indomaret pertigaan sadar,3.2,5,-6.3440661,106.8121865,"jl. wr. sila no.15, rt.1/rw.5, ciganjur, kota jakarta selatan",ChIJZ5dPNIHuaS4RrO2wSc7g9dk,Indomaret,ChIJZ5dPNIHuaS4RrO2wSc7g9dk,Ciganjur,Jagakarsa,Kota Jakarta Selatan,93,-6.3455177,106.810441,alfamart,"jl. wr. sila kel no.48, rt.11/rw.5, ciganjur, kota jakarta selatan",251.5247304679006,no,no
indomaret desa putra,4.6,117,-6.3411344,106.8274065,"jl. desa putra no.52, rt.7/rw.5, srengseng sawah, kota jakarta selatan",ChIJ3TQhlPPtaS4R4L49oeHOWVI,Indomaret,ChIJ3TQhlPPtaS4R4L49oeHOWVI,Srengseng Sawah,Jagakarsa,Kota Jakarta Selatan,94,-6.3409759,106.8275507,alfamart,"jl. raya desa putra no. 22, rt no.kel, rt.7/rw.5, srengseng sawah, kota jakarta selatan",23.760970759180516,yes,yes
indomart,4.2,9,-6.3541376,106.8108413,"jl. moch. kahfi ii no.32a, rt.4/rw.3, cipedak, kota jakarta selatan",ChIJky3nmJvuaS4RnXLQI2QE2oc,Indomaret,ChIJky3nmJvuaS4RnXLQI2QE2oc,Cipedak,Jagakarsa,Kota Jakarta Selatan,95,-6.354785,106.8104626,alfamart m. kafi 1,"jl. moch. kahfi ii no.35, rt.4/rw.3, cipedak, kota jakarta selatan",83.26898011425023,no,no
indomaret rsu aulia,4.9,12,-6.335074,106.8273801,"jl. jeruk raya no.11, rw.1, jagakarsa, kota jakarta selatan",ChIJodfZVs3taS4Rnyv5NOI9wSw,Indomaret,ChIJodfZVs3taS4Rnyv5NOI9wSw,Jagakarsa,Jagakarsa,Kota Jakarta Selatan,96,-6.3359894,106.8270017,alfamart,"jl. moch. kahfi ii kel no.23, rt.11/rw.8, srengseng sawah, kota jakarta selatan",110.0438165184561,no,no
mitra umkm indomaret,0.0,0,-6.3214875,106.8251361,"jagakarsa, south jakarta city",ChIJ17YTyN3taS4RJt9KCDT3YEg,Indomaret,ChIJ17YTyN3taS4RJt9KCDT3YEg,Jagakarsa,Jagakarsa,Kota Jakarta Selatan,97,-6.3212652,106.8254171,alfamart,"jl ry jati padang 6 rt 4/4 kel, rt.11/rw.5, kebagusan, kota jakarta selatan",39.69228820658175,no,yes
indomaret srengseng sawah,4.5,236,-6.3523913,106.8185399,"jrx9+3c3, jalan kukusan, rt.7/rw.7, srengseng sawah, kota jakarta selatan",ChIJbT3_jyfsaS4R717sP2FKYyI,Indomaret,ChIJbT3_jyfsaS4R717sP2FKYyI,Srengseng Sawah,Jagakarsa,Kota Jakarta Selatan,98,-6.3525632,106.8188433,alfamart srengseng sawah (eg47),"utama rt.5/rw.7, srengseng sawah, jagakarsa, rt.5/rw.7, srengseng sawah, kota jakarta selatan",38.595146510614626,no,yes
mitra umkm indomaret,0.0,0,-6.3407538,106.8045153,"jl. m. khafi no.5, rt.8/rw.6, ciganjur, kota jakarta selatan",ChIJOQ-JH4juaS4Rk2w7its6a8g,Indomaret,ChIJOQ-JH4juaS4Rk2w7its6a8g,Ciganjur,Jagakarsa,Kota Jakarta Selatan,99,-6.3412216,106.8046813,alfamart,"jl. m. kahfi i no. 60, rt. 006 kel, rt.8/rw.6, ciganjur, kota jakarta selatan",55.15732254897774,no,no
srengseng sawah 2 indomaret,3.7,50,-6.3581175,106.8118531,"jrr6+qp5, jalan pemuda i, rt.3/rw.9, srengseng sawah, kota jakarta selatan",ChIJ3xl_LJnuaS4RzgLSN1FMvfI,Indomaret,ChIJ3xl_LJnuaS4RzgLSN1FMvfI,Srengseng Sawah,Jagakarsa,Kota Jakarta Selatan,100,-6.3580351,106.8116309,alfamart,"jl. srengseng sawah kel no.48 rt 2/9, rt.3/rw.9, srengseng sawah, kota jakarta selatan",26.209297118520166,yes,yes
indomaret kelapa hijau,4.5,325,-6.3268289,106.8278567,"no., jl. kelapa muda no.48, rt.11/rw.3, jagakarsa, kota jakarta selatan",ChIJDWcZHNvtaS4RroTyX5d4o2g,Indomaret,ChIJDWcZHNvtaS4RroTyX5d4o2g,Jagakarsa,Jagakarsa,Kota Jakarta Selatan,101,-6.3271403,106.8293354,alfamart,"jl. klp. 3 no.49, rt.6/rw.3, kel, kota jakarta selatan",167.05072259526793,no,no
indomaret hybrid jeruk jagakarsa,4.3,137,-6.3310934,106.8292052,"jl. jeruk raya no.3a, rt.5/rw.1, jagakarsa, kota jakarta selatan",ChIJZWTzI9DtaS4Ra2YhrND7ULo,Indomaret,ChIJZWTzI9DtaS4Ra2YhrND7ULo,Jagakarsa,Jagakarsa,Kota Jakarta Selatan,102,-6.3271403,106.8293354,alfamart,"jl. klp. 3 no.49, rt.6/rw.3, kel, kota jakarta selatan",439.80072956108023,no,no
indomaret h. syuaeb,2.5,2,-6.3588485,106.8064644,"jrr4+fh5, jl. purwa raya i, rt.6/rw.6, cipedak, kota jakarta selatan",ChIJJziCLpjuaS4RBqFo3rWHDkM,Indomaret,ChIJJziCLpjuaS4RBqFo3rWHDkM,Cipedak,Jagakarsa,Kota Jakarta Selatan,103,-6.357147,106.8095228,alfamart srengseng sawah 4 (eh83),"jl. srengseng sawah no.1, rt.4/rw.9, srengseng sawah, kota jakarta selatan",387.3389759392021,no,no
indomaret,4.4,11,-6.3629815,106.8068578,"jrp4+rph, jl. m. khafi, rt.7/rw.3, cipedak, kota jakarta selatan",ChIJ6Tll06LuaS4R9zTIOA9Y0rs,Indomaret,ChIJ6Tll06LuaS4R9zTIOA9Y0rs,Cipedak,Jagakarsa,Kota Jakarta Selatan,104,-6.3633345,106.8067338,alfamart,"jl. moch. kahfi ii kel no.24, rt.7/rw.3, cipedak, kota jakarta selatan",41.57508548471779,no,yes
indomaret pesantren daarul rahman,5.0,3,-6.3589526,106.8065455,"jrr4+cj8, rt.6/rw.6, cipedak, south jakarta city",ChIJo81VL5juaS4RMjW6kId9FZ8,Indomaret,ChIJo81VL5juaS4RMjW6kId9FZ8,Cipedak,Jagakarsa,Kota Jakarta Selatan,105,-6.357147,106.8095228,alfamart srengseng sawah 4 (eh83),"jl. srengseng sawah no.1, rt.4/rw.9, srengseng sawah, kota jakarta selatan",385.4445244429265,no,no
indomaret matoa raya,4.5,150,-6.3628912,106.802243,"jrp2+rvx, jl. m. khafi, rt.6/rw.2, cipedak, kota jakarta selatan",ChIJTWBpu73uaS4RDjpmaVM2yCU,Indomaret,ChIJTWBpu73uaS4RDjpmaVM2yCU,Cipedak,Jagakarsa,Kota Jakarta Selatan,106,-6.3629942,106.8021022,alfamart,"jl.moch kahfi i, gg. pedati selatan kel no.60, rt.6/rw.2, cipedak, kota jakarta selatan",19.320491592446164,yes,yes
indomaret lenteng agung barat,3.3,3,-6.3333248,106.8350508,"jl. raya lenteng agung blok cemara no.9, rt.2/rw.10, srengseng sawah, kota jakarta selatan",ChIJJaTMDg_taS4R60wVAmauYTQ,Indomaret,ChIJJaTMDg_taS4R60wVAmauYTQ,Srengseng Sawah,Jagakarsa,Kota Jakarta Selatan,107,-6.3334358,106.835083,alfamart,"jl. lenteng agung barat no. 9, kel no.04, rt.2/rw.10, srengseng sawah, kota jakarta selatan",12.845425199512954,yes,yes
indomaret,2.7,14,-6.3239357,106.8372384,"jl. agung raya i no.3, rt.9/rw.2, lenteng agung, kota jakarta selatan",ChIJx0ubeSPtaS4RHy0oOTeBz3s,Indomaret,ChIJx0ubeSPtaS4RHy0oOTeBz3s,Lenteng Agung,Jagakarsa,Kota Jakarta Selatan,108,-6.3234492,106.8354947,alfamart,"jl. raya lenteng agung kel no.14, lenteng agung, kota jakarta selatan",200.1599393787574,no,no
indomaret srengseng jagakarsa no.23,4.4,174,-6.3451713,106.8294743,"jl. o no.14, rw.3, srengseng sawah, kota jakarta selatan",ChIJpV0lAS7saS4RivjWQPg7JxE,Indomaret,ChIJpV0lAS7saS4RivjWQPg7JxE,Srengseng Sawah,Jagakarsa,Kota Jakarta Selatan,109,-6.3448658,106.8286053,alfamart,"jl. srengseng sawah kel no.rt 5/12, rt.5/rw.12, srengseng sawah, kota jakarta selatan",101.86756020180371,no,no
indomaret stasiun lenteng agung,4.8,23,-6.3308777,106.8343701,"mr9m+jpx, jl. raya lenteng agung, rt.1/rw.5, lenteng agung, kota jakarta selatan",ChIJs8vL3f_taS4RD-B_tfITONc,Indomaret,ChIJs8vL3f_taS4RD-B_tfITONc,Lenteng Agung,Jagakarsa,Kota Jakarta Selatan,110,-6.3306239,106.8349623,alfamart,"stasiun kel, lenteng agung, south jakarta city",71.27345438620833,no,no
indomaret joe kelapa tiga,4.2,27,-6.3245479,106.8301569,"gg. bunga no.2, rt.2/rw.6, lenteng agung, kota jakarta selatan",ChIJPdTzvtrtaS4Rny8eJBB6jss,Indomaret,ChIJPdTzvtrtaS4Rny8eJBB6jss,Lenteng Agung,Jagakarsa,Kota Jakarta Selatan,111,-6.3243592,106.8300011,alfamart,"jl. joe klp. tiga, rt.2/rw.3, kel, kota jakarta selatan",27.143165917025975,yes,yes
indomaret lenteng agung 28,4.4,283,-6.324972,106.8335444,"mrgm+2c8, rt.13/rw.5, lenteng agung, south jakarta city",ChIJh7HpccTtaS4R3felpmD0M70,Indomaret,ChIJh7HpccTtaS4R3felpmD0M70,Lenteng Agung,Jagakarsa,Kota Jakarta Selatan,112,-6.3234492,106.8354947,alfamart,"jl. raya lenteng agung kel no.14, lenteng agung, kota jakarta selatan",274.1006387468631,no,no
indomaret st tj.barat,0.0,0,-6.3085045,106.8381817,"jl. raya lenteng agung no.5, rt.3/rw.1, lenteng agung, kota jakarta selatan",ChIJxbO8YfvtaS4RVgwXEDURxRs,Indomaret,ChIJxbO8YfvtaS4RVgwXEDURxRs,Lenteng Agung,Jagakarsa,Kota Jakarta Selatan,113,-6.3077549,106.8388917,alfamart,"stasiun tanjung barat kel, rt.4/rw.1, srengseng sawah, kota jakarta selatan",114.47771757996406,no,no
indomaret lenteng agung 2,4.4,197,-6.3349815,106.8344234,"jl. raya lenteng agung no.25, rt.3/rw.4, srengseng sawah, kota jakarta selatan",ChIJ9fzyS8_taS4Ra0JH3lgQjic,Indomaret,ChIJ9fzyS8_taS4Ra0JH3lgQjic,Srengseng Sawah,Jagakarsa,Kota Jakarta Selatan,114,-6.3334358,106.835083,alfamart,"jl. lenteng agung barat no. 9, kel no.04, rt.2/rw.10, srengseng sawah, kota jakarta selatan",186.6940184414928,no,no
indomaret tanjung barat,4.6,101,-6.3119122,106.838572,"jl. raya tj. barat no.12a, rt.5/rw.1, tj. bar., kota jakarta selatan",ChIJO8FvdaLtaS4RSZB1kkXDSLk,Indomaret,ChIJO8FvdaLtaS4RSZB1kkXDSLk,Tanjung Barat,Jagakarsa,Kota Jakarta Selatan,115,-6.312118,106.838574,alfamart,"jl.tanjung barat sltn rt 1/2, kel, rt.1/rw.2, tj. bar., kota jakarta selatan",22.88501503835212,yes,yes
indomaret,4.3,84,-6.3045613,106.8437533,"jl. nangka raya no.5, rt.8/rw.5, tj. bar., kota jakarta selatan",ChIJ_57ljYztaS4RBUKmJ5rF0XA,Indomaret,ChIJ_57ljYztaS4RBUKmJ5rF0XA,Tanjung Barat,Jagakarsa,Kota Jakarta Selatan,116,-6.3039748,106.8430684,alfamart tb.simatupang 3,"jalan tb. simatupang, rt.11/rw.4, tj. bar., kota jakarta selatan",99.91569768611257,no,no
indomaret,3.8,10,-6.2961348,106.843599,"jl. poltangan raya no.19, rt.1/rw.4, tj. bar., kota jakarta selatan",ChIJd3ilG3XyaS4R7Y_rIePXcG4,Indomaret,ChIJd3ilG3XyaS4R7Y_rIePXcG4,Tanjung Barat,Jagakarsa,Kota Jakarta Selatan,117,-6.2967705,106.8442387,alfamart,"jl. raya poltangan, rt. 001, r no.kel, rt.1/rw.4, tj. bar., kota jakarta selatan",99.97720771422571,no,no
indomaret tb simatupang,3.5,19,-6.3039672,106.8508534,"jl. tb simatupang no.47, rt.12/rw.5, tj. bar., kota jakarta selatan",ChIJNWl0JY_taS4Rcf7n3fGXkxw,Indomaret,ChIJNWl0JY_taS4Rcf7n3fGXkxw,Tanjung Barat,Jagakarsa,Kota Jakarta Selatan,118,-6.304667,106.8503666,alfamart,"1, jl. rancho indah kel no.7, rt.1/rw.2, tj. bar., kota jakarta selatan",94.6032183376882,no,no
indomaret rancho indah,3.2,14,-6.305132,106.8502399,"jl. rancho indah no.17, rt.1/rw.2, tj. bar., kota jakarta selatan",ChIJ76qqqo3taS4RkUk7x72ntOw,Indomaret,ChIJ76qqqo3taS4RkUk7x72ntOw,Tanjung Barat,Jagakarsa,Kota Jakarta Selatan,119,-6.304667,106.8503666,alfamart,"1, jl. rancho indah kel no.7, rt.1/rw.2, tj. bar., kota jakarta selatan",53.568371293664626,no,no
indomaret nangka 1,4.6,117,-6.3029362,106.8475626,"jl. nangka raya no.6, rw.5, tj. bar., kota jakarta selatan",ChIJh2Vkk9jtaS4R71LDz2IfqhU,Indomaret,ChIJh2Vkk9jtaS4R71LDz2IfqhU,Tanjung Barat,Jagakarsa,Kota Jakarta Selatan,120,-6.3027698,106.8484726,alfamart,"jl. nangka i no.4, rt.6/rw.5, tj. bar., kota jakarta selatan",102.26370977553734,no,no
indomaret simatupang 52,5.0,1,-6.3041554,106.8438925,"jl. tb simatupang no.52, rt.8/rw.4, tj. bar., kota jakarta selatan",ChIJZYivLIntaS4RYRVV5fqSKRw,Indomaret,ChIJZYivLIntaS4RYRVV5fqSKRw,Tanjung Barat,Jagakarsa,Kota Jakarta Selatan,121,-6.3039748,106.8430684,alfamart tb.simatupang 3,"jalan tb. simatupang, rt.11/rw.4, tj. bar., kota jakarta selatan",93.26932376772328,no,no
indomaret,4.5,2,-6.2550721,106.7974134,"jl. darmawangsa raya no.125, rt.2, rt.2/rw.1, pulo, kota jakarta selatan",ChIJwX02iFLxaS4RMQgSCQVBeVQ,Indomaret,ChIJwX02iFLxaS4RMQgSCQVBeVQ,Pulo,Kebayoran Baru,Kota Jakarta Selatan,177,-6.2548858,106.796434,alfamart petogogan raya,"jl. petogogan ii no.15a-b, jl. petogogan ii, rt.8/rw.6, pulo, south jakarta city",110.22036855813748,no,no
indomaret panglima polim - blok a,4.0,29,-6.2576762,106.7967995,"jl. rs. fatmawati raya no.1, gandaria utara, kota jakarta selatan",ChIJCZIzrZ_xaS4RiJX_wvOeaH4,Indomaret,ChIJCZIzrZ_xaS4RiJX_wvOeaH4,Gandaria Utara,Kebayoran Baru,Kota Jakarta Selatan,178,-6.2600554,106.796534,alfamart,"jl. fatmawati raya no.kel, rt.4/rw.6, cilandak bar., kota jakarta selatan",266.17800819285907,no,no
indomaret,4.6,43,-6.2627085,106.7887445,"jl. radio dalam raya no.12a, rt.7/rw.10, gandaria utara, kota jakarta selatan",ChIJvygfS6HxaS4RL3sTDNNU6fY,Indomaret,ChIJvygfS6HxaS4RL3sTDNNU6fY,Gandaria Utara,Kebayoran Baru,Kota Jakarta Selatan,179,-6.2623865,106.7887372,alfamart raya radio dalam,"jl. radio dalam raya no.14d, rt.7/rw.10, gandaria utara, kota jakarta selatan",35.81390641205812,no,yes
indomaret petogogan (tb49),4.2,24,-6.2545618,106.7958583,"jl. petogogan ii no.18, rt.9/rw.5, pulo, kota jakarta selatan",ChIJperbNA3xaS4R4zKGAs61CVs,Indomaret,ChIJperbNA3xaS4R4zKGAs61CVs,Pulo,Kebayoran Baru,Kota Jakarta Selatan,180,-6.2548858,106.796434,alfamart petogogan raya,"jl. petogogan ii no.15a-b, jl. petogogan ii, rt.8/rw.6, pulo, south jakarta city",73.12481850248155,no,no
indomaret grand wijaya. t98c,4.2,55,-6.2532473,106.7993526,"grand wijaya blok b10, jl. wijaya ii, rt.6/rw.1, pulo, kota jakarta selatan",ChIJT8Q48HPxaS4RHGBGXmOUqp0,Indomaret,ChIJT8Q48HPxaS4RHGBGXmOUqp0,Pulo,Kebayoran Baru,Kota Jakarta Selatan,181,-6.2542811,106.8012815,alfamart,"jl. darmawangsa vi no.45, rt, rt.5/rw.1, pulo, kota jakarta selatan",242.22279364626255,no,no
indomaret,0.0,0,-6.26411,106.7988205,"pqpx+9g4, unnamed road, rt.1/rw.5, north cipete, south jakarta city",ChIJF69gRyfxaS4R72RSYGIDZyU,Indomaret,ChIJF69gRyfxaS4R72RSYGIDZyU,Cipete Utara,Kebayoran Baru,Kota Jakarta Selatan,182,-6.2657246,106.7998702,alfamart,"jl. abdul majid raya kel no.6a, rt.11/rw.2, cipete utara, kota jakarta selatan",213.76315646863625,no,no
indomaret duta mas fatmawati,4.5,62,-6.2633519,106.7986876,"jl. rs. fatmawati raya no.15, rw.5, cipete utara, kota jakarta selatan",ChIJAQAAAJ3xaS4R3VfdB1vHqnw,Indomaret,ChIJAQAAAJ3xaS4R3VfdB1vHqnw,Cipete Utara,Kebayoran Baru,Kota Jakarta Selatan,183,-6.2657246,106.7998702,alfamart,"jl. abdul majid raya kel no.6a, rt.11/rw.2, cipete utara, kota jakarta selatan",294.4380978536882,no,no
indomaret panglima polim 125b t3pi,4.0,5,-6.2550595,106.7974126,"jl. panglima polim no.125a, rt.2/rw.1, pulo, kota jakarta selatan",ChIJb-Coe5PxaS4Rq13QTJ2nq04,Indomaret,ChIJb-Coe5PxaS4Rq13QTJ2nq04,Pulo,Kebayoran Baru,Kota Jakarta Selatan,184,-6.2548858,106.796434,alfamart petogogan raya,"jl. petogogan ii no.15a-b, jl. petogogan ii, rt.8/rw.6, pulo, south jakarta city",109.87860415513565,no,no
indomaret radio dalam 2,4.4,116,-6.2557519,106.790021,"jl. bri radio dalam no.83, rt.1/rw.8, gandaria utara, kota jakarta selatan",ChIJS-XZvAvxaS4R0DsvIJwCgMs,Indomaret,ChIJS-XZvAvxaS4R0DsvIJwCgMs,Gandaria Utara,Kebayoran Baru,Kota Jakarta Selatan,185,-6.2557314,106.790674,alfamart yado 3,"rt.2/rw.8, gandaria utara, kota jakarta selatan",72.2140094644574,no,no
indomaret radio dalam. t06c,4.2,18,-6.2523025,106.7913861,"jl. radio dalam raya blok haji hamali no.22, rt.1/rw.9, gandaria utara, kota jakarta selatan",ChIJD3ss9gzxaS4RA85t5OGeHsk,Indomaret,ChIJD3ss9gzxaS4RA85t5OGeHsk,Gandaria Utara,Kebayoran Baru,Kota Jakarta Selatan,186,-6.2506507,106.793953,alfamart,"jl. petogogan i, rt. 003/011 kel, rt.1/rw.1, petogogan, kota jakarta selatan",337.99078671135885,no,no
haji indomaret enting. {ts90},3.3,20,-6.2579731,106.8006317,"gg. h. enting no.1, rt.10/rw.1, cipete utara, kota jakarta selatan",ChIJDwH5C3bxaS4RcxF4-cn7X5g,Indomaret,ChIJDwH5C3bxaS4RcxF4-cn7X5g,Cipete Utara,Kebayoran Baru,Kota Jakarta Selatan,187,-6.2595751,106.8022096,alfamart,"jl. damai v rt. 01 kel, rt.2/rw.8, cipete utara, kota jakarta selatan",249.29979401658858,no,no
indomaret damai fatmawati. fq84,4.1,36,-6.2600751,106.7970731,"jl. damai raya no.6, rt.1/rw.5, north cipete, south jakarta city",ChIJXw0Sy5_xaS4RW8YkG7Tx-_8,Indomaret,ChIJXw0Sy5_xaS4RW8YkG7Tx-_8,Cipete Utara,Kebayoran Baru,Kota Jakarta Selatan,188,-6.2600554,106.796534,alfamart,"jl. fatmawati raya no.kel, rt.4/rw.6, cilandak bar., kota jakarta selatan",59.628076322747326,no,no
indomaret damai f561,4.5,140,-6.2620838,106.8056991,"jl. h. jian no.81, rt.1/rw.7, cipete utara, kota jakarta selatan",ChIJPUjazZzxaS4RUSIDkidVSQg,Indomaret,ChIJPUjazZzxaS4RUSIDkidVSQg,Cipete Utara,Kebayoran Baru,Kota Jakarta Selatan,189,-6.2595751,106.8022096,alfamart,"jl. damai v rt. 01 kel, rt.2/rw.8, cipete utara, kota jakarta selatan",476.0054787213367,no,no
"indomaret, blok m square",4.0,1,-6.2443244,106.7993778,"jl. melawai 6 no.3, rw.1, melawai, kota jakarta selatan",ChIJp6k1jNPxaS4RsvpHlCJjam4,Indomaret,ChIJp6k1jNPxaS4RsvpHlCJjam4,Melawai,Kebayoran Baru,Kota Jakarta Selatan,190,-6.2453434,106.8012186,alfamart,"jl. melawai ( blok m mall kel, rt.3/rw.1, melawai, kota jakarta selatan",232.8949227315045,no,no
indomaret melawai iv no 52,5.0,2,-6.2454911,106.80124,"3, jl. melawai iv no.52, rw.1, melawai, kota jakarta selatan",ChIJaWy44RjxaS4RORWqDRtDtk0,Indomaret,ChIJaWy44RjxaS4RORWqDRtDtk0,Melawai,Kebayoran Baru,Kota Jakarta Selatan,191,-6.2453434,106.8012186,alfamart,"jl. melawai ( blok m mall kel, rt.3/rw.1, melawai, kota jakarta selatan",16.592985088156578,yes,yes
indomaret hasanudin 57,4.0,4,-6.2425243,106.8022062,"jl. sultan hasanudin no.53, rt.2/rw.1, melawai, kota jakarta selatan",ChIJ-ZfljI_xaS4RYqEvAOKUxi0,Indomaret,ChIJ-ZfljI_xaS4RYqEvAOKUxi0,Melawai,Kebayoran Baru,Kota Jakarta Selatan,192,-6.2417419,106.8016892,alfamart faletehan,"jl. falatehan i no.30, rt.2/rw.1, melawai, kota jakarta selatan",104.08945209380548,no,no
indomaret,4.0,1,-6.2460531,106.8074507,"jl. wijaya iv no.73, rt.10/rw.1, petogogan, kota jakarta selatan",ChIJLaYz6kXxaS4R23ofLaT83us,Indomaret,ChIJLaYz6kXxaS4R23ofLaT83us,Petogogan,Kebayoran Baru,Kota Jakarta Selatan,193,-6.2453434,106.8012186,alfamart,"jl. melawai ( blok m mall kel, rt.3/rw.1, melawai, kota jakarta selatan",693.3711410560489,no,no
indomaret,4.1,57,-6.2483714,106.7903916,"jl. gandaria 1 no.67, rt.2/rw.8, kramat pela, kota jakarta selatan",ChIJXUBFcBLxaS4RdvT3g4SaRRs,Indomaret,ChIJXUBFcBLxaS4RdvT3g4SaRRs,Kramat Pela,Kebayoran Baru,Kota Jakarta Selatan,194,-6.2483201,106.7900754,alfamart,"jl. gandaria i no.04, rt. 010 kel, rt.1/rw.8, kramat pela, kota jakarta selatan",35.41345328298296,no,yes
indomaret gandaria1,4.7,7,-6.2484603,106.7904931,"jl. jatayu no.24, rt.2/rw.3, kramat pela, kota jakarta selatan",ChIJy45QPxLxaS4RZEV6XxuVfK0,Indomaret,ChIJy45QPxLxaS4RZEV6XxuVfK0,Kramat Pela,Kebayoran Baru,Kota Jakarta Selatan,195,-6.2483201,106.7900754,alfamart,"jl. gandaria i no.04, rt. 010 kel, rt.1/rw.8, kramat pela, kota jakarta selatan",48.731176872623315,no,yes
indomaret petogogan,4.2,21,-6.2503084,106.7941812,"jl. petogogan no.18, gandaria utara, kebayoran baru, pulo, rt.11/rw.7, rt.11/rw.7, pulo, kota jakarta selatan",ChIJ94ljMXPxaS4RH5R1BnmpJP8,Indomaret,ChIJ94ljMXPxaS4RH5R1BnmpJP8,Pulo,Kebayoran Baru,Kota Jakarta Selatan,196,-6.2506507,106.793953,alfamart,"jl. petogogan i, rt. 003/011 kel, rt.1/rw.1, petogogan, kota jakarta selatan",45.66142266026723,no,yes
indomaret melawai 6 no. 17,0.0,0,-6.2443244,106.7993621,"jl. melawai 6 no.17, rt.3/rw.1, melawai, kota jakarta selatan",ChIJZXQ3b1nxaS4RBDCbFsM3GfE,Indomaret,ChIJZXQ3b1nxaS4RBDCbFsM3GfE,Melawai,Kebayoran Baru,Kota Jakarta Selatan,197,-6.2453434,106.8012186,alfamart,"jl. melawai ( blok m mall kel, rt.3/rw.1, melawai, kota jakarta selatan",234.41261343755474,no,no
indomaret kh ahcmad dahlan. {twxj},4.1,27,-6.2458778,106.7920332,"qq3r+jrr, jalan kh. achmad dahlan, rt.3/rw.1, kramat pela, kota jakarta selatan",ChIJuxnwDxPxaS4R4BeT2kbalvE,Indomaret,ChIJuxnwDxPxaS4R4BeT2kbalvE,Kramat Pela,Kebayoran Baru,Kota Jakarta Selatan,198,-6.2468975,106.7898721,alfamart,"jl. gandaria 1 kel no.41, rt.2/rw.3, kramat pela, kota jakarta selatan",264.4211527193291,no,no
indomaret melawai,4.4,110,-6.2460818,106.7998046,"jl. melawai raya no.17 melawai, kebayoran lama, rt.2/rw.1, melawai, south jakarta city",ChIJq2YU5W7xaS4RKF6o-6Mc-uA,Indomaret,ChIJq2YU5W7xaS4RKF6o-6Mc-uA,Melawai,Kebayoran Baru,Kota Jakarta Selatan,199,-6.2453434,106.8012186,alfamart,"jl. melawai ( blok m mall kel, rt.3/rw.1, melawai, kota jakarta selatan",176.55055011383268,no,no
indomaret fave melawai (fm6s),0.0,0,-6.2444214,106.8015382,"jl. melawai iv no.3-11, rt.3/rw.1, melawai, kota jakarta selatan",ChIJZ_9u5ZDxaS4RtzyeEc5s00A,Indomaret,ChIJZ_9u5ZDxaS4RtzyeEc5s00A,Melawai,Kebayoran Baru,Kota Jakarta Selatan,200,-6.2453434,106.8012186,alfamart,"jl. melawai ( blok m mall kel, rt.3/rw.1, melawai, kota jakarta selatan",108.43769774822066,no,no
indomaret panglima polim 106,4.7,29,-6.2476908,106.7976133,"jl. panglima polim no.107, rw.5, b-c, kota jakarta selatan",ChIJI3U5C2XxaS4RdRRpbU-heos,Indomaret,ChIJI3U5C2XxaS4RdRRpbU-heos,Pulo,Kebayoran Baru,Kota Jakarta Selatan,201,-6.2476222,106.7950681,alfamart,"jl. barito ii no.kel, rt.8/rw.5, kramat pela, kota jakarta selatan",281.43623290030166,no,no
indomaret cikajang. f4o3,3.8,33,-6.2394178,106.8107532,"1, jl. cikajang no.1, rt.1/rw.5, petogogan, kota jakarta selatan",ChIJC8mjQGfxaS4RkOquMhj4bMM,Indomaret,ChIJC8mjQGfxaS4RkOquMhj4bMM,Petogogan,Kebayoran Baru,Kota Jakarta Selatan,202,-6.2392731,106.8100952,alfamart,"jl. wolter monginsidi kel no.46, rt.1/rw.6, petogogan, kota jakarta selatan",74.49141039682395,no,no
indomaret dan fotocopi,5.0,1,-6.2393471,106.8107088,"qr66+777, rt.1/rw.5, petogogan, south jakarta city",ChIJeSJcQGfxaS4RjSDS5V3D1ZY,Indomaret,ChIJeSJcQGfxaS4RjSDS5V3D1ZY,Petogogan,Kebayoran Baru,Kota Jakarta Selatan,203,-6.2392731,106.8100952,alfamart,"jl. wolter monginsidi kel no.46, rt.1/rw.6, petogogan, kota jakarta selatan",68.32246098556486,no,no
indomaret,4.6,23,-6.2407877,106.7915935,"jl. tebah ii no.29, rt.13/rw.3, gunung, kota jakarta selatan",ChIJS27Tds_xaS4R_ZcfY1bc7Eo,Indomaret,ChIJS27Tds_xaS4R_ZcfY1bc7Eo,Gunung,Kebayoran Baru,Kota Jakarta Selatan,204,-6.2415428,106.793223,alfamart kyai maja,"10, jl. kyai maja no.37, rt.10/rw.7, kramat pela, kota jakarta selatan",198.72724767076406,no,no
indomaret birah senayan,4.1,168,-6.2353007,106.8152731,"no.13, jl. birah i no.1, rt.5/rw.6, rw. bar., kota jakarta selatan",ChIJkYWOBl_xaS4RmTTy6oeqFXc,Indomaret,ChIJkYWOBl_xaS4RmTTy6oeqFXc,Rawa Barat,Kebayoran Baru,Kota Jakarta Selatan,205,-6.2385571,106.8170846,alfamart,"jl. wolter monginsidi no.125, rt.1/rw.2, rw. bar., kota jakarta selatan",413.77334935555314,no,no
indomaret direktorat jenderal pajak,4.6,7,-6.2255721,106.8163936,"kompleks kantor pusat djp basement 1, jend. gatot subroto kav 40-42, senayan, kebayoran baru, rt.7/rw.1, senayan, kota jakarta selatan",ChIJdfevp1fxaS4RnmGonsjjpmU,Indomaret,ChIJdfevp1fxaS4RnmGonsjjpmU,Senayan,Kebayoran Baru,Kota Jakarta Selatan,206,-6.226305,106.8191669,alfamart,"apartemen taman semanggi, jl. akri kel no.136, rt.8/rw.2, karet semanggi, kota jakarta selatan",317.20581129004717,no,no
indomaret wolter mongonsidi,4.4,150,-6.2385571,106.817085,"1, jl. kapten tendean no.125, rt.1/rw.2, rw. bar., kota jakarta selatan",ChIJB9ECK93xaS4R_Mj4ihkqHJI,Indomaret,ChIJB9ECK93xaS4R_Mj4ihkqHJI,Rawa Barat,Kebayoran Baru,Kota Jakarta Selatan,207,-6.2385571,106.8170846,alfamart,"jl. wolter monginsidi no.125, rt.1/rw.2, rw. bar., kota jakarta selatan",0.04421463635147021,yes,yes
indomaret,4.3,115,-6.2249707,106.807775,"plaza bapindo kav 54-55 no 54-56, jl. jenderal sudirman, rt.5/rw.3, senayan, kota jakarta selatan",ChIJo4N061HxaS4RLUD76ouW53E,Indomaret,ChIJo4N061HxaS4RLUD76ouW53E,Senayan,Kebayoran Baru,Kota Jakarta Selatan,208,-6.226305,106.8191669,alfamart,"apartemen taman semanggi, jl. akri kel no.136, rt.8/rw.2, karet semanggi, kota jakarta selatan",1267.9631362413472,no,no
indomaret cipaku 1 no. 33,0.0,0,-6.2393039,106.8121988,"jl. cipaku i no.2, rw.4, petogogan, kota jakarta selatan",ChIJXxPvJBLxaS4RtgUwzQoQGtQ,Indomaret,ChIJXxPvJBLxaS4RtgUwzQoQGtQ,Petogogan,Kebayoran Baru,Kota Jakarta Selatan,209,-6.2392731,106.8100952,alfamart,"jl. wolter monginsidi kel no.46, rt.1/rw.6, petogogan, kota jakarta selatan",232.5496659866022,no,no
indomaret,4.3,42,-6.2857772,106.7808844,"pq7j+p92, jl. metro pondok indah, rt.3/rw.14, pd. pinang, kota jakarta selatan",ChIJLWcbOM_xaS4RIMEFJuZjRvY,Indomaret,ChIJLWcbOM_xaS4RIMEFJuZjRvY,Pondok Pinang,Kebayoran Lama,Kota Jakarta Selatan,235,-6.2844107,106.7809859,alfamart,"pondok pinang, south jakarta city",152.36164898273066,no,no
indomaret ciputat raya 4,4.1,18,-6.2829641,106.7806074,"jl. ciputat raya no.4, rt.9/rw.2, pd. pinang, kota jakarta selatan",ChIJd-fx6q3xaS4RLtxCS_G0RvY,Indomaret,ChIJd-fx6q3xaS4RLtxCS_G0RvY,Pondok Pinang,Kebayoran Lama,Kota Jakarta Selatan,236,-6.2844107,106.7809859,alfamart,"pondok pinang, south jakarta city",166.20587144143175,no,no
indomaret - plaza satu pondok indah,4.2,9,-6.2843295,106.7811145,"jl. taman duta i no.7, rt.4/rw.14, pd. pinang, kota jakarta selatan",ChIJn2i-wMjxaS4RporVNR8Svs0,Indomaret,ChIJn2i-wMjxaS4RporVNR8Svs0,Pondok Pinang,Kebayoran Lama,Kota Jakarta Selatan,237,-6.2844107,106.7809859,alfamart,"pondok pinang, south jakarta city",16.839076590453818,yes,yes
indomaret ciputat raya 5,4.0,1,-6.2776029,106.7794317,"jl. ciputat raya no.01, rt.11/rw.15, pd. pinang, kota jakarta selatan",ChIJE1VVVbbxaS4R4pD7bmqkkgI,Indomaret,ChIJE1VVVbbxaS4R4pD7bmqkkgI,Pondok Pinang,Kebayoran Lama,Kota Jakarta Selatan,238,-6.2773994,106.7765074,alfamart,"jl. bukit hijau i no.kel, rt.1/rw.13, pd. pinang, kota jakarta selatan",324.00917864026087,no,no
indomaret ciputat raya 4,0.0,0,-6.2776029,106.7794317,"jl. ciputat raya 24 rt 009 rw 002, pondok pinang, kebayoran lama, rt.11/rw.15, pondok pinang, south jakarta city",ChIJE1VVVbbxaS4R-dLB7PhRuak,Indomaret,ChIJE1VVVbbxaS4R-dLB7PhRuak,Pondok Pinang,Kebayoran Lama,Kota Jakarta Selatan,239,-6.2773994,106.7765074,alfamart,"jl. bukit hijau i no.kel, rt.1/rw.13, pd. pinang, kota jakarta selatan",324.00917864026087,no,no
indomaret metro pondok indah,4.3,480,-6.2743949,106.7827922,"blok tc, jl. metro pondok indah no.11, rt.2/rw.15, pd. pinang, kota jakarta selatan",ChIJm56pCbrxaS4RgzDUcFCWSR0,Indomaret,ChIJm56pCbrxaS4RgzDUcFCWSR0,Pondok Pinang,Kebayoran Lama,Kota Jakarta Selatan,240,-6.2773994,106.7765074,alfamart,"jl. bukit hijau i no.kel, rt.1/rw.13, pd. pinang, kota jakarta selatan",770.8130922361453,no,no
indomaret tanah kusir 2 dalam tt2d,4.4,269,-6.257153,106.784136,"gg. swadaya iii no.18, rt.10/rw.9, kby. lama sel., kota jakarta selatan",ChIJZbLLdm_xaS4R4cgyDKLeE8k,Indomaret,ChIJZbLLdm_xaS4R4cgyDKLeE8k,Kebayoran Lama Selatan,Kebayoran Lama,Kota Jakarta Selatan,241,-6.2582723,106.7839248,alfamart,"jl. tanah kusir ii no.65, rt.3/rw.011 kel, kby. lama sel., kota jakarta selatan",126.6310335269504,no,no
indomaret ciputat raya ta3p,4.3,59,-6.2585712,106.7773998,"jl. ciputat raya no.35, rw.10, kby. lama sel., kota jakarta selatan",ChIJd734LwfxaS4R9GSRMspZ-XE,Indomaret,ChIJd734LwfxaS4R9GSRMspZ-XE,Kebayoran Lama Selatan,Kebayoran Lama,Kota Jakarta Selatan,242,-6.2570436,106.7772368,alfamart,"jl. raya ciputat no.3 b rt.003 kel, rt.3/rw.10, kby. lama sel., kota jakarta selatan",170.81443099666913,no,no
indomaret,4.0,3,-6.2511809,106.7781617,"jl. pahlawan no.2, rw.10, kby. lama utara, kota jakarta selatan",ChIJI231igTxaS4RKIR6Aki7DBw,Indomaret,ChIJI231igTxaS4RKIR6Aki7DBw,Kebayoran Lama Utara,Kebayoran Lama,Kota Jakarta Selatan,243,-6.2534671,106.7755935,alfamart,"jl. bintaro raya no.21a, rt.11/rw.10, kby. lama sel., kota jakarta selatan",381.0623460418954,no,no
indomaret,4.3,7,-6.2774015,106.7765376,"pertokoan taman hijau baru, jalan bukit hijau 1 no. 14, pondok pinang, kebayoran lama, rt.1/rw.13, pd. pinang, kota jakarta selatan",ChIJkx-NPnL4aS4RDbS5_c6xsp4,Indomaret,ChIJkx-NPnL4aS4RDbS5_c6xsp4,Pondok Pinang,Kebayoran Lama,Kota Jakarta Selatan,244,-6.2773994,106.7765074,alfamart,"jl. bukit hijau i no.kel, rt.1/rw.13, pd. pinang, kota jakarta selatan",3.3461145660487217,yes,yes
indomaret sultan iskandar muda,4.2,95,-6.2511828,106.7813003,"jl. sultan iskandar muda no.9, rt.8/rw.1, kby. lama sel., kota jakarta selatan",ChIJ74HObQXxaS4RUip6zNyV5gE,Indomaret,ChIJ74HObQXxaS4RUip6zNyV5gE,Kebayoran Lama Selatan,Kebayoran Lama,Kota Jakarta Selatan,245,-6.250438,106.7817332,alfamart,"jl. sultan iskandar muda no.72, rt.10/rw.2, kby. lama sel., kota jakarta selatan",95.64766461555982,no,no
indomaret ciputat raya 5,4.0,27,-6.2711724,106.7755201,"indomaret, jl. ciputat raya no.5, rt.1/rw.6, pd. pinang, kota jakarta selatan",ChIJmeRBFrLxaS4RmHuZnxbwxI8,Indomaret,ChIJmeRBFrLxaS4RmHuZnxbwxI8,Pondok Pinang,Kebayoran Lama,Kota Jakarta Selatan,246,-6.2750484,106.7735843,alfamart ciputat raya 2,"pqff+xcp, rt.7/rw.6, pondok pinang, south jakarta city",481.1800128650129,no,no
indomaret,4.7,7,-6.2534879,106.7758737,"jl. bintaro raya no.17, rt.013/rw.10, kby. lama sel., kota jakarta selatan",ChIJY1VVVQTxaS4RtmETuVP403E,Indomaret,ChIJY1VVVQTxaS4RtmETuVP403E,Kebayoran Lama Selatan,Kebayoran Lama,Kota Jakarta Selatan,247,-6.2534671,106.7755935,alfamart,"jl. bintaro raya no.21a, rt.11/rw.10, kby. lama sel., kota jakarta selatan",31.057708324935366,no,yes
indomaret praja dalam k,4.1,17,-6.2505751,106.7834542,"jl. praja dalam k no.18, rt.9/rw.5, kby. lama sel., kota jakarta selatan",ChIJOwAAAAfxaS4RKTnNaZ1qgc4,Indomaret,ChIJOwAAAAfxaS4RKTnNaZ1qgc4,Kebayoran Lama Selatan,Kebayoran Lama,Kota Jakarta Selatan,248,-6.2495325,106.7836804,alfamart,"jl. praja dalam k kel, rt.4/rw.12, kby. lama sel., kota jakarta selatan",118.59750354446571,no,no
indomaret pupan ciputat,5.0,11,-6.2831678,106.7717267,"jl. pupan no: 01 rt 07 / rw 08, pondok pinang, kebayoran lama, rt.11/rw.15, pd. pinang, kota jakarta selatan",ChIJE1VVVbbxaS4RJVUwg--0dq4,Indomaret,ChIJE1VVVbbxaS4RJVUwg--0dq4,Pondok Pinang,Kebayoran Lama,Kota Jakarta Selatan,249,-6.2829676,106.7717234,alfamart,"jl. ciputat raya, jl. pupan kel no.1, rw.8, pd. pinang, kota jakarta selatan",22.26424290176136,yes,yes
indomaret spbu ciputat. t04d,4.9,7,-6.2479081,106.7781297,"jl. ciputat raya no.12, rt.8/rw.8, kby. lama utara, kota jakarta selatan",ChIJh3nZSBvxaS4RZ-S7enqBkV0,Indomaret,ChIJh3nZSBvxaS4RZ-S7enqBkV0,Kebayoran Lama Utara,Kebayoran Lama,Kota Jakarta Selatan,250,-6.2476263,106.7785018,alfamart,"jl. ciputat raya, rt. 8/8 kel, rt.8/rw.8, kby. lama sel., kota jakarta selatan",51.70628729936965,no,no
indomaret delman utama. {f763},4.0,123,-6.2479763,106.7728671,"jl. delman utama, rt.2/rw.11, kby. lama utara, kota jakarta selatan",ChIJR9-Fph3xaS4R5_wCOsFGSn0,Indomaret,ChIJR9-Fph3xaS4R5_wCOsFGSn0,Kebayoran Lama Utara,Kebayoran Lama,Kota Jakarta Selatan,251,-6.2452254,106.7725276,alfamart,"jl. peninggaran raya no.kel, rt.8/rw.11, kby. lama utara, kota jakarta selatan",308.17985747985125,no,no
indomaret bungur raya 2,4.8,77,-6.2476761,106.7817145,"jl. duku raya no.79-81, rt.14/rw.6, kby. lama utara, kota jakarta selatan",ChIJhV_DfRrxaS4Ry97kNCuA-dY,Indomaret,ChIJhV_DfRrxaS4Ry97kNCuA-dY,Kebayoran Lama Utara,Kebayoran Lama,Kota Jakarta Selatan,252,-6.2495325,106.7836804,alfamart,"jl. praja dalam k kel, rt.4/rw.12, kby. lama sel., kota jakarta selatan",299.71558701235574,no,no
indomaret ciputat raya 2a-b,4.9,26,-6.2512092,106.7780693,"pqxh+g69, jl. ciputat raya, rt.9/rw.8, kby. lama utara, kota jakarta selatan",ChIJM0m-HlLxaS4R1ijwvB3yJVg,Indomaret,ChIJM0m-HlLxaS4R1ijwvB3yJVg,Kebayoran Lama Utara,Kebayoran Lama,Kota Jakarta Selatan,253,-6.2534671,106.7755935,alfamart,"jl. bintaro raya no.21a, rt.11/rw.10, kby. lama sel., kota jakarta selatan",371.3815148781676,no,no
indomaret pondok pinang,4.4,131,-6.277701,106.7728599,"jl. ciputat raya no.9, rt.1/rw.7, pd. pinang, kota jakarta selatan",ChIJFzBJ_bTxaS4R8JON9mw_ULs,Indomaret,ChIJFzBJ_bTxaS4R8JON9mw_ULs,Pondok Pinang,Kebayoran Lama,Kota Jakarta Selatan,254,-6.2799786,106.7724433,alfamart ciputat,"jl. ciputat raya no.21, rt.1/rw.7, pd. pinang, kota jakarta selatan",257.40979939208825,no,no
indomaret,4.0,1,-6.2444003,106.7725752,"jl. peninggaran raya no.9, rw.11, kby. lama utara, kota jakarta selatan",ChIJSY442R3xaS4RiKFQ5S2VbxE,Indomaret,ChIJSY442R3xaS4RiKFQ5S2VbxE,Kebayoran Lama Utara,Kebayoran Lama,Kota Jakarta Selatan,255,-6.2452254,106.7725276,alfamart,"jl. peninggaran raya no.kel, rt.8/rw.11, kby. lama utara, kota jakarta selatan",91.8978036017051,no,no
indomaret gandaria city,4.4,91,-6.2458967,106.78401,"jl. kh. moh. syafi'i hadzami no.45, rt.9/rw.6, kby. lama utara, kota jakarta selatan",ChIJM5u87BDxaS4Rgyv0HFQy6ZY,Indomaret,ChIJM5u87BDxaS4Rgyv0HFQy6ZY,Kebayoran Lama Utara,Kebayoran Lama,Kota Jakarta Selatan,256,-6.2495325,106.7836804,alfamart,"jl. praja dalam k kel, rt.4/rw.12, kby. lama sel., kota jakarta selatan",405.9213098029605,no,no
indomaret ciputat raya 1 {ttdq},4.6,7,-6.2695822,106.7748789,"jl. ciputat raya no.1 3 11, rt.3/rw.11, pd. pinang, kota jakarta selatan",ChIJY-C-8sPxaS4RnTlXQJ-0AgA,Indomaret,ChIJY-C-8sPxaS4RnTlXQJ-0AgA,Pondok Pinang,Kebayoran Lama,Kota Jakarta Selatan,257,-6.2665553,106.774843,alfamart,"jl. ciputat raya kel no.101, rw.4, pd. pinang, kota jakarta selatan",336.5997779842603,no,no
indomaret bungur raya2 {fuff},4.0,18,-6.2450426,106.780055,"jalan bunguran, rt.12/rw.2, kby. lama sel., kota jakarta selatan",ChIJ_46xkBrxaS4ReC4bR5CD23A,Indomaret,ChIJ_46xkBrxaS4ReC4bR5CD23A,Kebayoran Lama Selatan,Kebayoran Lama,Kota Jakarta Selatan,258,-6.2476263,106.7785018,alfamart,"jl. ciputat raya, rt. 8/8 kel, rt.8/rw.8, kby. lama sel., kota jakarta selatan",334.68384062400054,no,no
indomaret ciputat raya 2,4.4,22,-6.2463603,106.7796743,"jl. raya ciputat, rt.8/rw.4, kby. lama utara, kota jakarta selatan",ChIJfYz0UxrxaS4RDiV8YKP8J24,Indomaret,ChIJfYz0UxrxaS4RDiV8YKP8J24,Kebayoran Lama Utara,Kebayoran Lama,Kota Jakarta Selatan,259,-6.2476263,106.7785018,alfamart,"jl. ciputat raya, rt. 8/8 kel, rt.8/rw.8, kby. lama sel., kota jakarta selatan",191.3471309443772,no,no
indomaret ciputat 18,4.1,69,-6.2638128,106.7750009,"pqpg+f2c, jl. raya ciputat, rt.6/rw.1, pd. pinang, kota jakarta selatan",ChIJQzFdk6vxaS4Ri6I1vWvx4_s,Indomaret,ChIJQzFdk6vxaS4Ri6I1vWvx4_s,Pondok Pinang,Kebayoran Lama,Kota Jakarta Selatan,260,-6.2644227,106.7750253,alfamart ciputat raya 5,"jl. ciputat raya no.23, rw.1, pd. pinang, kota jakarta selatan",67.8714842151052,no,no
indomaret peninggaran raya,4.2,18,-6.2443344,106.7725693,"jl. peninggaran raya no.9, kby. lama utara, kota jakarta selatan",ChIJmemSdh7xaS4R82TubBojfuI,Indomaret,ChIJmemSdh7xaS4R82TubBojfuI,Kebayoran Lama Utara,Kebayoran Lama,Kota Jakarta Selatan,261,-6.2452254,106.7725276,alfamart,"jl. peninggaran raya no.kel, rt.8/rw.11, kby. lama utara, kota jakarta selatan",99.18197972707189,no,no
indomaret,4.7,3,-6.2656707,106.7753023,"rt.5/rw.2, pd. pinang, kota jakarta selatan",ChIJBXn-SFTxaS4R7R3uiSMUobE,Indomaret,ChIJBXn-SFTxaS4R7R3uiSMUobE,Pondok Pinang,Kebayoran Lama,Kota Jakarta Selatan,262,-6.2665553,106.774843,alfamart,"jl. ciputat raya kel no.101, rw.4, pd. pinang, kota jakarta selatan",110.69136745260145,no,no
indomaret h. muhi,4.2,70,-6.2666653,106.7706362,"jl. haji muhi raya, rt.10/rw.4, pondok pinang, kebayoran lama, jl. h. muhi raya no.39, rt.10/rw.4, pd. pinang, kota jakarta selatan",ChIJTfxSM1PwaS4RgYyvQDCry1A,Indomaret,ChIJTfxSM1PwaS4RgYyvQDCry1A,Pondok Pinang,Kebayoran Lama,Kota Jakarta Selatan,263,-6.2665553,106.774843,alfamart,"jl. ciputat raya kel no.101, rw.4, pd. pinang, kota jakarta selatan",465.14122979865937,no,no
indomaret kebayoran lama 3,4.5,24,-6.2330232,106.7804064,"jl. raya kby. lama no.227, rt.10/rw.1, grogol sel., kota jakarta selatan",ChIJob7ukyTxaS4RigRph3C5HUU,Indomaret,ChIJob7ukyTxaS4RigRph3C5HUU,Grogol Selatan,Kebayoran Lama,Kota Jakarta Selatan,264,-6.2374573,106.7825889,alfamart express stasiun kebayoran lama,"jl. st. no.7a, rt.2/rw.1, south, kota jakarta selatan",548.9069382672205,no,no
indomaret point,3.7,11,-6.2371779,106.7826854,"stasiun kebayoran, jl. mesjid al huda no.1a, rt.3/rw.1, kby. lama utara, kota jakarta selatan",ChIJ1yLGXyDxaS4R85Dgviw7Wro,Indomaret,ChIJ1yLGXyDxaS4R85Dgviw7Wro,Kebayoran Lama Utara,Kebayoran Lama,Kota Jakarta Selatan,265,-6.2374573,106.7825889,alfamart express stasiun kebayoran lama,"jl. st. no.7a, rt.2/rw.1, south, kota jakarta selatan",32.84806691605961,no,yes
indomaret simprug,0.0,0,-6.2288581,106.7857419,"jl. rw. simprug iii no.3, rw.9, grogol sel., kota jakarta selatan",ChIJkary8qvxaS4Rxb3W6Gmvnkg,Indomaret,ChIJkary8qvxaS4Rxb3W6Gmvnkg,Grogol Selatan,Kebayoran Lama,Kota Jakarta Selatan,266,-6.2284805,106.7855186,alfamart,"jl. rawa simprug iii, rt.03, r no.kel, rt.3/rw.9, grogol sel., kota jakarta selatan",48.70518238642228,no,yes
indomaret kebayoran lama 1,4.2,373,-6.2381749,106.7808075,"jl. raya kby. lama no.4, rt.2/rw.1, kby. lama utara, kota jakarta selatan",ChIJodfvliLxaS4RpMCXWAnHq3Q,Indomaret,ChIJodfvliLxaS4RpMCXWAnHq3Q,Kebayoran Lama Utara,Kebayoran Lama,Kota Jakarta Selatan,267,-6.2374573,106.7825889,alfamart express stasiun kebayoran lama,"jl. st. no.7a, rt.2/rw.1, south, kota jakarta selatan",212.46323866375263,no,no
indomaret kebayoran lama 242,4.5,130,-6.2319519,106.7803754,"jl. raya kby. lama no.242, rt.11/rw.1, grogol sel., kota jakarta selatan",ChIJM8eV5iTxaS4RwEvXAASHlko,Indomaret,ChIJM8eV5iTxaS4RwEvXAASHlko,Grogol Selatan,Kebayoran Lama,Kota Jakarta Selatan,268,-6.228025,106.7785565,alfamart,"jl. raya kby. lama no.37, rt.5/rw.007 kel, grogol sel., kota jakarta selatan",480.71755711498304,no,no
indomaret point,4.1,9,-6.2362253,106.7826683,"jl. st. no.3, rt.4/rw.1, kby. lama utara, kota jakarta selatan",ChIJEUFZ1DzxaS4RfUdVOuGCFGo,Indomaret,ChIJEUFZ1DzxaS4RfUdVOuGCFGo,Kebayoran Lama Utara,Kebayoran Lama,Kota Jakarta Selatan,269,-6.2374573,106.7825889,alfamart express stasiun kebayoran lama,"jl. st. no.7a, rt.2/rw.1, south, kota jakarta selatan",137.2731955134765,no,no
indomaret cipulir 1. t2z0,4.2,186,-6.23568,106.7734791,"jl. cipulir i no.4, rt.12/rw.4, cipulir, kota jakarta selatan",ChIJy6BN4CDxaS4RsVFxeRXbZhc,Indomaret,ChIJy6BN4CDxaS4RsVFxeRXbZhc,Cipulir,Kebayoran Lama,Kota Jakarta Selatan,270,-6.2382658,106.7723374,alfamart,"jl. raya ciledug, rt. 5/4 kel, rt.6/rw.11, cipulir, kota jakarta selatan",314.00466461871736,no,no
indomaret assirot,4.3,156,-6.2255589,106.7751594,"jl. assirot no.6a, rt.5/rw.5, grogol sel., kota jakarta selatan",ChIJ8VBSPinxaS4Rsng_u-K88hw,Indomaret,ChIJ8VBSPinxaS4Rsng_u-K88hw,Grogol Selatan,Kebayoran Lama,Kota Jakarta Selatan,271,-6.228025,106.7785565,alfamart,"jl. raya kby. lama no.37, rt.5/rw.007 kel, grogol sel., kota jakarta selatan",464.9785792679521,no,no
kebayoran lama indomaret assirot,4.7,213,-6.2253634,106.7782561,"jl. raya kby. lama no.n 44, rt.7/rw.1, grogol sel., kota jakarta selatan",ChIJeZWj6y7xaS4RkU4hCYZW7ig,Indomaret,ChIJeZWj6y7xaS4RkU4hCYZW7ig,Grogol Selatan,Kebayoran Lama,Kota Jakarta Selatan,272,-6.228025,106.7785565,alfamart,"jl. raya kby. lama no.37, rt.5/rw.007 kel, grogol sel., kota jakarta selatan",297.8138297650939,no,no
indomaret patal senayan,4.1,122,-6.2187177,106.7954941,"jl. patal senayan no.5, rw.7, grogol utara, kota jakarta selatan",ChIJPQAAAM32aS4RcEnvkUaMIR4,Indomaret,ChIJPQAAAM32aS4RcEnvkUaMIR4,Grogol Utara,Kebayoran Lama,Kota Jakarta Selatan,273,-6.2187475,106.7937508,alfamart,"jl. patal senayan, no. 01, blok f, kav. 197, rt.3/rw.007 kel, grogol utara, kota jakarta selatan",192.73420091114093,no,no
indomaret,3.7,33,-6.2180145,106.7953619,"indomaret, jl. ridwan i no.5, rt.5/rw.7, grogol utara, kota jakarta selatan",ChIJw8ErsUrxaS4RHLDUy4GJLKU,Indomaret,ChIJw8ErsUrxaS4RHLDUy4GJLKU,Grogol Utara,Kebayoran Lama,Kota Jakarta Selatan,274,-6.2187475,106.7937508,alfamart,"jl. patal senayan, no. 01, blok f, kav. 197, rt.3/rw.007 kel, grogol utara, kota jakarta selatan",195.85737159757062,no,no
indomaret kemandoran,4.2,302,-6.2134016,106.7907194,"jl. kemandoran i, rt.5/rw.16, grogol utara, kota jakarta selatan",ChIJNRM7bsn2aS4R8hvF8YZwxCM,Indomaret,ChIJNRM7bsn2aS4R8hvF8YZwxCM,Grogol Utara,Kebayoran Lama,Kota Jakarta Selatan,275,-6.2187475,106.7937508,alfamart,"jl. patal senayan, no. 01, blok f, kav. 197, rt.3/rw.007 kel, grogol utara, kota jakarta selatan",682.3817915757975,no,no
indomaret panjang cidodol 2 (tg26),3.8,8,-6.227387,106.772065,"qqfc+2rv, jl. panjang cidodol, rt.14/rw.6, grogol sel., kota jakarta selatan",ChIJK5X2RyjxaS4RyPDN-Qxm35w,Indomaret,ChIJK5X2RyjxaS4RyPDN-Qxm35w,Grogol Selatan,Kebayoran Lama,Kota Jakarta Selatan,276,-6.228025,106.7785565,alfamart,"jl. raya kby. lama no.37, rt.5/rw.007 kel, grogol sel., kota jakarta selatan",721.0614790417834,no,no
indomaret,5.0,1,-6.2321661,106.769049,"jl. h. husin no.7, rt.7/rw.13, grogol sel., kota jakarta selatan",ChIJ7wOa9NjwaS4RlE5wVtVplPI,Indomaret,ChIJ7wOa9NjwaS4RlE5wVtVplPI,Grogol Selatan,Kebayoran Lama,Kota Jakarta Selatan,277,-6.2375671,106.7690621,alfamart,"jl. ciledug raya kel no.99, rw.5, cipulir, kota jakarta selatan",600.5663740446604,no,no
indomaret panjang cidodol 3,4.4,14,-6.2321222,106.769101,"jl. masjid cidodol rt. 009 / rw. 012 no: 65a, rt.7/rw.9, south grogol, south jakarta city",ChIJGwAAADvxaS4RE8wz9nSvxB4,Indomaret,ChIJGwAAADvxaS4RE8wz9nSvxB4,Grogol Selatan,Kebayoran Lama,Kota Jakarta Selatan,278,-6.2375671,106.7690621,alfamart,"jl. ciledug raya kel no.99, rw.5, cipulir, kota jakarta selatan",605.4613612203468,no,no
indomaret jalan masjid cidodol,4.3,46,-6.2321668,106.769016,"jl. masjid cidodol no.55-58, rt.7/rw.12, grogol sel., kota jakarta selatan",ChIJJUPMjNjwaS4RdFqvhCYBXTs,Indomaret,ChIJJUPMjNjwaS4RdFqvhCYBXTs,Grogol Selatan,Kebayoran Lama,Kota Jakarta Selatan,279,-6.2375671,106.7690621,alfamart,"jl. ciledug raya kel no.99, rw.5, cipulir, kota jakarta selatan",600.5084129363239,no,no
indomaret ciledug raya 2,4.3,9,-6.238261,106.7717106,"jl. seskoal no.11, rt.8/rw.11, cipulir, kota jakarta selatan",ChIJ6aVHOCDxaS4R6MCZegYiQ0Q,Indomaret,ChIJ6aVHOCDxaS4R6MCZegYiQ0Q,Cipulir,Kebayoran Lama,Kota Jakarta Selatan,280,-6.2382658,106.7723374,alfamart,"jl. raya ciledug, rt. 5/4 kel, rt.6/rw.11, cipulir, kota jakarta selatan",69.28642907478573,no,no
indomaret kebayoran lama 2 {thc1},3.7,23,-6.218097,106.778701,"jl. raya kby. lama no.27, rt.5/rw.1, grogol utara, kota jakarta selatan",ChIJf6MZFinxaS4RyCeGToSenpA,Indomaret,ChIJf6MZFinxaS4RyCeGToSenpA,Grogol Utara,Kebayoran Lama,Kota Jakarta Selatan,281,-6.2208661,106.7786611,alfamart,"jl. raya kby. lama kel no.60, rt.7/rw.2, grogol utara, kota jakarta selatan",307.9418840102428,no,no
indomaret al mubarok 1,4.6,80,-6.2393362,106.7710655,"jl. al mubarok 1 no.14, rt.8/rw.6, cipulir, kota jakarta selatan",ChIJuVSpxN_waS4Rm819BJDCdw0,Indomaret,ChIJuVSpxN_waS4Rm819BJDCdw0,Cipulir,Kebayoran Lama,Kota Jakarta Selatan,282,-6.2382658,106.7723374,alfamart,"jl. raya ciledug, rt. 5/4 kel, rt.6/rw.11, cipulir, kota jakarta selatan",184.2076916993086,no,no
indomaret kemandoran 8,3.8,35,-6.2131316,106.7865443,"jl. kemandoran viii no.5, rw.11, grogol utara, kota jakarta selatan",ChIJT8mnns72aS4RPfUpbeXysQo,Indomaret,ChIJT8mnns72aS4RPfUpbeXysQo,Grogol Utara,Kebayoran Lama,Kota Jakarta Selatan,283,-6.2075073,106.7834121,alfamart,"jl.kebayoran lama no.21 rt 4/3 kel, jl. raya kby. lama no.2a, rt.4/rw.3, grogol utara, kota jakarta selatan",714.8435614924281,no,no
indomaret palmerah barat 3,4.0,11,-6.2070277,106.7847179,"jl. palmerah barat no.3, rt.4/rw.no: 36, grogol utara, kota jakarta selatan",ChIJXX3NcsX2aS4RkMJNDkES6m0,Indomaret,ChIJXX3NcsX2aS4RkMJNDkES6m0,Grogol Utara,Kebayoran Lama,Kota Jakarta Selatan,284,-6.2075073,106.7834121,alfamart,"jl.kebayoran lama no.21 rt 4/3 kel, jl. raya kby. lama no.2a, rt.4/rw.3, grogol utara, kota jakarta selatan",153.88351079559547,no,no
indomaret palmerah (pertamina 34.122.05),0.0,0,-6.2083321,106.7882096,"jl. palmerah barat no.35, rt.1/rw.3, grogol utara, kota jakarta selatan",ChIJd51xpy33aS4Rtb1xjVOSXzI,Indomaret,ChIJd51xpy33aS4Rtb1xjVOSXzI,Grogol Utara,Kebayoran Lama,Kota Jakarta Selatan,285,-6.2075073,106.7834121,alfamart,"jl.kebayoran lama no.21 rt 4/3 kel, jl. raya kby. lama no.2a, rt.4/rw.3, grogol utara, kota jakarta selatan",538.2021332932903,no,no
fresh indomaret kemang,4.4,382,-6.2725977,106.8149503,"jl. kemang raya no.128, rt.3/rw.2, bangka, kota jakarta selatan",ChIJsVZkdYnxaS4RtDwdFb5B2t0,Indomaret,ChIJsVZkdYnxaS4RtDwdFb5B2t0,Bangka,Mampang Prapatan,Kota Jakarta Selatan,317,-6.2730548,106.8150264,alfamart,"jl.kemang selatan x11, kel, rt.11/rw.4, cilandak tim., kota jakarta selatan",51.51855177008608,no,no
indomaret kemang mampang tjkc,3.4,16,-6.2555529,106.8123381,"jl. kemang raya no.15, rt.13/rw.1, bangka, kota jakarta selatan",ChIJN7p70X7xaS4R6VpOujMI_Wo,Indomaret,ChIJN7p70X7xaS4R6VpOujMI_Wo,Bangka,Mampang Prapatan,Kota Jakarta Selatan,318,-6.2523984,106.8145319,alfamart,"jl. bangka raya kel no.101, rt.2/rw.1, pela mampang, kota jakarta selatan",426.42284797681833,no,no
indomaret spbu kemang,4.5,98,-6.2668841,106.8157034,"spbu kemang, jl. kemang raya no.7, rw.2, bangka, kota jakarta selatan",ChIJXaV9uofxaS4R737kEcz9UiE,Indomaret,ChIJXaV9uofxaS4R737kEcz9UiE,Bangka,Mampang Prapatan,Kota Jakarta Selatan,319,-6.266536,106.8103135,alfamart,"jl. pelita no.99a, rt.8/rw.7, cipete utara, kota jakarta selatan",597.0052031200413,no,no
indomaret kemang selatan 8 t6zo,4.5,225,-6.2674666,106.8139114,"jl. kemang selatan viii no.67f, rt.7/rw.2, bangka, kota jakarta selatan",ChIJDVvROIbxaS4RE-sW0bxd2kc,Indomaret,ChIJDVvROIbxaS4RE-sW0bxd2kc,Bangka,Mampang Prapatan,Kota Jakarta Selatan,320,-6.266536,106.8103135,alfamart,"jl. pelita no.99a, rt.8/rw.7, cipete utara, kota jakarta selatan",410.92029535808746,no,no
indomaret point kemang,4.4,196,-6.2602656,106.815172,"jl. kemang raya no.8, rt.8/rw.2, bangka, kota jakarta selatan",ChIJS0XcTYDxaS4R7ku6ssO11Gs,Indomaret,ChIJS0XcTYDxaS4R7ku6ssO11Gs,Bangka,Mampang Prapatan,Kota Jakarta Selatan,321,-6.2572531,106.8177386,alfamart,"jl. kemang utara, no. 12 d-e, rt. 006/005, kel, rt.6/rw.1, bangka, kota jakarta selatan",438.96431309606123,no,no
indomaret apartemen kemang jaya,4.0,9,-6.2646261,106.813776,"jl. taman kemang jaya no.9, rw.2, bangka, kota jakarta selatan",ChIJGQe3OH7xaS4RIoThryrl3zc,Indomaret,ChIJGQe3OH7xaS4RIoThryrl3zc,Bangka,Mampang Prapatan,Kota Jakarta Selatan,322,-6.266536,106.8103135,alfamart,"jl. pelita no.99a, rt.8/rw.7, cipete utara, kota jakarta selatan",437.68826169584025,no,no
indomaret,4.4,243,-6.2518104,106.8145478,"jl. bangka raya no.105, rt.1/rw.12, pela mampang, kota jakarta selatan",ChIJ0dTG_nzxaS4RT0V7owX_qpg,Indomaret,ChIJ0dTG_nzxaS4RT0V7owX_qpg,Pela Mampang,Mampang Prapatan,Kota Jakarta Selatan,323,-6.2523984,106.8145319,alfamart,"jl. bangka raya kel no.101, rt.2/rw.1, pela mampang, kota jakarta selatan",65.4063235163969,no,no
indomaret,5.0,2,-6.255084,106.8144756,"jl. bangka raya no.5d, rt.13/rw.1, bangka, kota jakarta selatan",ChIJna8wx9fxaS4RYJPoLhdWN9A,Indomaret,ChIJna8wx9fxaS4RYJPoLhdWN9A,Bangka,Mampang Prapatan,Kota Jakarta Selatan,324,-6.2523984,106.8145319,alfamart,"jl. bangka raya kel no.101, rt.2/rw.1, pela mampang, kota jakarta selatan",298.69034100714697,no,no
indomaret point kemang (argo promosi),4.7,71,-6.2617066,106.8155229,"jl. kemang raya no.36, rt.12/rw.5, bangka, kota jakarta selatan",ChIJ_YNG5YDxaS4RQpg-Vbilhmw,Indomaret,ChIJ_YNG5YDxaS4RQpg-Vbilhmw,Bangka,Mampang Prapatan,Kota Jakarta Selatan,325,-6.2572531,106.8177386,alfamart,"jl. kemang utara, no. 12 d-e, rt. 006/005, kel, rt.6/rw.1, bangka, kota jakarta selatan",552.4574841303415,no,no
indomaret,0.0,0,-6.2474885,106.8149378,"jl. bangka iig no.11, rw.11, pela mampang, kota jakarta selatan",ChIJ-bHiAPTxaS4RQJ3di8P7F2g,Indomaret,ChIJ-bHiAPTxaS4RQJ3di8P7F2g,Pela Mampang,Mampang Prapatan,Kota Jakarta Selatan,326,-6.2440528,106.8161758,alfamart,"jl. bangka raya kel no.31 a, rt.5/rw.5, pela mampang, kota jakarta selatan",405.80168954691356,no,no
indomaret bangka raya,4.6,18,-6.2452694,106.8158177,"jl. bangka raya no. 30, rt. 02 / 02, pela mampang, bangka, rt.11/rw.11, pela mampang, kota jakarta selatan",ChIJETmoJH3xaS4R8_bMnW8Vt74,Indomaret,ChIJETmoJH3xaS4R8_bMnW8Vt74,Pela Mampang,Mampang Prapatan,Kota Jakarta Selatan,327,-6.2440528,106.8161758,alfamart,"jl. bangka raya kel no.31 a, rt.5/rw.5, pela mampang, kota jakarta selatan",140.9519428072643,no,no
indomaret kemang timur raya {t01a},4.0,13,-6.2681964,106.8239824,"jalan kemang timur, rt.7/rw.3, bangka, mampang prapatan, rt.7/rw.3, bangka, kota jakarta selatan",ChIJ89CaVi_yaS4Rmq471uckjw0,Indomaret,ChIJ89CaVi_yaS4Rmq471uckjw0,Bangka,Mampang Prapatan,Kota Jakarta Selatan,328,-6.2662632,106.8239456,alfamart,"jl. kemang timur no.50, rt.9/rw.003 kel, bangka, kota jakarta selatan",215.00080856233396,no,no
indomaret,2.3,3,-6.248328,106.8240323,"jl. mampang prapatan vii no.1, rw.3, tegal parang, kota jakarta selatan",ChIJJXUTrNDzaS4RJSFdr933enM,Indomaret,ChIJJXUTrNDzaS4RJSFdr933enM,Tegal Parang,Mampang Prapatan,Kota Jakarta Selatan,329,-6.2457614,106.8258046,alfamart,"jl. mampang prpt. raya kel no.58 a, rt.9/rw.3, tegal parang, kota jakarta selatan",346.1595936361145,no,no
indomaret point,0.0,0,-6.2440509,106.8161762,"jl. bangka raya no.25, rw.2, pela mampang, kota jakarta selatan",ChIJNW2A01zxaS4RylvPeD8BOB4,Indomaret,ChIJNW2A01zxaS4RylvPeD8BOB4,Pela Mampang,Mampang Prapatan,Kota Jakarta Selatan,330,-6.2440528,106.8161758,alfamart,"jl. bangka raya kel no.31 a, rt.5/rw.5, pela mampang, kota jakarta selatan",0.21584758889440006,yes,yes
indomaret pondok jaya mampang,4.4,111,-6.2494907,106.8214751,"jl. pondok jaya vi no.6, rt.6/rw.6, pela mampang, kota jakarta selatan",ChIJf2NThW7zaS4RXQqG3ssDz7w,Indomaret,ChIJf2NThW7zaS4RXQqG3ssDz7w,Pela Mampang,Mampang Prapatan,Kota Jakarta Selatan,331,-6.2510088,106.8216417,alfamart,"jl. pondok jaya vi no.31 rt.00 kel, rt.6/rw.6, pela mampang, kota jakarta selatan",169.8067269774109,no,no
kemang timur indomaret,4.2,207,-6.2639511,106.8236563,"jl. kemang timur no.38, rt.8/rw.3, bangka, kota jakarta selatan",ChIJQZigUinyaS4R4ofKanmV2lI,Indomaret,ChIJQZigUinyaS4R4ofKanmV2lI,Bangka,Mampang Prapatan,Kota Jakarta Selatan,332,-6.2662632,106.8239456,alfamart,"jl. kemang timur no.50, rt.9/rw.003 kel, bangka, kota jakarta selatan",259.07509166122526,no,no
indomaret bangka 2b,4.4,293,-6.2422541,106.8196646,"jl. bangka ii no.12, rt.5/rw.9, pela mampang, kota jakarta selatan",ChIJR_R8Od_zaS4RTFXXRKEDqVo,Indomaret,ChIJR_R8Od_zaS4RTFXXRKEDqVo,Pela Mampang,Mampang Prapatan,Kota Jakarta Selatan,333,-6.2400492,106.818981,alfamart kapten tendean 2,"jl. kapt. tendean no. 18 b, rt, kel, rt.1/rw.1, pela mampang, kota jakarta selatan",256.5540650541753,no,no
indomaret fresh,4.6,46,-6.2437582,106.8163851,"jl. bangka raya no.23, rw.5, pela mampang, kota jakarta selatan",ChIJOVEJ60XxaS4RhRxK42wBrb8,Indomaret,ChIJOVEJ60XxaS4RhRxK42wBrb8,Pela Mampang,Mampang Prapatan,Kota Jakarta Selatan,334,-6.2440528,106.8161758,alfamart,"jl. bangka raya kel no.31 a, rt.5/rw.5, pela mampang, kota jakarta selatan",40.103899445893255,no,yes
indomaret ciputat raya 2a -b,0.0,0,-6.2395468,106.8263501,"jl. kapten tendean no.34, rt.9/rw.2, kuningan bar., kota jakarta selatan",ChIJR3Z58xPzaS4Rv46cCQ_1uvk,Indomaret,ChIJR3Z58xPzaS4Rv46cCQ_1uvk,Kuningan Barat,Mampang Prapatan,Kota Jakarta Selatan,335,-6.243284,106.8259296,alfamart,"jl. mampang prpt. raya kel no.18, rt. 06/03, rt.6/rw.3, mampang prpt., kota jakarta selatan",418.14960037497343,no,no
indomaret mampang 7,4.1,207,-6.2483281,106.824029,"jl. mampang prapatan vii no.30, rt.1/rw.3, tegal parang, kota jakarta selatan",ChIJAxkWrNDzaS4RyfXBmyZF8qA,Indomaret,ChIJAxkWrNDzaS4RyfXBmyZF8qA,Tegal Parang,Mampang Prapatan,Kota Jakarta Selatan,336,-6.2457614,106.8258046,alfamart,"jl. mampang prpt. raya kel no.58 a, rt.9/rw.3, tegal parang, kota jakarta selatan",346.37531633385277,no,no
indomaret mampang 8. t5wi,3.9,17,-6.2477205,106.8306366,"jalan mampang prapatan viii, rt.03 / rw.02, tegal parang, mampang prapatan, rt.3/rw.2, tegal parang, kota jakarta selatan",ChIJ_xUj9s_zaS4RuolU_sbnxqY,Indomaret,ChIJ_xUj9s_zaS4RuolU_sbnxqY,Tegal Parang,Mampang Prapatan,Kota Jakarta Selatan,337,-6.2472825,106.8318862,alfamart tegal parang 2,"jl. tegal parang sel. no.3, rt.4/rw.2, tegal parang, kota jakarta selatan",146.45924404475758,no,no
indomaret tegal parang 2. ts86,3.9,33,-6.2441983,106.8324248,"jl. tegal parang utara no.35, rt.7/rw.4, mampang prpt., kota jakarta selatan",ChIJF1D19sTzaS4Rw9CnBydlgJM,Indomaret,ChIJF1D19sTzaS4Rw9CnBydlgJM,Mampang Prapatan,Mampang Prapatan,Kota Jakarta Selatan,338,-6.2436208,106.8322451,alfamart tegal parang 3,"qr4j+hv3, jl. tegal parang utara, rt.4/rw.7, mampang prpt., kota jakarta selatan",67.21706793731336,no,no
indomaret tegal parang. t986,4.1,9,-6.2464648,106.8322217,"qr3j+cw7, jl. tegal parang, rt.7/rw.5, tegal parang, kota jakarta selatan",ChIJezNcc8XzaS4RsQx_12LcMCA,Indomaret,ChIJezNcc8XzaS4RsQx_12LcMCA,Tegal Parang,Mampang Prapatan,Kota Jakarta Selatan,339,-6.2472825,106.8318862,alfamart tegal parang 2,"jl. tegal parang sel. no.3, rt.4/rw.2, tegal parang, kota jakarta selatan",98.19607286516673,no,no
indomaret dinas pariwisata (ttpb) kpdp koperasi dinas pariwisata,5.0,1,-6.2350141,106.821856,"jl. kuningan barat raya, rt.6/rw.1, kuningan bar., kota jakarta selatan",ChIJCaIfAS3zaS4RU05zKohxCf0,Indomaret,ChIJCaIfAS3zaS4RU05zKohxCf0,Kuningan Barat,Mampang Prapatan,Kota Jakarta Selatan,340,-6.2304158,106.8213373,alfamart guru mugni 2,"jl. peltu rahmat sidup no.7 kuningan rt.1, rt.1, rt.1, kuningan, kuningan tim., kota jakarta selatan",514.5130019194489,no,no
indomaret point tlt,5.0,1,-6.2301637,106.8183432,"jl. gatot subroto no.kav 52, rt.6/rw.1, kuningan bar., kota jakarta selatan",ChIJ4RbvS9PzaS4R6hZNBfVLPa4,Indomaret,ChIJ4RbvS9PzaS4R6hZNBfVLPa4,Kuningan Barat,Mampang Prapatan,Kota Jakarta Selatan,341,-6.2300567,106.8187181,alfamart,"jl. gatot subroto kel no.kav.52, rt.6/rw.1, kuningan bar., kota jakarta selatan",43.114988024939585,no,yes
indomaret kemang utara. tc87,4.4,18,-6.2541381,106.8269373,"jl. kemang utara ix no.1, rt.2/rw.5, duren tiga, kota jakarta selatan",ChIJhxAVNdLzaS4RE36ihgryocM,Indomaret,ChIJhxAVNdLzaS4RE36ihgryocM,Duren Tiga,Pancoran,Kota Jakarta Selatan,368,-6.2527996,106.8268128,alfamart,"jl. mampang prpt. 16 kel no.5, rt.1/rw.6, tegal parang, kota jakarta selatan",149.4694587188127,no,no
indomaret warung jati,5.0,1,-6.2613007,106.8289744,"jl. warung buncit raya no.25, rt.7/rw.3, kalibata, kota jakarta selatan",ChIJSXpPIvDzaS4RKSuxd1gXm2Q,Indomaret,ChIJSXpPIvDzaS4RKSuxd1gXm2Q,Kalibata,Pancoran,Kota Jakarta Selatan,369,-6.258383,106.8253662,alfamart,"jl. duren bangka no.31, d no.kel, rt.6/rw.4, bangka, kota jakarta selatan",514.1169644660133,no,no
indomaret,3.6,10,-6.2627434,106.830664,"jl. warung buncit raya no.1 a, rt.5/rw.3, kalibata, kota jakarta selatan",ChIJ420LHDLyaS4RhHEuu5hwBX8,Indomaret,ChIJ420LHDLyaS4RhHEuu5hwBX8,Kalibata,Pancoran,Kota Jakarta Selatan,370,-6.2617535,106.8336621,alfamart,"jl. kalibata tengah kel no.60, rt.10/rw.7, kalibata, kota jakarta selatan",349.18719106056346,no,no
indomaret pancoran barat 7 tfpc,4.8,8,-6.2519758,106.8368081,"jl. pancoran barat vii no.9a, rt.8/rw.1, duren tiga, kota jakarta selatan",ChIJEYrs5dDzaS4RJRZWtIRczmM,Indomaret,ChIJEYrs5dDzaS4RJRZWtIRczmM,Duren Tiga,Pancoran,Kota Jakarta Selatan,371,-6.2528699,106.8376863,alfamart pancoran barat vii,"jl. pancoran barat vii no.7a, rt.15/rw.1, pancoran, kota jakarta selatan",138.94946803219958,no,no
indomaret pancoran 7,4.1,31,-6.2497874,106.8365148,"jl. pancoran barat vii, rt. 013 / rw. 006, pancoran, mampang prapatan, rt.12/rw.6, pancoran, kota jakarta selatan",ChIJY3w000zyaS4RJpAudy3L5V4,Indomaret,ChIJY3w000zyaS4RJpAudy3L5V4,Pancoran,Pancoran,Kota Jakarta Selatan,372,-6.2499501,106.8363977,alfamart,"jl. pancoran barat vii kel no.22, rt.9/rw.6, kalibata, kota jakarta selatan",22.24490509382048,yes,yes
indomaret pancoran barat 34,0.0,0,-6.251984,106.8367253,"jl. pancoran barat vii no.34, rt.8/rw.6, duren tiga, kota jakarta selatan",ChIJncPt8wXzaS4RDxKhwvnyVpg,Indomaret,ChIJncPt8wXzaS4RDxKhwvnyVpg,Duren Tiga,Pancoran,Kota Jakarta Selatan,373,-6.2528699,106.8376863,alfamart pancoran barat vii,"jl. pancoran barat vii no.7a, rt.15/rw.1, pancoran, kota jakarta selatan",144.86912983869158,no,no
indomaret h.maun,4.2,84,-6.2588638,106.8375135,"prrq+c2r, jl. duren tiga selatan, rt.8/rw.2, kalibata, kota jakarta selatan",ChIJI0tOwjTyaS4RLO_bH3X27As,Indomaret,ChIJI0tOwjTyaS4RLO_bH3X27As,Kalibata,Pancoran,Kota Jakarta Selatan,374,-6.2617535,106.8336621,alfamart,"jl. kalibata tengah kel no.60, rt.10/rw.7, kalibata, kota jakarta selatan",533.357097583693,no,no
indomaret buncit warung jati. {t8nd},4.4,206,-6.2626787,106.8306876,"jl. kalibata tengah xvi no.1, rt.5/rw.9, kalibata, kota jakarta selatan",ChIJcTAiHDLyaS4R0aVLrIbKjmg,Indomaret,ChIJcTAiHDLyaS4R0aVLrIbKjmg,Kalibata,Pancoran,Kota Jakarta Selatan,375,-6.2617535,106.8336621,alfamart,"jl. kalibata tengah kel no.60, rt.10/rw.7, kalibata, kota jakarta selatan",344.4961819786047,no,no
indomaret duren tiga raya. tuoi,4.0,27,-6.2534709,106.8404797,"jalan duren tiga barat no.32, rt.1/rw.1, duren tiga, pancoran, rt.1/rw.1, pancoran, kota jakarta selatan",ChIJkzb3EMrzaS4RXv7xWnaXfb8,Indomaret,ChIJkzb3EMrzaS4RXv7xWnaXfb8,Pancoran,Pancoran,Kota Jakarta Selatan,376,-6.2534048,106.8401304,alfamart,"jl. duren tiga selatan no.88, rt.1/rw.001 kel, pancoran, kota jakarta selatan",39.30271035246395,no,yes
indomaret,4.6,19,-6.2614906,106.840841,"jl. kalibata tengah no.1a, rt.5/rw.7, kalibata, kota jakarta selatan",ChIJyTF07TXyaS4RYebkKF7u42o,Indomaret,ChIJyTF07TXyaS4RYebkKF7u42o,Kalibata,Pancoran,Kota Jakarta Selatan,377,-6.2614857,106.8419188,alfamart,"jl. kalibata tengah kel no.rt. 001 / 07, rt.2/rw.7, kalibata, kota jakarta selatan",119.13236055980857,no,no
indomaret - spbu pancoran tjrt,3.1,10,-6.246947,106.8424352,"qr3r+6x7, rt.1/rw.4, pancoran, south jakarta city",ChIJpzdhkdPzaS4R8PAP1nFVLYE,Indomaret,ChIJpzdhkdPzaS4R8PAP1nFVLYE,Pancoran,Pancoran,Kota Jakarta Selatan,378,-6.2470074,106.8432948,alfamart,"gedung l'avenue shop 1, jl. raya pasar minggu kel no.kav.16, rt.1/rw.4, kalibata, kota jakarta selatan",95.25279588155156,no,no
indomaret pengadegan timur,4.3,57,-6.2484539,106.8587205,"jl. pengadegan timur raya no.2, rt.3/rw.2, pengadegan, kota jakarta selatan",ChIJqUxFMa_zaS4Rb6WsdUlLWrQ,Indomaret,ChIJqUxFMa_zaS4Rb6WsdUlLWrQ,Pengadegan,Pancoran,Kota Jakarta Selatan,379,-6.249124,106.8586472,alfamart,"jl. pengadegan timur raya no.17, rt.3/rw.2, pengadegan, kota jakarta selatan",74.95103084908735,no,no
indomaret of pengadegan,3.9,65,-6.2516495,106.849876,"jl. pengadegan selatan viii no.5b, rt.9/rw.5, pengadegan, kota jakarta selatan",ChIJPRf2ebHzaS4R2AqgbPWyqrI,Indomaret,ChIJPRf2ebHzaS4R2AqgbPWyqrI,Pengadegan,Pancoran,Kota Jakarta Selatan,380,-6.2516637,106.8500804,alfamart,"jl. pengadegan selatan no.no, rt.3/rw.5, pengadegan, kota jakarta selatan",22.64822138996438,yes,yes
indomaret - tower damar,4.2,10,-6.257494,106.8528125,"pvr3+x4w, rt.9/rw.4, rawajati, south jakarta city",ChIJn9W6dvPzaS4R-cPh4bkgO1g,Indomaret,ChIJn9W6dvPzaS4R-cPh4bkgO1g,Rawajati,Pancoran,Kota Jakarta Selatan,381,-6.2572846,106.8526894,alfamart - tower ebony,"pvv3+33p, rt.9/rw.4, rawajati, south jakarta city",26.968405362131442,yes,yes
indomaret pangadegan utara,4.4,142,-6.2459671,106.8555993,"no., jl. pengadegan utara no.12a, rt.6/rw.7, cikoko, kota jakarta selatan",ChIJrevYYKXzaS4RywexQtwJGqY,Indomaret,ChIJrevYYKXzaS4RywexQtwJGqY,Cikoko,Pancoran,Kota Jakarta Selatan,382,-6.245896,106.8555588,alfamart pengadengan barat,"jl. pengadegan barat raya no.21, rt.2/rw.6, pengadegan, kota jakarta selatan",9.085423983248546,yes,yes
indomaret,0.0,0,-6.2577016,106.8535744,"tower kalibata cendana, rawajati, kota jakarta selatan",ChIJV9gKwXvzaS4RKk1asM_cBr8,Indomaret,ChIJV9gKwXvzaS4RKk1asM_cBr8,Rawajati,Pancoran,Kota Jakarta Selatan,383,-6.2572846,106.8526894,alfamart - tower ebony,"pvv3+33p, rt.9/rw.4, rawajati, south jakarta city",108.25450915527475,no,no
indomaret tower 1,0.0,0,-6.2514995,106.861901,"pvx6+cq3, jl. pengadegan timur i, rt.7/rw.1, pengadegan, kota jakarta selatan",ChIJGYiD7b_zaS4RVrXT4JRudmo,Indomaret,ChIJGYiD7b_zaS4RVrXT4JRudmo,Pengadegan,Pancoran,Kota Jakarta Selatan,384,-6.2514477,106.8618801,alfamart,"jl. pengadegan timur i no.30, rt.7/rw.1, pengadegan, kota jakarta selatan",6.205911389324194,yes,yes
indomaret tower rafles,0.0,0,-6.2572773,106.850916,"tower rafles t4vn, kalibata city, apt",ChIJXYGF0a_zaS4RaVDjPs-LMYk,Indomaret,ChIJXYGF0a_zaS4RaVDjPs-LMYk,Rawajati,Pancoran,Kota Jakarta Selatan,385,-6.2579807,106.8499505,alfamart,"apartement kalibata city tower nusa indah 08-11 kel, rt.9/rw.4, rawajati, kota jakarta selatan",132.3121755459827,no,no
indomaret of rawajati,4.1,10,-6.2628099,106.8520926,"pvp2+vrh, jl. rawajati timur, rt.7/rw.6, rawajati, kota jakarta selatan",ChIJPRc3DE7yaS4Rlzq8SQ7YEfE,Indomaret,ChIJPRc3DE7yaS4Rlzq8SQ7YEfE,Rawajati,Pancoran,Kota Jakarta Selatan,386,-6.2656026,106.8508493,alfamart,"jl. rawajati timur no.kel, rt.7/rw.6, rawajati, kota jakarta selatan",339.5833737163929,no,no
indomaret,0.0,0,-6.2467067,106.8549365,"rw.7, pengadegan, kota jakarta selatan",ChIJZ0DyfMnzaS4RJ9jFt8abwmQ,Indomaret,ChIJZ0DyfMnzaS4RJ9jFt8abwmQ,Pengadegan,Pancoran,Kota Jakarta Selatan,387,-6.2465292,106.8553284,alfamart,"5 jalan pengadegan utara kel no. 6 2, cikoko, kota jakarta selatan",47.603122364767486,no,yes
indomaret of kalibata city,4.1,14,-6.256166,106.8533404,"apartemen kalibata city, tower gaharu, at 01-02, jalan kalibata raya, rawajati, pancoran, rt.9/rw.4, rawajati, kota jakarta selatan",ChIJeYYMX63zaS4RoKELlWfnU9Q,Indomaret,ChIJeYYMX63zaS4RoKELlWfnU9Q,Rawajati,Pancoran,Kota Jakarta Selatan,388,-6.2572846,106.8526894,alfamart - tower ebony,"pvv3+33p, rt.9/rw.4, rawajati, south jakarta city",143.6971444614105,no,no
indomaret tower cendana,4.8,5,-6.2584634,106.8533232,"jl. rawajati barat no.8, rw.4, rawajati, kota jakarta selatan",ChIJv2LFq1LyaS4RTp3YYUId3jg,Indomaret,ChIJv2LFq1LyaS4RTp3YYUId3jg,Rawajati,Pancoran,Kota Jakarta Selatan,389,-6.2572846,106.8526894,alfamart - tower ebony,"pvv3+33p, rt.9/rw.4, rawajati, south jakarta city",148.62331879071112,no,no
indomaret tower 3,0.0,0,-6.2523677,106.8615916,"apartemen pancoran riverside tower 3, jl, jl. pengadegan timur i no.30, rt.6/rw.1, pengadegan, south jakarta city",ChIJV7ZuexPzaS4Raja2xYYiJ_I,Indomaret,ChIJV7ZuexPzaS4Raja2xYYiJ_I,Pengadegan,Pancoran,Kota Jakarta Selatan,390,-6.2514477,106.8618801,alfamart,"jl. pengadegan timur i no.30, rt.7/rw.1, pengadegan, kota jakarta selatan",107.15451561220922,no,no
indomaret apartemen pancoran riverside ftnt,4.4,16,-6.2519235,106.8616752,"jl. pengadegan timur i no.30, rt.6/rw.1, pengadegan, kota jakarta selatan",ChIJT9K7ZKnzaS4RYVbkqs38TuU,Indomaret,ChIJT9K7ZKnzaS4RYVbkqs38TuU,Pengadegan,Pancoran,Kota Jakarta Selatan,391,-6.2514477,106.8618801,alfamart,"jl. pengadegan timur i no.30, rt.7/rw.1, pengadegan, kota jakarta selatan",57.550494687569035,no,no
indomaret,4.2,5,-6.2563574,106.8502356,"apartemen kalibata city green palace tower tulip, no 1, selatan rt.9/rw.4, jl. raya kalibata, rt.9/rw.4, rawajati, south jakarta city",ChIJkUGyILPzaS4RS2iZ8BGqPkc,Indomaret,ChIJkUGyILPzaS4RS2iZ8BGqPkc,Rawajati,Pancoran,Kota Jakarta Selatan,392,-6.2579807,106.8499505,alfamart,"apartement kalibata city tower nusa indah 08-11 kel, rt.9/rw.4, rawajati, kota jakarta selatan",183.23314094059683,no,no
indomaret tower 2,0.0,0,-6.2516153,106.861321,"pvx6+9g, pengadegan, south jakarta city",ChIJuzWu8LvzaS4Ra3ud2A7lDHo,Indomaret,ChIJuzWu8LvzaS4Ra3ud2A7lDHo,Pengadegan,Pancoran,Kota Jakarta Selatan,393,-6.2514477,106.8618801,alfamart,"jl. pengadegan timur i no.30, rt.7/rw.1, pengadegan, kota jakarta selatan",64.54832864321912,no,no
indomaret signature park,4.3,3,-6.242484,106.854727,"mt haryono st no.10, rw.9, east tebet, south jakarta city",ChIJ71RBBiPzaS4RzLWpLbPWU80,Indomaret,ChIJ71RBBiPzaS4RzLWpLbPWU80,Tebet Timur,Pancoran,Kota Jakarta Selatan,394,-6.2427469,106.8545314,alfamart apartemen signature,"jl. letjen m.t. haryono no.10, rw.9, tebet tim., kota jakarta selatan",36.35983685941241,no,yes
indomaret point stasiun kalibata,4.4,27,-6.2553656,106.8549931,"pvv3+vx5, jl. rawajati bar., rt.6/rw.7, rawajati, kota jakarta selatan",ChIJzXZzEq3zaS4REp5urTglWeE,Indomaret,ChIJzXZzEq3zaS4REp5urTglWeE,Rawajati,Pancoran,Kota Jakarta Selatan,395,-6.2550819,106.8562552,alfamart,"woodland park residence tower trembesi, jl. raya kalibata kel no.22, rt.6/rw.7, rawajati, kota jakarta selatan",143.02608059255402,no,no
indomaret kalibata utara,4.5,101,-6.2604007,106.837657,"jl. kalibata utara ii no.37, rt.7/rw.7, kalibata, kota jakarta selatan",ChIJiXNZXIjzaS4RjQ-7sFoVCPU,Indomaret,ChIJiXNZXIjzaS4RjQ-7sFoVCPU,Kalibata,Pancoran,Kota Jakarta Selatan,396,-6.2617535,106.8336621,alfamart,"jl. kalibata tengah kel no.60, rt.10/rw.7, kalibata, kota jakarta selatan",466.4826018853807,no,no
indomaret rawajati timur ii,4.4,171,-6.2599244,106.8548204,"jl. rawajati timur ii no.6a, rt.6/rw.8, rawajati, kota jakarta selatan",ChIJgxhagUnzaS4RvD_Z_w12BOo,Indomaret,ChIJgxhagUnzaS4RvD_Z_w12BOo,Rawajati,Pancoran,Kota Jakarta Selatan,397,-6.2572846,106.8526894,alfamart - tower ebony,"pvv3+33p, rt.9/rw.4, rawajati, south jakarta city",376.35445526508755,no,no
indomaret jeruk purut,4.5,132,-6.2911647,106.8129499,"jl. jeruk purut no.22, rt.3/rw.3, cilandak tim., kota jakarta selatan",ChIJvy_4mvnxaS4RjjbhIFaTp4Y,Indomaret,ChIJvy_4mvnxaS4RjjbhIFaTp4Y,Cilandak Timur,Pasar Minggu,Kota Jakarta Selatan,414,-6.289572,106.8126228,alfamart,"jl. jeruk purut kel no.9 1/3, rt.1/rw.3, cilandak tim., kota jakarta selatan",180.75283543224853,no,no
indomaret cilandak raya,4.3,20,-6.2970042,106.8154176,"pr38+55x, jl. raya cilandak kko, rt.1/rw.5, ragunan, kota jakarta selatan",ChIJ-6Meqf_xaS4R99u9vNNVFjg,Indomaret,ChIJ-6Meqf_xaS4R99u9vNNVFjg,Ragunan,Pasar Minggu,Kota Jakarta Selatan,415,-6.3001102,106.8147245,alfamart,"jl. raya cilandak kko kel no.9, rt.1/rw.8, ragunan, kota jakarta selatan",353.76538894113384,no,no
indomaret plus cilandak kko (tmip),4.5,645,-6.3098246,106.8139564,"jl. raya cilandak kko no.3, rt.14/rw.8, ragunan, kota jakarta selatan",ChIJJ3rNnQjuaS4RWjDJ-zFTzR0,Indomaret,ChIJJ3rNnQjuaS4RWjDJ-zFTzR0,Ragunan,Pasar Minggu,Kota Jakarta Selatan,416,-6.3094162,106.8138852,alfamart cilandak kko 3,"jl. cilandak kko no.1 a rt.014/08, cilandak ragunan rt.1, rt.14/rw.7, ragunan, south jakarta city",46.08882088861865,no,yes
indomaret perempatan ampera,4.1,69,-6.2917269,106.8165986,"jalan ampera raya 2, rt.2/rw.2, cilandak tim., kota jakarta selatan",ChIJCTLyivjxaS4Rre-W6oaY4qE,Indomaret,ChIJCTLyivjxaS4Rre-W6oaY4qE,Cilandak Timur,Pasar Minggu,Kota Jakarta Selatan,417,-6.289572,106.8126228,alfamart,"jl. jeruk purut kel no.9 1/3, rt.1/rw.3, cilandak tim., kota jakarta selatan",500.5112807561062,no,no
indomaret point ampera,4.3,264,-6.2819344,106.8197334,"5, jl. ampera raya no.135, rt.5/rw.10, ragunan, kota jakarta selatan",ChIJSdmaRR7yaS4Rz1S6S2xE9kw,Indomaret,ChIJSdmaRR7yaS4Rz1S6S2xE9kw,Ragunan,Pasar Minggu,Kota Jakarta Selatan,418,-6.2772249,106.8204814,alfamart,"jl. ampera raya no. 120a, rt. 002/010 kel, rt.2/rw.10, ragunan, kota jakarta selatan",530.1592095031774,no,no
indomaret kebagusan,0.0,0,-6.3179597,106.8250448,"jl. kebagusan raya no.56, rt.10/rw.4, kebagusan, kota jakarta selatan",ChIJU4w3LnrtaS4RuMgFlMLq-BI,Indomaret,ChIJU4w3LnrtaS4RuMgFlMLq-BI,Kebagusan,Pasar Minggu,Kota Jakarta Selatan,419,-6.3169421,106.8251017,alfamart,"jl. kebagusan raya kel, rt.2/rw.4, kebagusan, kota jakarta selatan",113.32672699671441,no,no
indomaret,4.7,10,-6.3138579,106.8255294,"mrpg+f62, rt.10/rw.7, ragunan, south jakarta city",ChIJ7a6YI-TtaS4RHRQ67Lb2ub0,Indomaret,ChIJ7a6YI-TtaS4RHRQ67Lb2ub0,Ragunan,Pasar Minggu,Kota Jakarta Selatan,420,-6.3127126,106.8257501,alfamart,"jl. raya jatipadang kel no.16, rt.7/rw.5, kebagusan, kota jakarta selatan",129.6666033904623,no,no
indomaret kebagusan city,4.3,14,-6.3075195,106.8358518,"apartement kebagusan city tower c unitk18192223, rt.1/rw.6, kebagusan, south jakarta city",ChIJz_____DtaS4RuBSePQZKmzM,Indomaret,ChIJz_____DtaS4RuBSePQZKmzM,Kebagusan,Pasar Minggu,Kota Jakarta Selatan,421,-6.307295,106.8351857,alfamart - kebagusan city,"apartemen kebagusan city tower a, rt.1/rw.3, kebagusan, pasar minggu, rt.1/rw.3, kebagusan, kota jakarta selatan",77.73595519314006,no,no
indomaret pasar minggu,4.5,2,-6.2914351,106.8419087,"jl. raya ps. minggu no.15d, rt.13/rw.5, ps. minggu, kota jakarta selatan",ChIJKdFjS4XzaS4RpmE0MI-N8hQ,Indomaret,ChIJKdFjS4XzaS4RpmE0MI-N8hQ,Pasar Minggu,Pasar Minggu,Kota Jakarta Selatan,422,-6.2895993,106.8399531,alfamart kaplongan,"blok pasar minggu rt 06/02, kaplongan",297.30119764274787,no,no
indomaret gurame raya,4.2,18,-6.2957984,106.8366216,"jl. gurame raya no.32, rt.2/rw.9, ps. minggu, kota jakarta selatan",ChIJgVaTJgryaS4RZDPX8Ifsn0A,Indomaret,ChIJgVaTJgryaS4RZDPX8Ifsn0A,Pasar Minggu,Pasar Minggu,Kota Jakarta Selatan,423,-6.2959898,106.8365489,alfamart,"jl. gurame i, rt.2/rw.9, kel, kota jakarta selatan",22.749026730103825,yes,yes
indomaret,4.0,44,-6.2955876,106.8453943,"jl. poltangan raya no.49, rt.5/rw.10, pejaten tim., kota jakarta selatan",ChIJvdo1THTyaS4RBoB9yjj3LdM,Indomaret,ChIJvdo1THTyaS4RBoB9yjj3LdM,Pejaten Timur,Pasar Minggu,Kota Jakarta Selatan,424,-6.2967705,106.8442387,alfamart,"jl. raya poltangan, rt. 001, r no.kel, rt.1/rw.4, tj. bar., kota jakarta selatan",183.3405131645536,no,no
indomaret mtrade teluk betung,0.0,0,-6.2993709,106.8399129,"jl. raya pasar minggu no.168, rt.4/rw.8, ps. minggu, kota jakarta selatan",ChIJ5RSsmVTtaS4RlacdijhrxSI,Indomaret,ChIJ5RSsmVTtaS4RlacdijhrxSI,Pasar Minggu,Pasar Minggu,Kota Jakarta Selatan,425,-6.2984046,106.8407504,alfamart,"jl. tj. bar. lama no.kel, rt.4/rw.4, tj. bar., kota jakarta selatan",141.82054547707241,no,no
indomaret rawa bambu,4.4,271,-6.2914141,106.8419168,"jl. raya rw. bambu no.14, rt.13/rw.5, ps. minggu, kota jakarta selatan",ChIJA00kMHPyaS4RzjSAlv_vnD4,Indomaret,ChIJA00kMHPyaS4RzjSAlv_vnD4,Pasar Minggu,Pasar Minggu,Kota Jakarta Selatan,426,-6.2895993,106.8399531,alfamart kaplongan,"blok pasar minggu rt 06/02, kaplongan",296.35777580378544,no,no
indomaret,4.9,7,-6.2981305,106.8299386,"plaza oleos, jl. tb simatupang, rt.2/rw.1, kebagusan, kota jakarta selatan",ChIJ4dtL_AfyaS4RF-C9eDUjQ0o,Indomaret,ChIJ4dtL_AfyaS4RF-C9eDUjQ0o,Kebagusan,Pasar Minggu,Kota Jakarta Selatan,427,-6.3022797,106.8264828,alfamart,"jl. kebagusan raya kel, rt.8/rw.7, kebagusan, kota jakarta selatan",598.9545190091234,no,no
raya ragunan indomaret,4.1,17,-6.2858816,106.8301102,"jl. raya ragunan no.19, rt.2/rw.7, jati padang, kota jakarta selatan",ChIJBS7mhhDyaS4RwQ24c_CL25w,Indomaret,ChIJBS7mhhDyaS4RwQ24c_CL25w,Jati Padang,Pasar Minggu,Kota Jakarta Selatan,428,-6.2856815,106.8292432,alfamart,"jl. jati murni kel, rt.2/rw.7, jati padang, kota jakarta selatan",98.37579661040456,no,no
indomaret taman margasatwa,4.3,21,-6.2892776,106.8242394,"jalan taman margasatwa no.18a, jati padang, rt.6/rw.1, ragunan, kota jakarta selatan",ChIJ2fZhrgTyaS4Rl1uCPiHU63Q,Indomaret,ChIJ2fZhrgTyaS4Rl1uCPiHU63Q,Ragunan,Pasar Minggu,Kota Jakarta Selatan,429,-6.2891661,106.8244073,alfamart,"jl. taman margasatwa raya kel no.10, rt.6/rw.1, ragunan, kota jakarta selatan",22.317923992449256,yes,yes
indomaret,5.0,1,-6.2794572,106.8335032,"prcm+59q, rt.13/rw.2, jati padang, south jakarta city",ChIJNb3Las7zaS4R0UHAjC6iv1A,Indomaret,ChIJNb3Las7zaS4R0UHAjC6iv1A,Jati Padang,Pasar Minggu,Kota Jakarta Selatan,430,-6.2795707,106.8349757,alfamart pejaten 2,"jl. pejaten raya (graha pejaten) no. 5 j-k, rt.7/rw.7, kel, kota jakarta selatan",163.24096872447166,no,no
indomaret spbu,4.8,19,-6.2905671,106.8235708,"jl. warung jati barat no.28, rt.5/rw.1, ragunan, kota jakarta selatan",ChIJC4P6jYjzaS4RmEFhDQhpE7U,Indomaret,ChIJC4P6jYjzaS4RmEFhDQhpE7U,Ragunan,Pasar Minggu,Kota Jakarta Selatan,431,-6.2891661,106.8244073,alfamart,"jl. taman margasatwa raya kel no.10, rt.6/rw.1, ragunan, kota jakarta selatan",181.15362171893338,no,no
indomaret jatipadang no 2,4.4,204,-6.2878363,106.8293824,"jl. jatipadang utara no.1, rt.7/rw.9, jati padang, kota jakarta selatan",ChIJBa5dUV_zaS4Rpz5v0gMy_nU,Indomaret,ChIJBa5dUV_zaS4Rpz5v0gMy_nU,Jati Padang,Pasar Minggu,Kota Jakarta Selatan,432,-6.2856815,106.8292432,alfamart,"jl. jati murni kel, rt.2/rw.7, jati padang, kota jakarta selatan",240.096606323553,no,no
indomaret warung jati,4.1,127,-6.2694594,106.8377558,"jl. siaga raya no.7b, rt.12/rw.4, pejaten bar., kota jakarta selatan",ChIJCQpntznyaS4R5HJ1zQCwkB4,Indomaret,ChIJCQpntznyaS4R5HJ1zQCwkB4,Pejaten Barat,Pasar Minggu,Kota Jakarta Selatan,433,-6.2692393,106.8377635,alfamart,"jl. siaga raya no.kel, rt.12/rw.0, pejaten bar., kota jakarta selatan",24.488830817165756,yes,yes
indomaret warga siaga,4.5,20,-6.2722927,106.8391874,"jl. warga baru no.4b 17, rt.17/rw.3, pejaten bar., kota jakarta selatan",ChIJITbO1jjyaS4RS5lw3N7iBVM,Indomaret,ChIJITbO1jjyaS4RS5lw3N7iBVM,Pejaten Barat,Pasar Minggu,Kota Jakarta Selatan,434,-6.2725201,106.8383983,alfamart,"jl. siaga raya no.17, rt.4/rw.4 kel, pejaten bar., kota jakarta selatan",90.81015566184084,no,no
indomaret pasar minggu 15b (ffdq),4.5,8,-6.2607737,106.8428871,"jl. raya pasar minggu no.15 a, rt.1/rw.7, kalibata, kota jakarta selatan",ChIJv6HpCt3zaS4R6xwdQSocB24,Indomaret,ChIJv6HpCt3zaS4R6xwdQSocB24,Kalibata,Pasar Minggu,Kota Jakarta Selatan,435,-6.2614857,106.8419188,alfamart,"jl. kalibata tengah kel no.rt. 001 / 07, rt.2/rw.7, kalibata, kota jakarta selatan",133.1278167814521,no,no
indomaret angsana,4.4,28,-6.2720279,106.8486037,"jl. angsana raya no.11, rt.10/rw.4, pejaten tim., kota jakarta selatan",ChIJJYdxEkTyaS4RUCWdYxW7wqA,Indomaret,ChIJJYdxEkTyaS4RUCWdYxW7wqA,Pejaten Timur,Pasar Minggu,Kota Jakarta Selatan,436,-6.2721008,106.8485963,alfamart,"jl. angsana no 14 rt 101/5 kel, rt.10/rw.4, pejaten tim., kota jakarta selatan",8.147281370021963,yes,yes
indomaret pasar minggu,4.1,77,-6.2804467,106.844865,"jl. raya pasar minggu no.8, rt.6/rw.1, ps. minggu, kota jakarta selatan",ChIJz_____DtaS4R2Q5FIFxTxv8,Indomaret,ChIJz_____DtaS4R2Q5FIFxTxv8,Pasar Minggu,Pasar Minggu,Kota Jakarta Selatan,437,-6.2768681,106.8415746,alfamart,"jl. pejaten raya no.20 a, rt.10/rw.2, kel, kota jakarta selatan",539.0796323871901,no,no
indomaret,4.6,81,-6.275749,106.8414378,"jl. pejaten raya no.1b, rt.7, pejaten bar., kota jakarta selatan",ChIJ63ebeEDyaS4RkvBsuy-1j3o,Indomaret,ChIJ63ebeEDyaS4RkvBsuy-1j3o,Pejaten Barat,Pasar Minggu,Kota Jakarta Selatan,438,-6.2768681,106.8415746,alfamart,"jl. pejaten raya no.20 a, rt.10/rw.2, kel, kota jakarta selatan",125.35367093749602,no,no
indomaret hybrid pejaten raya,4.3,256,-6.2795623,106.8367311,"jl. pejaten raya no.42, rt.8/rw.10, jati padang, kota jakarta selatan",ChIJL-7KwRXyaS4R1KfdS1lXbjA,Indomaret,ChIJL-7KwRXyaS4R1KfdS1lXbjA,Jati Padang,Pasar Minggu,Kota Jakarta Selatan,439,-6.2797729,106.8375655,alfamart,"jl. raya jatipadang no.kel, rt.8/rw.10, jati padang, kota jakarta selatan",95.15114947359858,no,no
indomaret,3.5,51,-6.2854094,106.8379601,"jl. raya ragunan no.9, rw.10, ps. minggu, kota jakarta selatan",ChIJmwb3rhPyaS4R_23xpv2E254,Indomaret,ChIJmwb3rhPyaS4R_23xpv2E254,Pasar Minggu,Pasar Minggu,Kota Jakarta Selatan,440,-6.2895993,106.8399531,alfamart kaplongan,"blok pasar minggu rt 06/02, kaplongan",515.3465510588976,no,no
indomaret rm harsono no.1,0.0,0,-6.3013905,106.8214132,"mrxc+chv, rw.7, ragunan, south jakarta city",ChIJKzbH_nbtaS4RPC_zVyqnB5g,Indomaret,ChIJKzbH_nbtaS4RPC_zVyqnB5g,Ragunan,Pasar Minggu,Kota Jakarta Selatan,441,-6.3022797,106.8264828,alfamart,"jl. kebagusan raya kel, rt.8/rw.7, kebagusan, kota jakarta selatan",568.965368211472,no,no
indomaret kebagusan raya,4.5,400,-6.3034283,106.8267375,"mrwg+jpj, rt.8/rw.7, kebagusan, south jakarta city",ChIJbbdFCvntaS4RhngjQ_Gl0v0,Indomaret,ChIJbbdFCvntaS4RhngjQ_Gl0v0,Kebagusan,Pasar Minggu,Kota Jakarta Selatan,442,-6.3022797,106.8264828,alfamart,"jl. kebagusan raya kel, rt.8/rw.7, kebagusan, kota jakarta selatan",130.78414314110913,no,no
