nama_tempat,rating_tempat,user_ratings_total,latitude,longitude,alamat_tempat,place_id,distance
alfamart cilandak kko 3,4.4,63,-6.309416199999999,106.8138852,"jl. cilandak kko no.1 a rt.014/08, cilandak ragunan rt.1, rt.14/rw.7, ragunan, south jakarta city",ChIJa8XPd0DvaS4RSIXi_ygrEaA,0
alfamart cilandak kko 2,3.7,6,-6.302779399999999,106.8144748,"jl. raya cilandak kko no.1 c, rt.1/rw.8, ragunan, kota jakarta selatan",ChIJ8VidGwHuaS4RJsdTuMOoQrA,0
alfamart,4,12,-6.3431267,106.8172234,"jl.moch kahfi 2 rt 5/4 kel, jl. moch. kahfi ii no.2, rt.5/rw.4, ciganjur, kota jakarta selatan",ChIJwRkvJkbvaS4RV98hH2jg2jM,0
alfamart,4.5,99,-6.348487899999999,106.8200177,"jl. srengseng raya kel no.87, rt.2/rw.7, srengseng sawah, kota jakarta selatan",ChIJPxyLWijsaS4Rl6Ahgql2Zkc,0
alfamart,1,1,-6.345517699999999,106.810441,"jl. wr. sila kel no.48, rt.11/rw.5, ciganjur, kota jakarta selatan",ChIJLccxhA3vaS4R1CueIAoDZlE,0
alfamart,1,1,-6.3450368,106.8152846,"jl. wr. sila no.36, rt.2/rw.5, ciganjur, kota jakarta selatan",ChIJXWJrkhPvaS4Rrveg9EepZfI,0
