nama_tempat,rating_tempat,user_ratings_total,latitude,longitude,alamat_tempat,place_id,distance
alfamart,4.2,17,-6.2542811,106.8012815,"jl. darmawangsa vi no.45, rt, rt.5/rw.1, pulo, kota jakarta selatan",ChIJubtXt3bxaS4RG8SDqsnSF-U,1385.297571587413
alfamart,4.6,5,-6.2600554,106.796534,"jl. fatmawati raya no.kel, rt.4/rw.6, cilandak bar., kota jakarta selatan",ChIJXTKX4rjxaS4RKHvkQIrJHpY,1709.9661123049907
alfamart,4.3,4,-6.2426448,106.787694,"jl. gandaria 1 no.339, rt.5/rw.2, kramat pela, kota jakarta selatan",ChIJ2-7GYbvxaS4RR9L87NnK-a0,625.5392488829975
alfamart,3,8,-6.2483201,106.7900754,"jl. gandaria i no.04, rt. 010 kel, rt.1/rw.8, kramat pela, kota jakarta selatan",ChIJ9cTCcxLxaS4RIQU5nzRwbcU,461.9939472140287
alfamart,4,6,-6.247622199999999,106.7950681,"jl. barito ii no.kel, rt.8/rw.5, kramat pela, kota jakarta selatan",ChIJ6fv_N23xaS4R8O7J0wDiRO4,375.38296556885507
alfamart,4.4,52,-6.2392731,106.8100952,"jl. wolter monginsidi kel no.46, rt.1/rw.6, petogogan, kota jakarta selatan",ChIJ-TaTa2fxaS4R6RNGaVrMT6k,2023.579602797457
alfamart,4.3,118,-6.228025,106.7785565,"jl. raya kby. lama no.37, rt.5/rw.007 kel, grogol sel., kota jakarta selatan",ChIJl8UlGdXxaS4Rzp4Cn0GDDRY,2467.5834374984684
alfamart raya radio dalam,0,0,-6.2623865,106.7887372,"jl. radio dalam raya no.14d, rt.7/rw.10, gandaria utara, kota jakarta selatan",ChIJJ5iWv67xaS4RNxDBDbF5rJs,1968.6917016929833
alfamart,4.8,13,-6.247626299999999,106.7785018,"jl. ciputat raya, rt. 8/8 kel, rt.8/rw.8, kby. lama sel., kota jakarta selatan",ChIJMyzoc8PxaS4Rx4Pb25aRaVI,1600.7158411693458
alfamart,4.3,153,-6.2553617,106.790579,"jl. radio dalam raya i no.kel, rt.3/rw.8, gandaria utara, kota jakarta selatan",ChIJJ1zO0dPxaS4RjfHBVEeJ5eE,1161.9664650213108
alfamart,4.4,17,-6.2284805,106.7855186,"jl. rawa simprug iii, rt.03, r no.kel, rt.3/rw.9, grogol sel., kota jakarta selatan",ChIJIYHBgDDxaS4RvycdmnfZeP4,2018.298321070898
alfamart,3,2,-6.236459,106.8006485,"jl. iskandarsyah raya kel no.35, rt.2/rw.1, melawai, kota jakarta selatan",ChIJsaRf3yPxaS4R4cFCV3ZPdak,1300.4173708074882
alfamart,4.6,27,-6.245343399999999,106.8012186,"jl. melawai ( blok m mall kel, rt.3/rw.1, melawai, kota jakarta selatan",ChIJgYNzkW7xaS4RAyBciUPKZRg,934.6041210498444
alfamart,4.1,68,-6.259331,106.789079,"jl. radio dalam raya kel no.86, rt.5/rw.14, gandaria utara, kota jakarta selatan",ChIJ4x6Kt6DxaS4RTzwpsJlYZ8Q,1629.6873693723815
alfamart yado 3,4,4,-6.255731399999999,106.790674,"rt.2/rw.8, gandaria utara, kota jakarta selatan",ChIJqza5lwvxaS4RLUPjdPF0cVI,1200.13918417415
alfamart,4.5,264,-6.2506507,106.793953,"jl. petogogan i, rt. 003/011 kel, rt.1/rw.1, petogogan, kota jakarta selatan",ChIJT0UQ-xzxaS4Rbkmahws1Wiw,626.6023261569504
alfamart,4.6,56,-6.250438,106.7817332,"jl. sultan iskandar muda no.72, rt.10/rw.2, kby. lama sel., kota jakarta selatan",ChIJP3zxrTPxaS4R58_AUM2UGGA,1354.3002997482909
alfamart,5,4,-6.2534671,106.7755935,"jl. bintaro raya no.21a, rt.11/rw.10, kby. lama sel., kota jakarta selatan",ChIJcydB66nxaS4RsYN_8dfR-hc,2111.9043618388437
alfamart,4.5,24,-6.259575099999999,106.8022096,"jl. damai v rt. 01 kel, rt.2/rw.8, cipete utara, kota jakarta selatan",ChIJ-zEskJ3xaS4R_EqzP6LK7NA,1914.6398502529614
alfamart,4.6,22,-6.236351,106.7872294,"jl. ophir kramat 2 pakubuwono, kel, rt.7/rw.1, gunung, kota jakarta selatan",ChIJvR3FTzzxaS4R3I33kymyg0w,1153.1354529188952
alfamart,4.5,13,-6.246897499999999,106.7898721,"jl. gandaria 1 kel no.41, rt.2/rw.3, kramat pela, kota jakarta selatan",ChIJM-mfsy_xaS4RLeBYt92_-zA,374.8021790286032
alfamart,0,0,-6.240064299999999,106.8042097,"pt pln (persero) kantor pusat, jl. trunojoyo no.kel, rt.6/rw.2, melawai, south jakarta city",ChIJp0jKnE_xaS4ReNrwgJLzaRU,1385.1807287874992
alfamart petogogan raya,4.6,96,-6.254885799999999,106.796434,"jl. petogogan ii no.15a-b, jl. petogogan ii, rt.8/rw.6, pulo, south jakarta city",ChIJs-iJX73xaS4RJlH2mmqlobE,1157.001164761709
alfamart,4.6,75,-6.2521128,106.783147,"jl. praja dalam k kel, rt.12/rw.2, kby. lama sel., kota jakarta selatan",ChIJFy0cH3DxaS4RqAsb1UlHVzU,1315.8574080208305
alfamart,4.4,26,-6.257043599999999,106.7772368,"jl. raya ciputat no.3 b rt.003 kel, rt.3/rw.10, kby. lama sel., kota jakarta selatan",ChIJGWL41wbxaS4R-IwO3XiRIaU,2167.518507906121
alfamart,4.2,123,-6.2547162,106.7836782,"jl.darma putra raya rt 1/7 kel, rt.1/rw.7, kby. lama sel., kota jakarta selatan",ChIJuayCtgjxaS4RBl05CpaSF3Q,1463.8093689964046
alfamart,4,20,-6.258272300000001,106.7839248,"jl. tanah kusir ii no.65, rt.3/rw.011 kel, kby. lama sel., kota jakarta selatan",ChIJEzQd4evxaS4RbvtHCITy4Jw,1757.0249753115609
alfamart kyai maja,4.5,454,-6.2415428,106.793223,"10, jl. kyai maja no.37, rt.10/rw.7, kramat pela, kota jakarta selatan",ChIJ3XNl2RTxaS4R5Bv0sufWonw,403.2260026940071
alfamart,4.4,217,-6.2495325,106.7836804,"jl. praja dalam k kel, rt.4/rw.12, kby. lama sel., kota jakarta selatan",ChIJd2c5ZS3xaS4R0Hfe_IqDLp0,1116.7035221300434
alfamart express stasiun kebayoran lama,3.6,5,-6.2374573,106.7825889,"jl. st. no.7a, rt.2/rw.1, south, kota jakarta selatan",ChIJ8-2f5VzxaS4RuUIzcDEbZJ8,1412.5572590394047
alfamart faletehan,4.3,32,-6.2417419,106.8016892,"jl. falatehan i no.30, rt.2/rw.1, melawai, kota jakarta selatan",ChIJM7mhkrDxaS4RCbsQa_-sjAw,1056.2700477285907
mitra ukm alfamart,0,0,-6.2516093,106.7831185,"jl. praja dalam f no.11, rt.11/rw.2, south kebayoran lama, south jakarta city",ChIJGU1_dw_xaS4RKV_Wngx69Ic,1286.278964844017
alfamart kostrad darma putra,4.5,103,-6.2546937,106.7837214,"jl. darma putra raya no.44, rt.1/rw.7, kby. lama sel., kota jakarta selatan",ChIJC8pc2WXxaS4RarJ-FhWCz1c,1458.7138364507773
alfamart koppeg pt pln,3.9,12,-6.2407841,106.8035925,"jl. trunojoyo no.135, rt.6/rw.2, melawai, kota jakarta selatan",ChIJgZrvVmjxaS4R-CmjwHJTv-o,1291.058240403803
alfamart,0,0,-6.2644372,106.7750567,"jl. ciputat raya no.25a, rt.6/rw.1, pd. pinang, kota jakarta selatan",ChIJNZ_TjKvxaS4RSpGgi-UQMHE,2904.4109070161817
alfamart,4.1,9,-6.2452254,106.7725276,"jl. peninggaran raya no.kel, rt.8/rw.11, kby. lama utara, kota jakarta selatan",ChIJkUx2wx3xaS4RC4O553KPlfM,2237.0532350144163
alfamart,4.5,71,-6.2256975,106.7750044,"jl assirot rt 12/1 kel, rt.12/rw.1, sukabumi sel., kota jakarta selatan",ChIJiRXWFynxaS4RMfZt6bXsEeI,2920.381689822065
