nama_tempat,rating_tempat,user_ratings_total,latitude,longitude,alamat_tempat,place_id,distance
alfamart,4.4,43,-6.233994099999999,106.8496706,"jl. tebet barat, no. iv, no. 7, rt. 016 / 04, kel, rt.16/rw.2, tebet bar., kota jakarta selatan",ChIJ9Vwe-pbzaS4RRlQmSFdW96A,1318.8512893184707
alfamart,4.3,21,-6.2349423,106.8570767,"jl. tebet timur dalam raya kel no.9, rt.5/rw.6, tebet tim., kota jakarta selatan",ChIJHxShupTzaS4Rfd_GHD6Fkqw,1175.6505758886901
alfamart,4.3,94,-6.238003099999999,106.8602481,"jl. asem baris raya no.146, rt.11/rw.012 kel, kb. baru, kota jakarta selatan",ChIJ515758zzaS4RzrzdPn8horE,1046.7618295032212
alfamart,4.4,115,-6.2296444,106.8533086,"jl. tebet raya no.10a, rt.9/rw.4 kel, tebet tim., kota jakarta selatan",ChIJrwK7gpDzaS4RiLpXd52lzmk,1715.2576194739895
alfamart,4.5,19,-6.253404799999999,106.8401304,"jl. duren tiga selatan no.88, rt.1/rw.001 kel, pancoran, kota jakarta selatan",ChIJAXBtHt7zaS4RqSjmY_L6_Tg,1789.9532956425974
alfamart express,0,0,-6.2425745,106.8586384,"jl. tebet timur raya no.55, rw.14, tebet tim., kota jakarta selatan",ChIJA4mAfRjzaS4RW9IHZeqsAaw,584.5991549192511
alfamart,4.3,68,-6.2295531,106.8467864,"jl dr soepomo sh no 73d menten, rt.2/rw.15, menteng dalam, kota jakarta selatan",ChIJFRyV05PzaS4RMYjyqWOO87o,1898.1805807875999
alfamart,3,2,-6.233449999999999,106.85983,"jl. asem baris raya kel no.8 rt 2/6, rt.2/rw.6, kb. baru, kota jakarta selatan",ChIJufbg8FXzaS4RNHykvXTY9ec,1443.664233951876
alfamart,4.1,175,-6.249124,106.8586472,"jl. pengadegan timur raya no.17, rt.3/rw.2, pengadegan, kota jakarta selatan",ChIJSRHaLq_zaS4RM3bNCU2HZd8,686.4867469064709
alfamart tebet utara dalam,0,0,-6.227136199999999,106.8550131,"10, jl. tebet utara dalam no.14, rw.1, tebet tim., kota jakarta selatan",ChIJ2y6N7cbzaS4Rq34j25qX_tE,1995.8682589065384
alfamart,0,0,-6.2514477,106.8618801,"jl. pengadegan timur i no.30, rt.7/rw.1, pengadegan, kota jakarta selatan",ChIJ1YYQJfXzaS4RtiFyuIT23go,1126.2905171968173
alfamart asem baris dua,4.5,17,-6.240856200000001,106.860392,"jl. asem baris raya no.12, rt.6/rw.14, kb. baru, kota jakarta selatan",ChIJcX-mR6HzaS4RpaepHq-g7uc,849.1599752835926
alfamart,3.5,2,-6.2579807,106.8499505,"apartement kalibata city tower nusa indah 08-11 kel, rt.9/rw.4, rawajati, kota jakarta selatan",ChIJgztQ37LzaS4RqexTxSjOLo8,1504.478694438989
alfamart,4.1,22,-6.2624146,106.8482494,"jl. empang tiga no.99 rt.14, rw no.kel, rt.14/rw.1, pejaten tim., kota jakarta selatan",ChIJldgfBQDzaS4RQD2w0HmvqT0,2031.340726531162
alfamart,4.3,271,-6.246529199999999,106.8553284,"5 jalan pengadegan utara kel no. 6 2, cikoko, kota jakarta selatan",ChIJSzw7gK_zaS4R5IGShG4jJTk,221.80693286179385
alfamart,4.3,120,-6.2516637,106.8500804,"jl. pengadegan selatan no.no, rt.3/rw.5, pengadegan, kota jakarta selatan",ChIJy5ulebHzaS4RlZiilhvlQuQ,851.626298920657
alfamart,4.3,185,-6.2614857,106.8419188,"jl. kalibata tengah kel no.rt. 001 / 07, rt.2/rw.7, kalibata, kota jakarta selatan",ChIJxx6tdpbzaS4RZ-Qlex8c2vI,2261.35295200208
alfamart asem baris 9,3.3,3,-6.231533199999999,106.8595579,"jl. asem baris raya no.2, rt.4/rw.4, kb. baru, kota jakarta selatan",ChIJu7E9QdjzaS4RRrwgvXYkovU,1625.3272119860324
alfamart,4.2,247,-6.232115299999999,106.8526155,"jl. tebet timur raya kel no.10a, rw.5, tebet tim., kota jakarta selatan",ChIJvxCSrJDzaS4RKB-Id--kE3M,1446.75369831937
alfamart,0,0,-6.2422578,106.8586157,"jl. tebet timur dalam ii jl. letjen m.t. haryono no.kel, rt.11/rw.6, tebet tim., kota jakarta selatan",ChIJVZBHaVfzaS4RFTjXgXG6zA0,599.8740217953381
alfamart,4.3,6,-6.241123,106.860408,"no., jl. asem baris raya no.12, rt.6/rw.14, kb. baru, kota jakarta selatan",ChIJeSn3SKHzaS4R_WptlUHhqUU,834.7196886181324
alfamart,4.2,161,-6.2499501,106.8363977,"jl. pancoran barat vii kel no.22, rt.9/rw.6, kalibata, kota jakarta selatan",ChIJ6RtK2MjzaS4RUM3_G2pv1Kc,2017.7574226745066
alfamart - tower ebony,5,1,-6.257284599999999,106.8526894,"pvv3+33p, rt.9/rw.4, rawajati, south jakarta city",ChIJJwlUwbrzaS4RF4cES_63IzE,1367.1953994671505
alfamart rasamala,5,2,-6.234524,106.839845,"jl. rasamala raya no.29, rt.1/rw.9, menteng dalam, kota jakarta selatan",ChIJEYL_Dc7zaS4RB34juQUJWKA,1952.2152012370234
alfamart,0,0,-6.247007399999999,106.8432948,"gedung l'avenue shop 1, jl. raya pasar minggu kel no.kav.16, rt.1/rw.4, kalibata, kota jakarta selatan",ChIJP1-5SVPzaS4RG7CXt6z9WAA,1200.3918714128138
alfamart,0,0,-6.2550819,106.8562552,"woodland park residence tower trembesi, jl. raya kalibata kel no.22, rt.6/rw.7, rawajati, kota jakarta selatan",ChIJGWu7SVDzaS4RQFrnntyC1lo,1142.9708475431253
alfamart,4,122,-6.2494,106.84871,"jl. perdatam raya no.35, rt.7/rw.8, pengadegan, kota jakarta selatan",ChIJyX7I3bDzaS4Rb6or_7hHT18,756.3826845253925
alfamart apartemen signature,3,2,-6.242746899999999,106.8545314,"jl. letjen m.t. haryono no.10, rw.9, tebet tim., kota jakarta selatan",ChIJaY52jS7zaS4Rhs70E5KpMKc,263.9839795564044
alfamart lapangan ros hrn,3.7,9,-6.225838,106.8587398,"jl. kh abdullah syafei no.45, rt.1/rw.3, kb. baru, kota jakarta selatan",ChIJw46yqITzaS4ROj6VVe4JA9g,2200.8558023819123
alfamart,4.2,77,-6.261753499999999,106.8336621,"jl. kalibata tengah kel no.60, rt.10/rw.7, kalibata, kota jakarta selatan",ChIJAd72qmHzaS4RFQV01cn-_Vg,2913.564851495315
alfamart pancoran barat vii,4.6,27,-6.252869899999999,106.8376863,"jl. pancoran barat vii no.7a, rt.15/rw.1, pancoran, kota jakarta selatan",ChIJR3f96NbzaS4RlJ7hhGiIRj4,1999.2272055328715
alfamart pengadengan barat,4.4,85,-6.245896,106.8555588,"jl. pengadegan barat raya no.21, rt.2/rw.6, pengadegan, kota jakarta selatan",ChIJD6Xy_f7zaS4RD9NxgaCPQ9I,198.36656696570458
alfamart,5,4,-6.225860000000001,106.8587594,"rt.1/rw.5, kb. baru, kota jakarta selatan",ChIJqeWQWf7zaS4RJW-5-q6ZFk8,2199.000609606872
