nama_tempat,rating_tempat,user_ratings_total,latitude,longitude,alamat_tempat,place_id,distance
alfamart,4.2,30,-6.2679459,106.8470626,"jl. batu i kel no.3, rt.4/rw.1, pejaten tim., kota jakarta selatan",ChIJ7etgAUbyaS4Rltk4NYMESVU,1352.99447100662
alfamart,4.5,19,-6.253404799999999,106.8401304,"jl. duren tiga selatan no.88, rt.1/rw.001 kel, pancoran, kota jakarta selatan",ChIJAXBtHt7zaS4RqSjmY_L6_Tg,1706.638319995227
alfamart,4.3,102,-6.272520099999999,106.8383983,"jl. siaga raya no.17, rt.4/rw.4 kel, pejaten bar., kota jakarta selatan",ChIJxRVKKDnyaS4RxtZdiPBr3f4,2387.5739073758723
alfamart express,0,0,-6.2425745,106.8586384,"jl. tebet timur raya no.55, rw.14, tebet tim., kota jakarta selatan",ChIJA4mAfRjzaS4RW9IHZeqsAaw,1817.5518262565047
alfamart,4.3,150,-6.2721008,106.8485963,"jl. angsana no 14 rt 101/5 kel, rt.10/rw.4, pejaten tim., kota jakarta selatan",ChIJf_l1EkTyaS4R9Tga6M5sprI,1661.9179759094743
alfamart,4.1,175,-6.249124,106.8586472,"jl. pengadegan timur raya no.17, rt.3/rw.2, pengadegan, kota jakarta selatan",ChIJSRHaLq_zaS4RM3bNCU2HZd8,1124.2336690618886
alfamart,0,0,-6.2514477,106.8618801,"jl. pengadegan timur i no.30, rt.7/rw.1, pengadegan, kota jakarta selatan",ChIJ1YYQJfXzaS4RtiFyuIT23go,1110.5706123269367
alfamart asem baris dua,4.5,17,-6.240856200000001,106.860392,"jl. asem baris raya no.12, rt.6/rw.14, kb. baru, kota jakarta selatan",ChIJcX-mR6HzaS4RpaepHq-g7uc,2054.320699066616
alfamart,4.5,81,-6.2692393,106.8377635,"jl. siaga raya no.kel, rt.12/rw.0, pejaten bar., kota jakarta selatan",ChIJZ4vwWCzzaS4R9YOSWsktFtA,2224.8366691912115
alfamart,3.5,2,-6.2579807,106.8499505,"apartement kalibata city tower nusa indah 08-11 kel, rt.9/rw.4, rawajati, kota jakarta selatan",ChIJgztQ37LzaS4RqexTxSjOLo8,528.9976812330897
alfamart,4.1,22,-6.2624146,106.8482494,"jl. empang tiga no.99 rt.14, rw no.kel, rt.14/rw.1, pejaten tim., kota jakarta selatan",ChIJldgfBQDzaS4RQD2w0HmvqT0,839.66823843193
alfamart,4.3,271,-6.246529199999999,106.8553284,"5 jalan pengadegan utara kel no. 6 2, cikoko, kota jakarta selatan",ChIJSzw7gK_zaS4R5IGShG4jJTk,1327.0103000784516
alfamart,4.3,120,-6.2516637,106.8500804,"jl. pengadegan selatan no.no, rt.3/rw.5, pengadegan, kota jakarta selatan",ChIJy5ulebHzaS4RlZiilhvlQuQ,911.7336373607328
alfamart,4.3,185,-6.2614857,106.8419188,"jl. kalibata tengah kel no.rt. 001 / 07, rt.2/rw.7, kalibata, kota jakarta selatan",ChIJxx6tdpbzaS4RZ-Qlex8c2vI,1453.9918652080626
alfamart,0,0,-6.2422578,106.8586157,"jl. tebet timur dalam ii jl. letjen m.t. haryono no.kel, rt.11/rw.6, tebet tim., kota jakarta selatan",ChIJVZBHaVfzaS4RFTjXgXG6zA0,1851.1821564997088
alfamart,4.3,6,-6.241123,106.860408,"no., jl. asem baris raya no.12, rt.6/rw.14, kb. baru, kota jakarta selatan",ChIJeSn3SKHzaS4R_WptlUHhqUU,2026.6414338026848
alfamart - tower ebony,5,1,-6.257284599999999,106.8526894,"pvv3+33p, rt.9/rw.4, rawajati, south jakarta city",ChIJJwlUwbrzaS4RF4cES_63IzE,258.39570573688343
alfamart,3.9,108,-6.265602599999999,106.8508493,"jl. rawajati timur no.kel, rt.7/rw.6, rawajati, kota jakarta selatan",ChIJK3B8r0_yaS4RKn-EKaMgJpM,902.9895384069392
alfamart,0,0,-6.247007399999999,106.8432948,"gedung l'avenue shop 1, jl. raya pasar minggu kel no.kav.16, rt.1/rw.4, kalibata, kota jakarta selatan",ChIJP1-5SVPzaS4RG7CXt6z9WAA,1791.9793062772255
alfamart,0,0,-6.2550819,106.8562552,"woodland park residence tower trembesi, jl. raya kalibata kel no.22, rt.6/rw.7, rawajati, kota jakarta selatan",ChIJGWu7SVDzaS4RQFrnntyC1lo,411.2287186582568
alfamart,4.2,161,-6.2499501,106.8363977,"jl. pancoran barat vii kel no.22, rt.9/rw.6, kalibata, kota jakarta selatan",ChIJ6RtK2MjzaS4RUM3_G2pv1Kc,2234.128888059375
alfamart,4,122,-6.2494,106.84871,"jl. perdatam raya no.35, rt.7/rw.8, pengadegan, kota jakarta selatan",ChIJyX7I3bDzaS4Rb6or_7hHT18,1205.1772003532776
alfamart,4.3,119,-6.2661947,106.8408908,"jl. h. samali kel no.3, rt.1/rw.4, pejaten bar., kota jakarta selatan",ChIJkah0xDfyaS4RVVK-oIB1NjA,1753.9440587762517
alfamart apartemen signature,3,2,-6.242746899999999,106.8545314,"jl. letjen m.t. haryono no.10, rw.9, tebet tim., kota jakarta selatan",ChIJaY52jS7zaS4Rhs70E5KpMKc,1745.9563695627178
alfamart jl. kemuning (1mu1),4.6,193,-6.273202299999999,106.8474613,"jl. kemuning raya no.33, rt.6/rw.6, pejaten tim., kota jakarta selatan",ChIJeawFH9TzaS4RZra6zTDuY0I,1825.9918768447635
alfamart,4.1,48,-6.2658257,106.8352335,"jl.warung jati no.2, kel no.9, rt.4/rw.9, kalibata, kota jakarta selatan",ChIJa4P60zDyaS4R4wTgs1-cS5k,2304.1385179402587
alfamart,4.4,230,-6.2768681,106.8415746,"jl. pejaten raya no.20 a, rt.10/rw.2, kel, kota jakarta selatan",ChIJEyrhCkDyaS4RLgCbuqlGxn0,2510.8498391095145
alfamart siaga raya,4.3,95,-6.2691579,106.8378314,"prjq+84j, rt.12/rw.4, west pejaten, south jakarta city",ChIJaYELyDnyaS4RCGjPIh_HyzU,2213.637951051554
alfamart pancoran barat vii,4.6,27,-6.252869899999999,106.8376863,"jl. pancoran barat vii no.7a, rt.15/rw.1, pancoran, kota jakarta selatan",ChIJR3f96NbzaS4RlJ7hhGiIRj4,1981.6047454498187
alfamart pengadengan barat,4.4,85,-6.245896,106.8555588,"jl. pengadegan barat raya no.21, rt.2/rw.6, pengadegan, kota jakarta selatan",ChIJD6Xy_f7zaS4RD9NxgaCPQ9I,1398.8016445121723
