nama_tempat,rating_tempat,user_ratings_total,latitude,longitude,alamat_tempat,place_id,distance
indomaret,4.3,104,-6.302203,106.7919364,"jl. lb. bulus iii no.40, rt.9/rw.7, cilandak bar., kota jakarta selatan",ChIJaxj8TyDuaS4RmJ8rDkpB2GA,1378.9385564093263
indomaret,0,0,-6.3070032,106.7936899,"10, rt.4/rw.10, pondok labu, south jakarta city",ChIJPz4W5BPvaS4RoUnKBAiaL3o,1627.5790383928036
indomaret karang tengah raya,4.3,108,-6.3013439,106.7805495,"bona indah plaza, jl. karang tengah raya no.1, rt.5/rw.4, lb. bulus, kota jakarta selatan",ChIJ7aqqqinuaS4RKy68g0RuyMk,228.66578320761798
indomaret,4.3,42,-6.2857772,106.7808844,"pq7j+p92, jl. metro pondok indah, rt.3/rw.14, pd. pinang, kota jakarta selatan",ChIJLWcbOM_xaS4RIMEFJuZjRvY,1933.6982387190124
indomaret,0,0,-6.2910563,106.7949517,"jl. pejaten raya no.19 a, rt.18/rw.2, jati padang, kota jakarta selatan",ChIJZW196Q7xaS4R95E7nWT6Da4,2171.661033912276
indomaret spbu simatupang,4.2,22,-6.2928207,106.794356,"pq4v+vph, jl. r.a. kartini, rt.1/rw.4, cilandak bar., kota jakarta selatan",ChIJPd3qm93xaS4Ry_DGnmEAInk,2001.9831209369852
indomaret fatmawati 26,4.3,6,-6.3043705,106.7951843,"jl. rs. fatmawati raya no.26, rt.1/rw.7, pd. labu, kota jakarta selatan",ChIJ-WTA4iHuaS4RhhDcoecn57U,1739.8249818021536
indomaret,4.4,26,-6.2962454,106.7892345,"pq3q+gmh, jl. lb. bulus i, rt.3/rw.4, cilandak bar., kota jakarta selatan",ChIJsbv9uN7xaS4RK2vE-f9VboA,1319.895056393894
indomaret minimarket bona indah plaza,4.5,6,-6.3009042,106.7806588,"bona indah plaza no.a2/d3 jl. karang tengah raya, rt.7/rw.6, lb. bulus, kota jakarta selatan",ChIJJesreyjuaS4RF1nrMU1l0JE,277.2588110989715
indomaret taman cilandak,5,4,-6.2930967,106.7920496,"jl. taman cilandak raya no.9, rt.11/rw.4, cilandak bar., kota jakarta selatan",ChIJv01rArvxaS4RuUFeXimA3zk,1779.3665857787892
indomaret,2,4,-6.289838899999999,106.7781069,"jl. r.a. kartini no.49, rt.9/rw.7, lb. bulus, kota jakarta selatan",ChIJEaTZ42DxaS4R044D9l8J_vQ,1483.8719151705513
indomaret bona indah 2,4.9,15,-6.2963167,106.7891712,"jl. lb. bulus i no.35b, rt.3/rw.4, cilandak bar., kota jakarta selatan",ChIJF35byhHxaS4RhU4r6frWhIo,1309.604115368461
indomaret reno pangkalan jati,4.4,61,-6.3131032,106.7963693,"jl. pangkalan jati no.8, rt.2/rw.5, pd. labu, kota jakarta selatan",ChIJ_YPzTRbuaS4RBMIVZIUvApQ,2170.9327953295215
indomaret plus,4.3,229,-6.296373399999999,106.7948721,"5, jl. rs. fatmawati raya no.35, rt.5/rw.4, cilandak bar., kota jakarta selatan",ChIJd96Hv-DxaS4RHJwKA-4iFZI,1857.5452944731899
indomaret h.ipin,4.3,123,-6.3118874,106.7902907,"jl. h. ipin no.11, rw.1, pd. labu, kota jakarta selatan",ChIJWagF6TzuaS4RChibXwRnJgA,1541.4653191872333
bii atm indomaret bona indah 1,4.3,142,-6.2876105,106.7772803,"jl. lebak bulus 1, cilandak, jakarta selatan, rt.1/rw.1, lebak bulus, south jakarta city",ChIJF9Syud7xaS4RCaXavhh53AA,1740.9938422245075
indomaret adhiyaksa lebak bulus,4.5,13,-6.2977921,106.7762749,"4, jl. adhyaksa vii no.5, rw.5, lb. bulus, kota jakarta selatan",ChIJo6D2K9TxaS4RRAFRFQZF85I,690.2980584184511
indomaret karang tengah 39,4.4,90,-6.305912300000001,106.7816935,"mqvj+jmp, rt.6/rw.4, lebak bulus, south jakarta city",ChIJraDzUtLvaS4RD7IR82uJtEo,395.04210573548875
indomaret pondok labu,4.1,52,-6.310976699999999,106.7934225,"jl. rs fatmawati no.8, rt.7/rw.1, pd. labu, kota jakarta selatan",ChIJuZWfRT3uaS4RPJR0-gix6to,1770.4978546097648
indomaret h. batong,3.9,60,-6.286857899999999,106.7903161,"jl. h.batong raya rt007/rw006, cilandak barat, cilandak, rt.7/rw.6, west cilandak, south jakarta city",ChIJAQAAAOfxaS4R6wrqsJtf5pk,2167.380110233109
indomaret hybrid lebak bulus/008,4.6,13,-6.3101176,106.780875,"jl. karang tengah raya no.1, rt.1/rw.3, lb. bulus, kota jakarta selatan",ChIJBwBd3S_uaS4RMBfxWKiy408,793.7782149356203
indomaret - plaza satu pondok indah,4.2,9,-6.2843295,106.7811145,"jl. taman duta i no.7, rt.4/rw.14, pd. pinang, kota jakarta selatan",ChIJn2i-wMjxaS4RporVNR8Svs0,2096.2252762997814
indomaret ciputat raya 4,4.1,18,-6.2829641,106.7806074,"jl. ciputat raya no.4, rt.9/rw.2, pd. pinang, kota jakarta selatan",ChIJd-fx6q3xaS4RLtxCS_G0RvY,2243.760854311508
indomaret bona indah,3.2,5,-6.2974692,106.7824281,"indomaret, jl. lb. bulus i no.23, rt.1/rw.1, lebak bulus, south jakarta city",ChIJ5cZCSA_xaS4RWfbV5rM0sBg,706.3535142372835
post shop indomaret,3,5,-6.2947447,106.795399,"jl. rs. fatmawati raya no.10, rt.1/rw.4, cilandak bar., kota jakarta selatan",ChIJbd1pUOfxaS4Rt-kFPuyDtsk,1988.9823759796152
indomaret,4,1,-6.311003200000001,106.7935373,"mqqv+hcv, jl. h. ipin, rt.7/rw.1, pd. labu, kota jakarta selatan",ChIJI9WSpdXvaS4RyrpdfY2WyYA,1782.989343252848
indomaret pupan ciputat,5,11,-6.2831678,106.7717267,"jl. pupan no: 01 rt 07 / rw 08, pondok pinang, kebayoran lama, rt.11/rw.15, pd. pinang, kota jakarta selatan",ChIJE1VVVbbxaS4RJVUwg--0dq4,2378.0711540697553
indomaret pinang raya,4.1,147,-6.3081054,106.7981876,"jl. pinang raya no.9, rt.2/rw.9, pd. labu, kota jakarta selatan",ChIJteuioxnuaS4R3u6TiMK2DHc,2139.414088667876
indomaret fatmawati no.6,3.9,13,-6.2942065,106.7950223,"jl. rs. fatmawati raya no.6, rt.2/rw.5, cilandak bar., kota jakarta selatan",ChIJ6yLv7KvxaS4RlTGBTyv0phM,1981.5024870945333
