nama_tempat,rating_tempat,user_ratings_total,latitude,longitude,alamat_tempat,place_id,distance
indomaret,4.3,104,-6.302203,106.7919364,"jl. lb. bulus iii no.40, rt.9/rw.7, cilandak bar., kota jakarta selatan",ChIJaxj8TyDuaS4RmJ8rDkpB2GA,838.7613397611543
indomaret,0,0,-6.3070032,106.7936899,"10, rt.4/rw.10, pondok labu, south jakarta city",ChIJPz4W5BPvaS4RoUnKBAiaL3o,393.3961060729088
indomaret,4.7,6,-6.3203625,106.8106762,"jl. m. khafi no.62, rt.3/rw.4, jagakarsa, kota jakarta selatan",ChIJWdlCSXPuaS4RzpIWwflyKKU,2054.4759932321163
indomaret jeruk purut,4.5,132,-6.291164699999999,106.8129499,"jl. jeruk purut no.22, rt.3/rw.3, cilandak tim., kota jakarta selatan",ChIJvy_4mvnxaS4RjjbhIFaTp4Y,2528.3959494467613
indomaret karang tengah raya,4.3,108,-6.3013439,106.7805495,"bona indah plaza, jl. karang tengah raya no.1, rt.5/rw.4, lb. bulus, kota jakarta selatan",ChIJ7aqqqinuaS4RKy68g0RuyMk,1968.1525005772387
indomaret margasatwa raya,3.6,48,-6.313039300000001,106.8000683,"jl. margasatwa no.41, rt.8/rw.2, pd. labu, kota jakarta selatan",ChIJP8XfLBHuaS4RUZWOBnFgxCo,678.8076337233364
indomaret ciremai jagakarsa,3.9,22,-6.3245086,106.8113082,"jl. m.kahfi 1 rt 01/rw 04, jagakarsa, jagakarsa, rt.2/rw.7, jagakarsa, south jakarta city",ChIJcQAAANntaS4RAesd4Pw1hXk,2439.3108618380897
indomaret jl. m. kahfi 1,4.1,73,-6.3180584,106.8113141,"jalan jagakarsa blok hidayah no.10 rt.10/rw.6, rt.3/rw.6, jagakarsa, kota jakarta selatan",ChIJWQO5mgzuaS4RFP9F2gFfJyY,1943.4848574865512
indomaret,0,0,-6.2910563,106.7949517,"jl. pejaten raya no.19 a, rt.18/rw.2, jati padang, kota jakarta selatan",ChIJZW196Q7xaS4R95E7nWT6Da4,1861.2621830140345
indomaret spbu simatupang,4.2,22,-6.2928207,106.794356,"pq4v+vph, jl. r.a. kartini, rt.1/rw.4, cilandak bar., kota jakarta selatan",ChIJPd3qm93xaS4Ry_DGnmEAInk,1678.0482734288191
indomaret fatmawati 26,4.3,6,-6.3043705,106.7951843,"jl. rs. fatmawati raya no.26, rt.1/rw.7, pd. labu, kota jakarta selatan",ChIJ-WTA4iHuaS4RhhDcoecn57U,426.4222595342003
indomaret minimarket bona indah plaza,4.5,6,-6.3009042,106.7806588,"bona indah plaza no.a2/d3 jl. karang tengah raya, rt.7/rw.6, lb. bulus, kota jakarta selatan",ChIJJesreyjuaS4RF1nrMU1l0JE,1974.9072431347736
indomaret plus,4.3,229,-6.296373399999999,106.7948721,"5, jl. rs. fatmawati raya no.35, rt.5/rw.4, cilandak bar., kota jakarta selatan",ChIJd96Hv-DxaS4RHJwKA-4iFZI,1279.4235011999021
indomaret bango raya,0,0,-6.3075877,106.8039904,"jl. bango ii no.31, rw.3, pd. labu, kota jakarta selatan",ChIJXTAa0H_vaS4R5_VN2xv2sJA,751.6218734700877
indomaret taman cilandak,5,4,-6.2930967,106.7920496,"jl. taman cilandak raya no.9, rt.11/rw.4, cilandak bar., kota jakarta selatan",ChIJv01rArvxaS4RuUFeXimA3zk,1714.7210510591171
indomaret reno pangkalan jati,4.4,61,-6.3131032,106.7963693,"jl. pangkalan jati no.8, rt.2/rw.5, pd. labu, kota jakarta selatan",ChIJ_YPzTRbuaS4RBMIVZIUvApQ,613.500514409093
indomaret,4.4,26,-6.2962454,106.7892345,"pq3q+gmh, jl. lb. bulus i, rt.3/rw.4, cilandak bar., kota jakarta selatan",ChIJsbv9uN7xaS4RK2vE-f9VboA,1542.819129816613
indomaret bona indah 2,4.9,15,-6.2963167,106.7891712,"jl. lb. bulus i no.35b, rt.3/rw.4, cilandak bar., kota jakarta selatan",ChIJF35byhHxaS4RhU4r6frWhIo,1540.3257945375624
indomaret cilandak raya,4.3,20,-6.297004200000001,106.8154176,"pr38+55x, jl. raya cilandak kko, rt.1/rw.5, ragunan, kota jakarta selatan",ChIJ-6Meqf_xaS4R99u9vNNVFjg,2336.4206839076105
indomaret h.ipin,4.3,123,-6.3118874,106.7902907,"jl. h. ipin no.11, rw.1, pd. labu, kota jakarta selatan",ChIJWagF6TzuaS4RChibXwRnJgA,896.5566072419444
indomaret pintu barat ragunan (t1y7),0,0,-6.3104305,106.8159192,"14, jl. margasatwa baru no.45, rw.8, jagakarsa, kota jakarta selatan",ChIJwcwxNEXvaS4RiKmoGQ6V0pU,2093.0019127461333
indomaret karang tengah 39,4.4,90,-6.305912300000001,106.7816935,"mqvj+jmp, rt.6/rw.4, lebak bulus, south jakarta city",ChIJraDzUtLvaS4RD7IR82uJtEo,1723.5275730197798
indomaret pondok labu,4.1,52,-6.310976699999999,106.7934225,"jl. rs fatmawati no.8, rt.7/rw.1, pd. labu, kota jakarta selatan",ChIJuZWfRT3uaS4RPJR0-gix6to,557.2289944015591
indomaret hybrid lebak bulus/008,4.6,13,-6.3101176,106.780875,"jl. karang tengah raya no.1, rt.1/rw.3, lb. bulus, kota jakarta selatan",ChIJBwBd3S_uaS4RMBfxWKiy408,1823.97667477541
indomaret plus cilandak kko (tmip),4.5,645,-6.3098246,106.8139564,"jl. raya cilandak kko no.3, rt.14/rw.8, ragunan, kota jakarta selatan",ChIJJ3rNnQjuaS4RWjDJ-zFTzR0,1868.8115114016778
indomaret berlian ii cilandak,4.5,2,-6.2965402,106.8005802,"pr32+96p, rt.6/rw.2, west cilandak, south jakarta city",ChIJDaAAxvjxaS4RX-J08P1H7ug,1290.557062581259
indomaret perempatan ampera,4.1,69,-6.2917269,106.8165986,"jalan ampera raya 2, rt.2/rw.2, cilandak tim., kota jakarta selatan",ChIJCTLyivjxaS4Rre-W6oaY4qE,2781.192937758431
indomaret,2,4,-6.289838899999999,106.7781069,"jl. r.a. kartini no.49, rt.9/rw.7, lb. bulus, kota jakarta selatan",ChIJEaTZ42DxaS4R044D9l8J_vQ,2892.978732562188
indomaret pinang raya,4.1,147,-6.3081054,106.7981876,"jl. pinang raya no.9, rt.2/rw.9, pd. labu, kota jakarta selatan",ChIJteuioxnuaS4R3u6TiMK2DHc,121.49207341055693
indomaret raya jagakarsa,4.4,221,-6.3273649,106.8163662,"no., jl. raya jagakarsa no.2, rt.10/rw.2, jagakarsa, kota jakarta selatan",ChIJnz15NXbuaS4RjtdQGUQE7gY,3049.4414492023325
indomaret bona indah,3.2,5,-6.2974692,106.7824281,"indomaret, jl. lb. bulus i no.23, rt.1/rw.1, lebak bulus, south jakarta city",ChIJ5cZCSA_xaS4RWfbV5rM0sBg,1985.5872619983868
post shop indomaret,3,5,-6.2947447,106.795399,"jl. rs. fatmawati raya no.10, rt.1/rw.4, cilandak bar., kota jakarta selatan",ChIJbd1pUOfxaS4Rt-kFPuyDtsk,1448.2086008643855
indomaret,4,1,-6.311003200000001,106.7935373,"mqqv+hcv, jl. h. ipin, rt.7/rw.1, pd. labu, kota jakarta selatan",ChIJI9WSpdXvaS4RyrpdfY2WyYA,549.8089767085918
indomaret durian jagakarsa,4.4,243,-6.3187172,106.8157181,"jl. paso no.32, rt.4/rw.4, jagakarsa, kota jakarta selatan",ChIJp2612gruaS4R6xThXZZnoQw,2389.271195062986
bii atm indomaret bona indah 1,4.3,142,-6.2876105,106.7772803,"jl. lebak bulus 1, cilandak, jakarta selatan, rt.1/rw.1, lebak bulus, south jakarta city",ChIJF9Syud7xaS4RCaXavhh53AA,3131.4156926908877
indomaret fatmawati no.6,3.9,13,-6.2942065,106.7950223,"jl. rs. fatmawati raya no.6, rt.2/rw.5, cilandak bar., kota jakarta selatan",ChIJ6yLv7KvxaS4RlTGBTyv0phM,1513.5440548461727
indomaret,4.3,190,-6.310845,106.8031917,"jalan margasatwa, rt.1/rw.3, pondok labu, cilandak, rt.1/rw.3, pd. labu, kota jakarta selatan",ChIJz_7MYxDuaS4RL6XfEsDgb-M,752.6501856033636
