nama_tempat,rating_tempat,user_ratings_total,latitude,longitude,alamat_tempat,place_id,distance
alfamart,4.3,16,-6.3389038,106.8344498,"komp. sta universitas pancasila jl. raya lt agung kel, rt.1/rw.3, srengseng sawah, kota jakarta selatan",ChIJO9SLoXrtaS4R_qO4Q2eaGC0,1983.4401083505513
alfamart,4,1,-6.3274385,106.8165763,"jl. gandaria ii kel no.rt. 006/02, rt.6/rw.2, jagakarsa, kota jakarta selatan",ChIJNaff4frvaS4Rv-sXFlDoV8I,465.54879242495576
alfamart,4.4,172,-6.310429000000001,106.8373362,"jl. raya lenteng agung no.9 rt, rt.4/rw.1, lenteng agung, kota jakarta selatan",ChIJI4ismJftaS4RG7BjJdb_aTE,2622.9453109916103
alfamart lenteng agung 5,3,4,-6.3163063,106.8361512,"jl. raya lenteng agung no.22, rt.5/rw.1, lenteng agung, kota jakarta selatan",ChIJDQ0fsc7taS4R3NlvyB-kvR0,2094.662209304275
alfamart,4.8,20,-6.3286377,106.8244583,"jl. raya jagakarsa no.2a, rt.9/rw.7, kel, kota jakarta selatan",ChIJWbkHhJ3taS4RYeZ0L7Xgo4Y,430.69453195545333
alfamart,4.2,97,-6.3359894,106.8270017,"jl. moch. kahfi ii kel no.23, rt.11/rw.8, srengseng sawah, kota jakarta selatan",ChIJe1YAOdLtaS4Rt7Ol21BHFN4,1182.0665035364354
alfamart,2,1,-6.3409759,106.8275507,"jl. raya desa putra no. 22, rt no.kel, rt.7/rw.5, srengseng sawah, kota jakarta selatan",ChIJozZ4F7HtaS4R1kONZ5ibbtU,1690.7539427281708
alfamart,4.3,239,-6.3267655,106.8215854,"jl. raya jagakarsa, rt.2/rw.7, kel, kota jakarta selatan",ChIJz9mMD9ntaS4RZubt_6ybvOw,108.70074295820392
alfamart,4.3,363,-6.3390194,106.8285737,"jl. desa putra raya no.3 kel, rw.5, srengseng sawah, kota jakarta selatan",ChIJAw3ltijtaS4RmcB7KA3NCio,1558.1733838982418
alfamart,4.5,73,-6.333435799999999,106.835083,"jl. lenteng agung barat no. 9, kel no.04, rt.2/rw.10, srengseng sawah, kota jakarta selatan",ChIJ13AKk4ftaS4RCuU8MrNt6NA,1719.2892611088478
alfamart,4.1,158,-6.3271403,106.8293354,"jl. klp. 3 no.49, rt.6/rw.3, kel, kota jakarta selatan",ChIJKUVCIj_taS4RPE3ln04fn_s,944.9481370884341
alfamart,4.4,68,-6.316942099999999,106.8251017,"jl. kebagusan raya kel, rt.2/rw.4, kebagusan, kota jakarta selatan",ChIJ5ecsNQftaS4R2Gym8QnVXUk,1250.3522256242209
alfamart,4.4,99,-6.3270311,106.8144222,"jl.jagakarsa kp.kandang no.50, rt.6/rw.4, kel, kota jakarta selatan",ChIJVZkf7ijvaS4RohYfDKQq_TQ,704.3011319723487
alfamart,4.3,85,-6.341221600000001,106.8046813,"jl. m. kahfi i no. 60, rt. 006 kel, rt.8/rw.6, ciganjur, kota jakarta selatan",ChIJ50-5vp3vaS4R4PP0-gOdOLY,2356.2637833511553
alfamart,4.2,102,-6.3353411,106.8132835,"jl. sadar raya no.kel, rt.2/rw.2, jagakarsa, kota jakarta selatan",ChIJyXE7tX7uaS4R_N1dj_5A7Lk,1216.5028041117778
alfamart,3.7,11,-6.3234492,106.8354947,"jl. raya lenteng agung kel no.14, lenteng agung, kota jakarta selatan",ChIJlTB_4sPtaS4Rxc7ws3Uy_40,1681.922248772634
alfamart,4.3,59,-6.313207200000001,106.8032178,"jl. margasatwa raya no 14a-c, kel, rt.1/rw.3, pd. labu, kota jakarta selatan",ChIJCz-ABPPvaS4RvH3YwYy3D3U,2497.8271080331247
alfamart,3.7,15,-6.312712599999999,106.8257501,"jl. raya jatipadang kel no.16, rt.7/rw.5, kebagusan, kota jakarta selatan",ChIJ-86bRuTtaS4Roa7AGvYD-sg,1716.1726514003221
alfamart,4.1,115,-6.312118,106.838574,"jl.tanjung barat sltn rt 1/2, kel, rt.1/rw.2, tj. bar., kota jakarta selatan",ChIJO7r69eztaS4R6-qTHsW9FZo,2593.843767134577
alfamart,3.7,11,-6.3448658,106.8286053,"jl. srengseng sawah kel no.rt 5/12, rt.5/rw.12, srengseng sawah, kota jakarta selatan",ChIJNeAy4i3saS4R2vlrs_RK_Qk,2132.015787187696
alfamart,4.4,72,-6.3243592,106.8300011,"jl. joe klp. tiga, rt.2/rw.3, kel, kota jakarta selatan",ChIJYbi2VcPtaS4REBIUqS4H6nw,1070.7556453987436
alfamart,1,1,-6.345517699999999,106.810441,"jl. wr. sila kel no.48, rt.11/rw.5, ciganjur, kota jakarta selatan",ChIJLccxhA3vaS4R1CueIAoDZlE,2322.5677443483078
alfamart,4.8,16,-6.3306239,106.8349623,"stasiun kel, lenteng agung, south jakarta city",ChIJIwmT0tTtaS4R6hg8QgNw3WY,1608.6293980723444
alfamart,4.3,119,-6.3447007,106.8044728,"jl. wr. sila kel no.261, rt.3/rw.4, ciganjur, kota jakarta selatan",ChIJn4GqwYjuaS4RkEZAhdWNiIU,2641.725351132753
alfamart,4,12,-6.3431267,106.8172234,"jl.moch kahfi 2 rt 5/4 kel, jl. moch. kahfi ii no.2, rt.5/rw.4, ciganjur, kota jakarta selatan",ChIJwRkvJkbvaS4RV98hH2jg2jM,1799.3673154519422
alfamart,4.7,86,-6.3212652,106.8254171,"jl ry jati padang 6 rt 4/4 kel, rt.11/rw.5, kebagusan, kota jakarta selatan",ChIJ60AxeGztaS4Ru2TlJfZ6_co,847.1364078409509
alfamart ltg agung jagakarsa,5,2,-6.3283086,106.8342246,"mrcm+mm5, rt.9/rw.4, lenteng agung, south jakarta city",ChIJ05wHln3taS4RfX09zv-hV4M,1488.9603296654668
alfamart,4.4,39,-6.3360353,106.8081282,"jl. h. montong kel, rt.6/rw.2, ciganjur, kota jakarta selatan",ChIJcSF1kHzuaS4RmUi6Derkz0U,1700.8392125294345
alfamart,4.5,97,-6.3179633,106.8191259,"jl. pepaya raya no.58, rt.12/rw.5, kel, kota jakarta selatan",ChIJW9l0OeDtaS4Rpqp-vEQlRxM,1058.3736560945529
alfamart cilandak kko 3,4.4,63,-6.309416199999999,106.8138852,"jl. cilandak kko no.1 a rt.014/08, cilandak ragunan rt.1, rt.14/rw.7, ragunan, south jakarta city",ChIJa8XPd0DvaS4RSIXi_ygrEaA,2133.738790385266
alfamart cv. anis star,4,12,-6.3271938,106.816634,"jl. raya jagakarsa no.3, rt.6/rw.2, jagakarsa, kota jakarta selatan",ChIJGQvZVnHuaS4R5-987_ViIy0,459.3119464171462
alfamart,4.2,35,-6.346389599999999,106.8257072,"jl.simpang tiga, jl. pratama kel no.22, rt.6/rw.6, srengseng sawah, kota jakarta selatan",ChIJcXskSobtaS4Rgle9vWyGMns,2187.200016804336
alfamart,5,1,-6.3077549,106.8388917,"stasiun tanjung barat kel, rt.4/rw.1, srengseng sawah, kota jakarta selatan",ChIJAdADu4rtaS4RvCWKME2nOFc,2957.1534560127793
alfamart,0,0,-6.3071224,106.8350381,"apart kebagusan city unit 1-ka kel, rt.1/rw.3, kebagusan, kota jakarta selatan",ChIJgfNO4B7taS4R-UWce8QYzk8,2744.638207614054
alfamart,1,1,-6.3450368,106.8152846,"jl. wr. sila no.36, rt.2/rw.5, ciganjur, kota jakarta selatan",ChIJXWJrkhPvaS4Rrveg9EepZfI,2059.939389685309
alfamart royal residence,4.6,73,-6.3343032,106.8069313,"mr84+7qf, rt.7/rw.2, ciganjur, south jakarta city",ChIJMU7G8APvaS4RPldwPHdkBVs,1716.1054946957076
