nama_tempat,rating_tempat,user_ratings_total,latitude,longitude,alamat_tempat,place_id,distance
alfamart,4.3,151,-6.216512,106.8278755,"jl. anggrek 3 kel no.25 b, rt.19/rw.2, kuningan, karet kuningan, kota jakarta selatan",ChIJd8d5kgf0aS4RZrS7fXlU-kg,1728.4005511444366
alfamart pasar manggis,4.8,5,-6.2140038,106.8427878,"jl. payakumbuh no.56, rt.11/rw.9, ps. manggis, kota jakarta selatan",ChIJ41SXHGn1aS4R33isZf_v_DY,568.4552217159398
alfamart,4,1,-6.2130459,106.825213,"jl. karet belakang barat jl. karbela no.kel, rt.1/rw.2, kuningan, karet kuningan, kota jakarta selatan",ChIJg9H4zDH1aS4Rm3_YlVTAJaY,1863.736456841384
alfamart lapangan ros hrn,3.7,9,-6.225838,106.8587398,"jl. kh abdullah syafei no.45, rt.1/rw.3, kb. baru, kota jakarta selatan",ChIJw46yqITzaS4ROj6VVe4JA9g,2662.3914251244323
alfamart minangkabau,4.5,146,-6.2125368,106.8445336,"jl. minangkabau barat no.2, rw.10, ps. manggis, kota jakarta selatan",ChIJ2wTpYf71aS4RoHjLXsoGgMw,508.048569026762
alfamart,4.2,21,-6.2210936,106.8542056,"jl. bukit duri selatan kel no.1, rt.4/rw.4, bukit duri, kota jakarta selatan",ChIJXYFIBYbzaS4R8Sd5JpbmsT0,1935.2543786486006
alfamart,0,0,-6.2140499,106.8468344,"jl. mampang prapatan xviii no.01, rt.8/rw.rw, manggarai, kota jakarta selatan",ChIJu8pW-M_1aS4RNa-MGFln8O8,805.0453413142299
alfamart abdullah syafei,4.3,56,-6.2233659,106.8491521,"jl. kh. abdullah syafei no.27, kel no.01, rt.4/rw.1, manggarai sel., kota jakarta selatan",ChIJAUMc7Y7zaS4RgN_gPmZvDbU,1799.9484281125144
alfamart,4.7,11,-6.218932499999999,106.8302356,"jl.hr. rasuna said kav. 3 - 5 kel, rt.6/rw.7, kuningan, setia budi, kota jakarta selatan",ChIJXVCj6unzaS4R3_PYMijRI8o,1668.7882899900167
alfamart bukit duri utara,5,1,-6.2168284,106.8551025,"10, jl. bukit duri utara raya no.27, rw.1, bukit duri, kota jakarta selatan",ChIJKdryITrzaS4Rr3YGBQKOJss,1727.6284231416846
alfamart menteng atas selatan 3,3.5,8,-6.2177142,106.8386021,"qrjq+wc9, rt.9/rw.4, menteng atas, south jakarta city",ChIJ3YwKPTbzaS4RVeL7N3tKQps,1019.8965653799154
alfamart,4,2,-6.209969699999999,106.8503501,"stasiun manggarai, rt.15/rw.4, manggarai, kota jakarta selatan",ChIJsxTMGoP1aS4RKrbP3zhaAww,974.7311675698661
alfamart tebet utara dalam,0,0,-6.227136199999999,106.8550131,"10, jl. tebet utara dalam no.14, rw.1, tebet tim., kota jakarta selatan",ChIJ2y6N7cbzaS4Rq34j25qX_tE,2501.1482249681544
alfamart,0,0,-6.213906,106.831112,"jl. h. r. rasuna said no.kav. 3, rt.3/rw.5, setia budi, kota jakarta selatan",ChIJj0q3Toz1aS4RmEbgm7uw19A,1277.976891147616
alfamart,3.9,18,-6.2218534,106.8588398,"jl. bukit duri tanjakan no.kel, rt.13/rw.44, bukit duri, kota jakarta selatan",ChIJ_Q3dB4TzaS4RZxSq_Ptr8NY,2381.3740067107724
alfamart,4.3,263,-6.2138855,106.8266392,"jl. karet belakang i no.2, rt.3/rw.4, kuningan, karet, kota jakarta selatan",ChIJUyMhTgb0aS4RgL8lQLR7f34,1737.7586673139951
alfamart,3.7,18,-6.210939,106.8421901,"jl. menteng wadas timur no. 12, kel no.01, rt.2/rw.1, ps. manggis, kota jakarta selatan",ChIJ65NqKXP0aS4R5fP1Zj0JGls,222.22062615864283
alfamart express,0,0,-6.2107225,106.8508269,"qvq2+p84, rt.15/rw.4, manggarai, south jakarta city",ChIJQYHKz8b1aS4RneZiLSv-nAY,1038.974319425278
alfamart,3.8,6,-6.217207399999999,106.8442193,"jl.dr. saharjo no. 96, kel no.1, rt.1/rw.7, menteng atas, kota jakarta selatan",ChIJpTDO7ojzaS4Rr4Rj2cGIbD4,954.4387157932213
alfamart,4.3,22,-6.2209506,106.8501247,"jl. albarkah kel no.4, rw.3, manggarai sel., kota jakarta selatan",ChIJF9_lmLfzaS4RB63H3egCn4M,1627.0870535534816
alfamart menteng atas,5,3,-6.2140737,106.8402247,"jl. menteng atas no.9, rw.12, kuningan, pasar manggis, south jakarta city",ChIJ9zeEzdD1aS4Rcj8jslVXWzQ,580.1616121560597
alfamart,4.4,131,-6.2086877,106.8245274,"jl. setia budi barat no.5, rt. 004/003, rt.5/rw.3, kuningan, setia budi, kota jakarta selatan",ChIJuTCdkAT0aS4RNniucbDH9dc,1885.7452821068941
alfamart muria tanjakan,4.6,35,-6.2119276,106.8380365,"jl. muria tanjakan gg. c2 no.6, rt.1/rw.12, ps. manggis, kota jakarta selatan",ChIJ5Si0x671aS4RNBFEQK-tApQ,507.15881561452534
alfamart bkd,4.5,6,-6.2198946,106.8557831,"jl. tekukur dalam no.21-31, rt.9/rw.2, bukit duri, kota jakarta selatan",ChIJcVc1XIbzaS4RcyP2izqoYHE,1980.5226026170535
alfamart mwtm (k795),4.4,5,-6.210930299999999,106.8421876,"jl. menteng wadas timur no.18b, rt.9/rw.1, ps. manggis, kota jakarta selatan",ChIJH1n1T3P0aS4R6agOTLlpnCg,221.2149440929325
alfamart,3.9,26,-6.223748899999999,106.8551894,"jl. sawo kecik raya no.4, rt.0 kel, rt.6/rw.6, bukit duri, kota jakarta selatan",ChIJ7U7upoXzaS4RujBBzm_mTGw,2222.511112078939
alfamart karbela 3,4.3,25,-6.2092301,106.8266949,"jl. setia budi tengah no.5, rt.1/rw.1, kuningan, kota jakarta selatan",ChIJNYn7SAf0aS4RXmIS9qwhxQU,1645.8944616626115
alfamart swadaya 1,4.3,131,-6.214059499999999,106.8468424,"jl. swadaya 1 no.25, rt.8/rw.8, manggarai, kota jakarta selatan",ChIJAWHbLHT0aS4RKMOn7LcwAFo,806.4226257048998
alfamart karbela 2,3.8,5,-6.2154088,106.8281067,"jl. karbela, gg. anggrek xii kel no.10, rt.18/rw.2, kuningan, karet kuningan, kota jakarta selatan",ChIJAy-tiaj1aS4RDnaS0bHpQiw,1649.7321071653826
alfamart satrio,4.7,12,-6.2256225,106.8301711,"jl. prof. dr. satrio no.9, rt.7/rw.2, kuningan, kuningan tim., kota jakarta selatan",ChIJRSP9X8HzaS4ROIFGu7jBrKg,2234.6646197081354
alfamart setiabudibarat,5,1,-6.2104934,106.8230285,"jl. setiabudi raya no.2, rw.2, kuningan, kota jakarta selatan",ChIJRScsryb1aS4RlODMjqPRKNU,2057.4520281850496
alfamart,5,4,-6.225860000000001,106.8587594,"rt.1/rw.5, kb. baru, kota jakarta selatan",ChIJqeWQWf7zaS4RJW-5-q6ZFk8,2665.651654117517
alfamart komplek selmis,0,0,-6.2258337,106.8589905,"jl. asem baris raya no.3, rt.3/rw.9, kebon baru, south jakarta city",ChIJ0dPodPrzaS4RE47Rr8Mz77Y,2681.869956048473
alfamart bukit duri selatan,0,0,-6.2212139,106.856739,"jl. cucakrawa no.882, rt.8/rw.4, bukit duri, kota jakarta selatan",ChIJ8a2fcwfzaS4Rte3SBP5Gj_0,2154.346789465872
alfamart express,0,0,-6.1994476,106.8419548,"rr2r+6qg, rt.1/rw.1, pegangsaan, central jakarta city",ChIJ2_3Y5Rf1aS4RDceAiXfgXXE,1066.7423126403887
alfamart stasiu,5,3,-6.2258686,106.8586468,"qvf5+mfc, flyover stasiun tebet, rt.3/rw.9, kb. baru, kota jakarta selatan",ChIJYRBiI-rzaS4RBW5LKzm2-yY,2657.47369951059
alfamart,0,0,-6.22884,106.83263,"ariobimo sentral, jl. h. r. rasuna said no.kel, rt.1/rw.2, kuningan, kuningan tim., kota jakarta selatan",ChIJj_61hA3zaS4RYO2Bom0a2e0,2414.479325678534
