nama_tempat,rating_tempat,user_ratings_total,latitude,longitude,alamat_tempat,place_id,distance
indomaret assirot,0,0,-6.194716499999999,106.8669329,"jl. assirot no. 6a rt. 06/01, sukabumi selatan, kebon jeruk",ChIJ38U6OvX0aS4RDde402dm8fE,0
indomaret green pramuka nerine 2,0,0,-6.189607899999999,106.8730406,"rv6f+563, rt.13/rw.9, rawasari, central jakarta city",ChIJK7Zhegn1aS4RxRVe-npfLQ4,0
indomaret nerine utara,0,0,-6.188755599999999,106.8731647,"rv6f+f7v, rt.13/rw.9, rawasari, central jakarta city",ChIJk00KncL1aS4RMVWqUhiNFTE,0
indomaret kampung melayu besar,4.2,9,-6.2252467,106.8628154,"jl. kampung melayu besar no.18 rt. 10 / rw. 02, kebon baru, tebet, rt.1/rw.1, kb. baru, kota jakarta selatan",ChIJD391JYPzaS4RQJHI5zLfWfg,0
indomaret abdulah syafei - kp. melayu,0,0,-6.224908399999999,106.866034,"qvg8+2cv, rt.2/rw.1, bidara cina, east jakarta city",ChIJZ32HrG3zaS4RDEdM-8JgtKs,0
indomaret gudang peluru,4.8,13,-6.2255444,106.8622325,"jl. gudang peluru raya no.b1, rt.1/rw.1, kebon baru, south jakarta city",ChIJM_MGcAHzaS4RaWCJ-tf_NBA,0
indomaret,5,1,-6.2256068,106.8622342,"qvf6+qv5, rt.12/rw.9, bukit duri, south jakarta city",ChIJn03pAwTzaS4R0bJEXJlngZc,0
indomaret basuki rahmat 10,4.8,9,-6.225012299999999,106.8686902,"qvf9+xfw, rt.13/rw.1, bali mester, east jakarta city",ChIJseq4IvvzaS4RkFLeN9IEZOk,0
indomaret kp melayu jembatan,4.3,8,-6.2261166,106.8638063,"jl. kp. melayu besar 1 no.225, rt.3/rw.1, kb. baru, kota jakarta selatan",ChIJZ4s-S53zaS4Rqs7o2XJV4Lc,0
