nama_tempat,rating_tempat,user_ratings_total,latitude,longitude,alamat_tempat,place_id,distance
indomaret warga siaga,4.5,20,-6.272292699999999,106.8391874,"jl. warga baru no.4b 17, rt.17/rw.3, pejaten bar., kota jakarta selatan",ChIJITbO1jjyaS4RS5lw3N7iBVM,0
indomaret pasar minggu,4.1,77,-6.2804467,106.844865,"jl. raya pasar minggu no.8, rt.6/rw.1, ps. minggu, kota jakarta selatan",ChIJz_____DtaS4R2Q5FIFxTxv8,0
indomaret warung jati,4.1,127,-6.2694594,106.8377558,"jl. siaga raya no.7b, rt.12/rw.4, pejaten bar., kota jakarta selatan",ChIJCQpntznyaS4R5HJ1zQCwkB4,0
indomaret,4.6,81,-6.275748999999999,106.8414378,"jl. pejaten raya no.1b, rt.7, pejaten bar., kota jakarta selatan",ChIJ63ebeEDyaS4RkvBsuy-1j3o,0
indomaret hybrid pejaten raya,4.3,256,-6.279562299999999,106.8367311,"jl. pejaten raya no.42, rt.8/rw.10, jati padang, kota jakarta selatan",ChIJL-7KwRXyaS4R1KfdS1lXbjA,0
