nama_tempat,rating_tempat,user_ratings_total,latitude,longitude,alamat_tempat,place_id,distance
indomaret cikajang. f4o3,3.8,33,-6.2394178,106.8107532,"1, jl. cikajang no.1, rt.1/rw.5, petogogan, kota jakarta selatan",ChIJC8mjQGfxaS4RkOquMhj4bMM,0
indomaret birah senayan,4.1,168,-6.2353007,106.8152731,"no.13, jl. birah i no.1, rt.5/rw.6, rw. bar., kota jakarta selatan",ChIJkYWOBl_xaS4RmTTy6oeqFXc,0
indomaret cipaku 1 no. 33,0,0,-6.239303899999999,106.8121988,"jl. cipaku i no.2, rw.4, petogogan, kota jakarta selatan",ChIJXxPvJBLxaS4RtgUwzQoQGtQ,0
indomaret wolter mongonsidi,4.4,150,-6.2385571,106.817085,"1, jl. kapten tendean no.125, rt.1/rw.2, rw. bar., kota jakarta selatan",ChIJB9ECK93xaS4R_Mj4ihkqHJI,0
indomaret spbu kemang,4.5,98,-6.2668841,106.8157034,"spbu kemang, jl. kemang raya no.7, rw.2, bangka, kota jakarta selatan",ChIJXaV9uofxaS4R737kEcz9UiE,0
indomaret kemang selatan 8 t6zo,4.5,225,-6.2674666,106.8139114,"jl. kemang selatan viii no.67f, rt.7/rw.2, bangka, kota jakarta selatan",ChIJDVvROIbxaS4RE-sW0bxd2kc,0
fresh indomaret kemang,4.4,382,-6.272597699999999,106.8149503,"jl. kemang raya no.128, rt.3/rw.2, bangka, kota jakarta selatan",ChIJsVZkdYnxaS4RtDwdFb5B2t0,0
