nama_tempat,rating_tempat,user_ratings_total,latitude,longitude,alamat_tempat,place_id,distance
indomaret,0,0,-6.214337,106.8312134,"wisma budi, jl. h. r. rasuna said no.3, rt.3/rw.1, karet, kota jakarta selatan",ChIJVwsQapH1aS4RRn0qO3oi72c,783.6132443701136
indomaret dr. saharjo,4.2,16,-6.2160036,106.8440714,"jl. dr. saharjo no.109, rt.2/rw.10, manggarai sel., kota jakarta selatan",ChIJk___P4nzaS4R-mx5t36xeEE,1966.5449678400487
indomaret soepomo,4.1,16,-6.2325019,106.8444327,"qr9v+2q4, jalan dr. soepomo, rt.1/rw.3, menteng dalam, kota jakarta selatan",ChIJw4Qe95TzaS4R4TukR0p9hZk,2419.690293642747
indomaret setiabudi 17 ttap,4.7,9,-6.2104472,106.8230337,"jl. setiabudi raya no.17, rt.2/rw.2, kuningan, karet kuningan, kota jakarta selatan",ChIJT8CQPFb1aS4RK8qucus35Ww,1111.5920451484028
indomaret menteng wadas,3,2,-6.2106207,106.8419454,"jl. menteng wadas timur no.17, rt.1/rw.7, ps. manggis, kota jakarta selatan",ChIJVxLzin71aS4R5ngDmYA-lEM,1969.196475453122
indomaret,4.4,75,-6.216285699999999,106.843786,"qrmv+fgp, rt.1/rw.7, menteng atas, south jakarta city",ChIJE27Ce3X0aS4RwPqn75uJU88,1929.2009101154413
indomaret,4.3,3,-6.2167127,106.8127242,"qrm7+835, rt.5/rw.2, bendungan hilir, central jakarta city",ChIJTQh2UKv2aS4RKQet6SZxwrg,1580.268116153552
indomaret menteng wadas 2,3.8,8,-6.2113933,106.8415987,"jl. menteng wadas timur no.11, rt.8/rw.1, ps. manggis, kota jakarta selatan",ChIJt6qq6gz0aS4Rc32yPpqE5bc,1892.7952104596375
indomaret menara kuningan,5,2,-6.2186328,106.8300399,"6, jl. denpasar no.7, rt.6/rw.7, kuningan, karet kuningan, kota jakarta selatan",ChIJX77vnO3zaS4RglK4CERSUh4,391.24870159816896
indomaret guru mughni,4.1,41,-6.2269641,106.8213717,"jalan guru mughni no. c4, karet semanggi, setiabudi, rt.5/rw.2, karet semanggi, rt.5/rw.2, karet semanggi, kota jakarta selatan",ChIJ4T8PLOPzaS4RQDVcYaC-IGg,993.3840514004918
indomaret guntur t 42,4.4,208,-6.2086144,106.8368663,"jl. guntur no.40, rt.8/rw.1, guntur, kota jakarta selatan",ChIJU8fWq6_1aS4RLiY3lLYzs2o,1673.9947238085226
indomaret dr satrio 289,4.6,13,-6.2177327,106.8196168,"jalan professor doktor satrio no.289, karet kuningan, setiabudi rt.1/rw.1, kuningan, rt.1/rw.1, kuningan, karet kuningan, south jakarta city",ChIJf1IrAD3zaS4RP2uQZVJc8jY,813.4628287509227
indomaret plus,4,88,-6.2212663,106.8270455,"jl. karet pedurenan no.68a, rt.9/rw.4, kuningan, karet kuningan, kota jakarta selatan",ChIJFwAAAPnzaS4RSejras5dRMU,172.0231754732857
indomaret point mrt istora mandiri,3.7,6,-6.2225424,106.8086237,"istora mrt station, jl. jenderal sudirman, rt.1/rw.3, gelora, central jakarta city",ChIJQc2OjQzxaS4RfqiyqqO_NCw,2020.5684824042735
indomaret menteng atas,3.8,22,-6.214204,106.8409467,"jl. menteng atas no.rt. 03/06, rt.3/rw.6, menteng atas, kota jakarta selatan",ChIJb2LXKQv0aS4RMsA0_7UBZqw,1693.0302235604277
indomaret point,3.3,3,-6.2331067,106.8230684,"patra jasa, jl. gatot subroto, rt.6/rw.3, kuningan, kuningan tim., kota jakarta selatan",ChIJpbNXVUrzaS4Rt_lHfKPzCKM,1536.9695511521907
indomaret itc kuningan,0,0,-6.2235581,106.8259947,"jl. prof. dr. satrio no.18, rt.11/rw.4, kuningan, karet kuningan, kota jakarta selatan",ChIJDW3h1JDzaS4R8CQ1sNCxq94,429.12583010123603
indomaret pedurenan,4.4,99,-6.2222333,106.8261754,"jl. pedurenan masjid iii no.50, rt.8/rw.4, kuningan, karet kuningan, kota jakarta selatan",ChIJjyTKfPnzaS4RmgahJeqJgd8,280.69261081785095
indomaret birah senayan,4.1,168,-6.2353007,106.8152731,"no.13, jl. birah i no.1, rt.5/rw.6, rw. bar., kota jakarta selatan",ChIJkYWOBl_xaS4RmTTy6oeqFXc,2139.571822412076
indomaret plus,0,0,-6.208247399999999,106.8327765,"qrrm+p42, rt.8/rw.2, guntur, south jakarta city",ChIJZU13Dof1aS4RXIGm2TLCTWY,1446.4010147868303
indomaret minangkabau dalam,4.2,195,-6.215694699999999,106.8422542,"jl. minangkabau dalam no.1, rt.4/rw.14, menteng atas, kota jakarta selatan",ChIJt9agVXX0aS4RMX9VQephLU0,1779.187086083815
indomaret wisma staco,5,2,-6.2246197,106.8401752,"wisma staco, jl. raya casablanca no.4, rt.4/rw.12, menteng dalam, kota jakarta selatan",ChIJTYdPFlzzaS4R4JoaMHSAiPY,1585.8276886358472
indomaret permata kuningan,3,7,-6.2123971,106.8336757,"jalan kuningan mulia kav. 9c, kel. guntur, kec. setiabudi, rt.6/rw.1, menteng atas, rt.6/rw.1, menteng atas, kota jakarta selatan",ChIJw___Pw70aS4RWR0PfuJ3EbQ,1125.7052337866496
indomaret casablanca,3.7,22,-6.2250076,106.8428196,"jalan casablanca, rt. 07 / rw. 11, menteng dalam, tebet, rt.7/rw.11, menteng dalam, kota jakarta selatan",ChIJVaFRO43zaS4R9wZv9oxkGeI,1876.275249443372
indomaret (tokx),0,0,-6.206626099999999,106.8267823,"jl. setia budi viii no.10, rt.2/rw.3, kuningan, setia budi, kota jakarta selatan",ChIJq1gLE__1aS4RWeHN-mgTXGM,1460.551774079859
indomaret convenience store point,4,25,-6.2048824,106.8226389,"wisma indosemen lantai gf/annex kav. 70-71, jl. jenderal sudirman, rt.3/rw.3, kuningan, setia budi, kota jakarta selatan",ChIJJ5m3hBz0aS4RBJ9_gwBC4gk,1713.8636126520037
indomaret bek murad fz7m,4.2,36,-6.216343999999999,106.8201923,"jl. bek murad no.36, rw.1, kuningan, karet kuningan, kota jakarta selatan",ChIJCzDmJsD1aS4RcZY18yQacU8,812.2924191434004
indomaret plaza festival,3.4,10,-6.2212209,106.8328964,"qrhm+g56, rt.2/rw.5, karet kuningan, south jakarta city",ChIJMUTCa23zaS4RHTh8p6ntkmM,705.2974594621396
indomaret pal batu 36,4.3,70,-6.2247397,106.8447512,"jl. pal batu raya no.36, rt.13/rw.4, menteng dalam, kota jakarta selatan",ChIJtX8wqY3zaS4RTpmMPQzAFbg,2072.112784995759
indomaret ruko sudirman park,4.6,31,-6.205504599999999,106.817375,"ruko sudirman park blok b no. 3, rt.12/rw.11, karet tengsin, central jakarta city",ChIJtbBKIBn3aS4RDILdRYO1-O4,1890.1285718941765
indomaret plus rasamala,4.1,61,-6.2336278,106.8395619,"jl. rasamala raya no.26, rt.7/rw.9, menteng dalam, kota jakarta selatan",ChIJtaqqauvzaS4RnSCep_ghRMM,2098.316418640793
indomaret direktorat jenderal pajak,4.6,7,-6.2255721,106.8163936,"kompleks kantor pusat djp basement 1, jend. gatot subroto kav 40-42, senayan, kebayoran baru, rt.7/rw.1, senayan, kota jakarta selatan",ChIJdfevp1fxaS4RnmGonsjjpmU,1308.5471059011552
indomaret point wisma budi,3.8,5,-6.2141795,106.831199,"jl. hr rasuna said no.kav c5-6, rt.3/rw.1, 10, karet, kota jakarta selatan",ChIJS4y29Aj0aS4Rhsigp-JY_H4,796.1725155831128
indomaret karbela,4,35,-6.216086199999999,106.8232321,"jl. flamboyan no.1, rt.9/rw.3, kuningan, karet, kota jakarta selatan",ChIJQ7XctwD0aS4RfpVYI5dO7Tk,559.3128140775865
indomaret cikajang. f4o3,3.8,33,-6.2394178,106.8107532,"1, jl. cikajang no.1, rt.1/rw.5, petogogan, kota jakarta selatan",ChIJC8mjQGfxaS4RkOquMhj4bMM,2807.105573163191
indomaret the peak - tapq,0,0,-6.2105197,106.8242588,"qrqf+rj4, the peak jalan setiabudi raya, rt.2/rw.2, kuningan, setia budi, kota jakarta selatan",ChIJ_1BcKv_1aS4Rlooh3g26uJc,1062.052248183077
indomaret point stasiun mrt dukuh atas,5,1,-6.201634599999999,106.822607,"qrxf+82w, taman dukuh atas jl. jenderal sudirman, rt.10/rw.20, kebon melati, central jakarta city",ChIJ_ZiOif71aS4RT1bOaYGVvB8,2065.3962092169763
indomaret supomo 2,3.9,40,-6.239277899999999,106.8456902,"jl. prof. dr. soepomo no.02, rt.14/rw.6, tebet bar., kota jakarta selatan",ChIJXRviXL7zaS4RE8cUq9rXJQc,3020.2831629364455
indomaret dan fotocopi,5,1,-6.2393471,106.8107088,"qr66+777, rt.1/rw.5, petogogan, south jakarta city",ChIJeSJcQGfxaS4RjSDS5V3D1ZY,2804.077427156248
indomaret spbu penjernihan,4.6,5,-6.202390299999999,106.8063925,"spbu, jl. penjernihan 1 no.7, rt6/rw6, area, jl. pejompongan raya, rw.8, bendungan hilir, central jakarta city",ChIJu0w9qAv3aS4RkVPqISVW4q0,2960.3629828352873
indomaret menara imperium (t7xu),4.6,15,-6.2101278,106.8312488,"menara imperium, jl. h. r. rasuna said no.1, rt.1/rw.6, guntur, kota jakarta selatan",ChIJHYztEg_0aS4RoD35swJ40H4,1183.891419685703
indomaret ciputat raya 2a -b,0,0,-6.239546799999999,106.8263501,"jl. kapten tendean no.34, rt.9/rw.2, kuningan bar., kota jakarta selatan",ChIJR3Z58xPzaS4Rv46cCQ_1uvk,2200.4215739878646
